time,.header.seq,.header.stamp.secs,.header.stamp.nsecs,.header.frame_id,.endpoint_state.header.seq,.endpoint_state.header.stamp.secs,.endpoint_state.header.stamp.nsecs,.endpoint_state.header.frame_id,.endpoint_state.pose.position.x,.endpoint_state.pose.position.y,.endpoint_state.pose.position.z,.endpoint_state.pose.orientation.x,.endpoint_state.pose.orientation.y,.endpoint_state.pose.orientation.z,.endpoint_state.pose.orientation.w,.endpoint_state.twist.linear.x,.endpoint_state.twist.linear.y,.endpoint_state.twist.linear.z,.endpoint_state.twist.angular.x,.endpoint_state.twist.angular.y,.endpoint_state.twist.angular.z,.endpoint_state.wrench.force.x,.endpoint_state.wrench.force.y,.endpoint_state.wrench.force.z,.endpoint_state.wrench.torque.x,.endpoint_state.wrench.torque.y,.endpoint_state.wrench.torque.z,.joint_state.header.seq,.joint_state.header.stamp.secs,.joint_state.header.stamp.nsecs,.joint_state.header.frame_id,.joint_state.name,.joint_state.position,.joint_state.velocity,.joint_state.effort,.wrench_stamped.header.seq,.wrench_stamped.header.stamp.secs,.wrench_stamped.header.stamp.nsecs,.wrench_stamped.header.frame_id,.wrench_stamped.wrench.force.x,.wrench_stamped.wrench.force.y,.wrench_stamped.wrench.force.z,.wrench_stamped.wrench.torque.x,.wrench_stamped.wrench.torque.y,.wrench_stamped.wrench.torque.z,.tactile_values.tactile_values_0,.tactile_values.tactile_values_1,.tactile_values.tactile_values_2,.tactile_values.tactile_values_3,.tactile_values.tactile_values_4,.tactile_values.tactile_values_5,.tactile_values.tactile_values_6,.tactile_values.tactile_values_7,.tactile_values.tactile_values_8,.tactile_values.tactile_values_9,.tag,.goal_vector,.delta_wrench.force.x,.delta_wrench.force.y,.delta_wrench.force.z,.delta_wrench.torque.x,.delta_wrench.torque.y,.delta_wrench.torque.z
1522084767.7,21669,1522055967,675911903,,1002385,1522055964,972414143,,0.7352681761200001,-0.09661049585510001,0.000347771775519,0.991787464195,0.126053842804,-0.005530699829560001,0.0209156864192,-0.013372879040099999,0.017013894084,-0.010321074657700002,-0.00422978215237,0.0255405539589,0.023552318161400004,5.821017265319999,1.76241123676,-3.01933431625,-0.0386556237936,3.09125614166,0.538987874985,1002781,1522055964,960501178,,"['head_nod', 'head_pan', 'left_e0', 'left_e1', 'left_s0', 'left_s1', 'left_w0', 'left_w1', 'left_w2', 'right_e0', 'right_e1', 'right_s0', 'right_s1', 'right_w0', 'right_w1', 'right_w2', 'torso_t0']","(0.0, -0.10200972239438001, -0.9150195399736493, 1.509437095279247, 0.28723790253154374, 0.6523253300482722, 2.3477575958586256, -0.4759175394414496, -0.026077673394052033, 0.5108156023658428, 1.374830281142302, 0.7282573790486002, -0.7988204952913293, -0.4302816110018586, 1.1244079175200083, 0.2795679985921167, -12.565987119160338)","(0.0, 0.011780972448751823, 0.00039269908162506076, -0.0007853981632501215, 0.006283185306000972, -0.013351768775252066, 0.003926990816250607, 0.0023561944897503642, -0.003926990816250607, -0.0027488935713754254, 0.007853981632501214, 0.005497787142750851, 0.0011780972448751821, 0.006283185306000972, 0.021991148571003403, 0.009032078877376396, 0.0)","(0.0, 0.0, -14.268, 11.076, 0.34, 4.184, 0.068, -2.596, 0.42, 8.496, -13.912, 0.308, -26.3, -0.056, 0.38, -0.324, -20.48)",467070,1522055967,675451736,robotiq_force_torque_frame_id,-2.7760000467299997,-0.06499997377399999,-0.45099792480499995,-0.0780000016093,-0.19499999284699998,-0.187000006437,18.0,20.0,20.0,21.0,78.0,0.0,0.0,0.0,0.0,0.0,7,"(0.7344498357719312, -0.09738982372549283, -0.001364472314410406, 0.991665944411981, 0.12686238981194664, -0.006216017176757271, 0.02158587211937625)",0.0,0.0,0.0,0.0,0.0,0.0
1522084767.7,21670,1522055967,685965061,,1002385,1522055964,972414143,,0.7352681761200001,-0.09661049585510001,0.000347771775519,0.991787464195,0.126053842804,-0.005530699829560001,0.0209156864192,-0.013372879040099999,0.017013894084,-0.010321074657700002,-0.00422978215237,0.0255405539589,0.023552318161400004,5.821017265319999,1.76241123676,-3.01933431625,-0.0386556237936,3.09125614166,0.538987874985,396466,1522055964,980000000,,['r_gripper_l_finger_joint'],"(0.0007790081631392241,)","(0.0,)","(0.0,)",467071,1522055967,683618967,robotiq_force_torque_frame_id,-2.53600003719,0.24499996900600002,-0.47099838256800003,-0.07199999690060001,-0.19499999284699998,-0.18999999761599998,16.0,18.0,20.0,21.0,66.0,0.0,0.0,0.0,0.0,0.0,7,"(0.7344498357719312, -0.09738982372549283, -0.001364472314410406, 0.991665944411981, 0.12686238981194664, -0.006216017176757271, 0.02158587211937625)",0.24000000953999967,0.30999994278,-0.02000045776300008,0.006000004708699991,0.0,-0.002999991178999989
1522084767.74,21671,1522055967,695924043,,1002386,1522055964,982421557,,0.7357043838959999,-0.0967677757519,0.00047298646375199996,0.991872209729,0.125418989941,-0.00517516259993,0.0208041876037,0.0157713379446,-0.0064512268138900005,0.00024376623672799997,0.00483051148001,-0.0203880655025,-0.010655186052700001,5.843568325040001,1.85777139664,-2.98559999466,-0.126825839281,3.1047422885900002,0.525137782097,396467,1522055964,988000000,,['l_gripper_l_finger_joint'],"(0.02083,)","(0.0,)","(0.0,)",467072,1522055967,691760281,robotiq_force_torque_frame_id,-1.7459999561300001,-0.655000007153,-0.21100006103500002,-0.09000000357629999,-0.17599999904599997,-0.167999997735,18.0,23.0,23.0,31.0,37.0,0.0,0.0,0.0,0.0,0.0,7,"(0.7344498357719312, -0.09738982372549283, -0.001364472314410406, 0.991665944411981, 0.12686238981194664, -0.006216017176757271, 0.02158587211937625)",0.7900000810599999,-0.8999999761590001,0.259998321533,-0.01800000667569998,0.01899999380100001,0.021999999880999987
1522084767.74,21672,1522055967,705916881,,1002387,1522055964,992413328,,0.735038342295,-0.0962257767641,0.000326868275227,0.991828247655,0.125801780009,-0.005730007516459999,0.020440311023,0.011510802782100002,-0.019268897259,0.0101742518172,-0.019902901046,-0.024293918072,0.0038767091970700004,5.893046855930001,1.8630833625799998,-2.9402124881700002,-0.13293310999900002,3.14561128616,0.532243251801,396467,1522055964,988000000,,['l_gripper_l_finger_joint'],"(0.02083,)","(0.0,)","(0.0,)",467073,1522055967,703968323,robotiq_force_torque_frame_id,-1.51599993706,-0.875000035763,-0.200997924805,-0.097999997437,-0.173999994993,-0.148000001907,19.0,23.0,23.0,31.0,37.0,0.0,0.0,0.0,0.0,0.0,7,"(0.7344498357719312, -0.09738982372549283, -0.001364472314410406, 0.991665944411981, 0.12686238981194664, -0.006216017176757271, 0.02158587211937625)",0.23000001907000023,-0.22000002861,0.010002136230000014,-0.007999993860700008,0.002000004052999965,0.019999995827999995
1522084767.74,21673,1522055967,715934991,,1002389,1522055965,12431334,,0.7353842683249999,-0.0968874427296,-0.000203560550151,0.991778624377,0.126118540348,-0.0054257056440899995,0.0209722609091,-0.00384719000574,-0.00211245371139,-0.0103327580484,-0.00590234778312,0.0080691609578,-0.0062508479916,6.2665023803699995,1.81688940525,-2.8559784889200004,-0.0640577077866,3.3953046798699997,0.559327244759,1002785,1522055965,523342,,"['head_nod', 'head_pan', 'left_e0', 'left_e1', 'left_s0', 'left_s1', 'left_w0', 'left_w1', 'left_w2', 'right_e0', 'right_e1', 'right_s0', 'right_s1', 'right_w0', 'right_w1', 'right_w2', 'torso_t0']","(0.0, -0.10162622719740866, -0.9154030351706206, 1.5086701048853044, 0.2876213977285151, 0.6527088252452435, 2.3473741006616544, -0.4759175394414496, -0.026461168591023387, 0.5104321071688714, 1.3744467859453307, 0.7274903886546574, -0.7984370000943578, -0.42951462060791584, 1.1236409271260657, 0.27880100819817394, -12.565987119160338)","(0.0, 0.0023561944897503642, 0.009424777959001457, 0.01060287520387664, -0.009817477040626518, 0.01727875959150267, -0.014137166938502187, 0.0019634954081253035, 0.00510508806112579, -0.0047123889795007284, -0.0035342917346255468, 0.008246680714126275, -0.004319689897875668, 0.012173671530376884, -0.010995574285501701, -0.0035342917346255468, 0.0)","(0.0, 0.0, -14.204, 11.108, 0.404, 4.184, 0.052, -2.628, 0.408, 8.404, -13.884, 0.372, -26.24, -0.072, 0.4, -0.308, -20.48)",467074,1522055967,712103632,robotiq_force_torque_frame_id,-2.31600012779,-0.135000026226,-0.321000671387,-0.10400000214600001,-0.16400000453,-0.156000003219,12.0,19.0,21.0,24.0,39.0,0.0,0.0,0.0,0.0,0.0,7,"(0.7344498357719312, -0.09738982372549283, -0.001364472314410406, 0.991665944411981, 0.12686238981194664, -0.006216017176757271, 0.02158587211937625)",-0.8000001907300003,0.7400000095370001,-0.120002746582,-0.006000004709000015,0.009999990463000014,-0.008000001312000016
1522084767.74,21674,1522055967,725931882,,1002389,1522055965,12431334,,0.7353842683249999,-0.0968874427296,-0.000203560550151,0.991778624377,0.126118540348,-0.0054257056440899995,0.0209722609091,-0.00384719000574,-0.00211245371139,-0.0103327580484,-0.00590234778312,0.0080691609578,-0.0062508479916,6.2665023803699995,1.81688940525,-2.8559784889200004,-0.0640577077866,3.3953046798699997,0.559327244759,1002785,1522055965,523342,,"['head_nod', 'head_pan', 'left_e0', 'left_e1', 'left_s0', 'left_s1', 'left_w0', 'left_w1', 'left_w2', 'right_e0', 'right_e1', 'right_s0', 'right_s1', 'right_w0', 'right_w1', 'right_w2', 'torso_t0']","(0.0, -0.10162622719740866, -0.9154030351706206, 1.5086701048853044, 0.2876213977285151, 0.6527088252452435, 2.3473741006616544, -0.4759175394414496, -0.026461168591023387, 0.5104321071688714, 1.3744467859453307, 0.7274903886546574, -0.7984370000943578, -0.42951462060791584, 1.1236409271260657, 0.27880100819817394, -12.565987119160338)","(0.0, 0.0023561944897503642, 0.009424777959001457, 0.01060287520387664, -0.009817477040626518, 0.01727875959150267, -0.014137166938502187, 0.0019634954081253035, 0.00510508806112579, -0.0047123889795007284, -0.0035342917346255468, 0.008246680714126275, -0.004319689897875668, 0.012173671530376884, -0.010995574285501701, -0.0035342917346255468, 0.0)","(0.0, 0.0, -14.204, 11.108, 0.404, 4.184, 0.052, -2.628, 0.408, 8.404, -13.884, 0.372, -26.24, -0.072, 0.4, -0.308, -20.48)",467075,1522055967,724318429,robotiq_force_torque_frame_id,-2.8860000610400003,-0.535000002384,-0.321000671387,-0.112000003457,-0.167999997735,-0.158000007272,14.0,21.0,24.0,25.0,39.0,0.0,0.0,0.0,0.0,0.0,7,"(0.7344498357719312, -0.09738982372549283, -0.001364472314410406, 0.991665944411981, 0.12686238981194664, -0.006216017176757271, 0.02158587211937625)",-0.5699999332500001,-0.39999997615800004,0.0,-0.008000001310999982,-0.0039999932049999964,-0.002000004052999993
1522084767.78,21675,1522055967,735917091,,1002389,1522055965,12431334,,0.7353842683249999,-0.0968874427296,-0.000203560550151,0.991778624377,0.126118540348,-0.0054257056440899995,0.0209722609091,-0.00384719000574,-0.00211245371139,-0.0103327580484,-0.00590234778312,0.0080691609578,-0.0062508479916,6.2665023803699995,1.81688940525,-2.8559784889200004,-0.0640577077866,3.3953046798699997,0.559327244759,1002786,1522055965,10533827,,"['head_nod', 'head_pan', 'left_e0', 'left_e1', 'left_s0', 'left_s1', 'left_w0', 'left_w1', 'left_w2', 'right_e0', 'right_e1', 'right_s0', 'right_s1', 'right_w0', 'right_w1', 'right_w2', 'torso_t0']","(0.0, -0.1012427320004373, -0.9150195399736493, 1.509437095279247, 0.28685440733457235, 0.6523253300482722, 2.3477575958586256, -0.4759175394414496, -0.026077673394052033, 0.5104321071688714, 1.3744467859453307, 0.7278738838516289, -0.7984370000943578, -0.4306651061988299, 1.1232574319290942, 0.27880100819817394, -12.565987119160338)","(0.0, 0.0023561944897503642, 0.012173671530376884, 0.0027488935713754254, -0.010995574285501701, 0.01060287520387664, 0.012173671530376884, 0.00039269908162506076, 0.005497787142750851, -0.014137166938502187, 0.0047123889795007284, 0.009032078877376396, 0.011780972448751823, 0.0, -0.009424777959001457, 0.0070685834692510935, 0.0)","(0.0, 0.0, -14.108, 11.108, 0.34, 4.152, 0.076, -2.628, 0.38, 8.528, -13.912, 0.28, -26.24, -0.056, 0.44, -0.336, -20.48)",467076,1522055967,732449411,robotiq_force_torque_frame_id,-2.3059998989099997,-1.16499999762,-0.07100067138669999,-0.101999998093,-0.180999994278,-0.149000003934,13.0,14.0,19.0,25.0,30.0,0.0,0.0,0.0,0.0,0.0,7,"(0.7344498357719312, -0.09738982372549283, -0.001364472314410406, 0.991665944411981, 0.12686238981194664, -0.006216017176757271, 0.02158587211937625)",0.5800001621300006,-0.629999995236,0.2500000000003,0.01000000536399999,-0.01299999654300002,0.009000003337999996
1522084767.78,21676,1522055967,746067047,,1002390,1522055965,22434755,,0.735389188888,-0.09585789207010001,0.000342811002728,0.991778390524,0.12621638952,-0.00512011370263,0.0204653742087,0.009361270537139999,0.0012566648714100001,6.52683269171e-05,0.0226947294166,-0.023037355255999998,-0.0244765525951,5.9701833725,1.8902692794799998,-2.82498979568,-0.151251778007,3.2350623607599998,0.532625317574,396468,1522055965,30000128,,['r_gripper_l_finger_joint'],"(0.0007790081631392241,)","(0.0,)","(0.0,)",467077,1522055967,744639633,robotiq_force_torque_frame_id,-1.92600002289,-0.9749999403949999,0.0290016174316,-0.103000000119,-0.184000000358,-0.151999995112,14.0,21.0,28.0,34.0,57.0,0.0,0.0,0.0,0.0,0.0,7,"(0.7344498357719312, -0.09738982372549283, -0.001364472314410406, 0.991665944411981, 0.12686238981194664, -0.006216017176757271, 0.02158587211937625)",0.3799998760199996,0.19000005722500013,0.10000228881829999,-0.0010000020259999937,-0.0030000060799999784,-0.0029999911779999833
1522084767.78,21677,1522055967,755933046,,1002390,1522055965,22434755,,0.735389188888,-0.09585789207010001,0.000342811002728,0.991778390524,0.12621638952,-0.00512011370263,0.0204653742087,0.009361270537139999,0.0012566648714100001,6.52683269171e-05,0.0226947294166,-0.023037355255999998,-0.0244765525951,5.9701833725,1.8902692794799998,-2.82498979568,-0.151251778007,3.2350623607599998,0.532625317574,1002788,1522055965,30534707,,"['head_nod', 'head_pan', 'left_e0', 'left_e1', 'left_s0', 'left_s1', 'left_w0', 'left_w1', 'left_w2', 'right_e0', 'right_e1', 'right_s0', 'right_s1', 'right_w0', 'right_w1', 'right_w2', 'torso_t0']","(0.0, -0.10162622719740866, -0.9154030351706206, 1.509437095279247, 0.28723790253154374, 0.6511748444573582, 2.3477575958586256, -0.47553404424447826, -0.026077673394052033, 0.5104321071688714, 1.3744467859453307, 0.7282573790486002, -0.7984370000943578, -0.4298981158048872, 1.124024422323037, 0.2791845033951453, -12.565987119160338)","(0.0, -0.006283185306000972, -0.00510508806112579, -0.0035342917346255468, 0.010995574285501701, -0.0035342917346255468, 0.014529866020127248, -0.02081305132612822, 0.0070685834692510935, 0.006283185306000972, -0.013744467856877126, 0.008246680714126275, 0.014922565101752308, 0.003926990816250607, 0.0007853981632501215, -0.0027488935713754254, 0.0)","(0.0, 0.0, -14.204, 11.044, 0.34, 4.252, 0.06, -2.588, 0.4, 8.468, -13.884, 0.34, -26.328, -0.064, 0.42, -0.324, -20.48)",467078,1522055967,752824966,robotiq_force_torque_frame_id,-2.70599999428,-0.0850000739098,0.288999938965,-0.103000000119,-0.18999999761599998,-0.158000007272,17.0,21.0,28.0,36.0,57.0,0.0,0.0,0.0,0.0,0.0,7,"(0.7344498357719312, -0.09738982372549283, -0.001364472314410406, 0.991665944411981, 0.12686238981194664, -0.006216017176757271, 0.02158587211937625)",-0.7799999713899999,0.8899998664851999,0.25999832153339997,0.0,-0.005999997257999989,-0.006000012160000012
1522084767.78,21678,1522055967,765909910,,1002390,1522055965,22434755,,0.735389188888,-0.09585789207010001,0.000342811002728,0.991778390524,0.12621638952,-0.00512011370263,0.0204653742087,0.009361270537139999,0.0012566648714100001,6.52683269171e-05,0.0226947294166,-0.023037355255999998,-0.0244765525951,5.9701833725,1.8902692794799998,-2.82498979568,-0.151251778007,3.2350623607599998,0.532625317574,1002788,1522055965,30534707,,"['head_nod', 'head_pan', 'left_e0', 'left_e1', 'left_s0', 'left_s1', 'left_w0', 'left_w1', 'left_w2', 'right_e0', 'right_e1', 'right_s0', 'right_s1', 'right_w0', 'right_w1', 'right_w2', 'torso_t0']","(0.0, -0.10162622719740866, -0.9154030351706206, 1.509437095279247, 0.28723790253154374, 0.6511748444573582, 2.3477575958586256, -0.47553404424447826, -0.026077673394052033, 0.5104321071688714, 1.3744467859453307, 0.7282573790486002, -0.7984370000943578, -0.4298981158048872, 1.124024422323037, 0.2791845033951453, -12.565987119160338)","(0.0, -0.006283185306000972, -0.00510508806112579, -0.0035342917346255468, 0.010995574285501701, -0.0035342917346255468, 0.014529866020127248, -0.02081305132612822, 0.0070685834692510935, 0.006283185306000972, -0.013744467856877126, 0.008246680714126275, 0.014922565101752308, 0.003926990816250607, 0.0007853981632501215, -0.0027488935713754254, 0.0)","(0.0, 0.0, -14.204, 11.044, 0.34, 4.252, 0.06, -2.588, 0.4, 8.468, -13.884, 0.34, -26.328, -0.064, 0.42, -0.324, -20.48)",467079,1522055967,765019927,robotiq_force_torque_frame_id,-2.59599997997,0.30500003099399997,0.268999481201,-0.0920000001788,-0.181999996305,-0.18000000715300002,22.0,29.0,36.0,45.0,51.0,0.0,0.0,0.0,0.0,0.0,7,"(0.7344498357719312, -0.09738982372549283, -0.001364472314410406, 0.991665944411981, 0.12686238981194664, -0.006216017176757271, 0.02158587211937625)",0.11000001430999973,0.3900001049038,-0.020000457764,0.010999999940199998,0.008000001310999982,-0.021999999881000015
1522084767.82,21679,1522055967,776115894,,1002393,1522055965,52432046,,0.735294904344,-0.0964213171888,0.000465989477245,0.991819845485,0.125792222232,-0.00551968194103,0.020958149691400002,-9.36770284192e-05,0.00302345774707,0.0013738040811700001,-0.00363685219888,-0.0008062535254550001,0.00153464455708,5.681920528409999,1.60122811794,-2.89350819588,-0.0116178393364,3.07161211967,0.545841574669,1002790,1522055965,50520565,,"['head_nod', 'head_pan', 'left_e0', 'left_e1', 'left_s0', 'left_s1', 'left_w0', 'left_w1', 'left_w2', 'right_e0', 'right_e1', 'right_s0', 'right_s1', 'right_w0', 'right_w1', 'right_w2', 'torso_t0']","(0.0, -0.10200972239438001, -0.9150195399736493, 1.509437095279247, 0.28685440733457235, 0.6527088252452435, 2.346990605464683, -0.476301034638421, -0.026077673394052033, 0.5104321071688714, 1.373679795551388, 0.7286408742455716, -0.7992039904883006, -0.4298981158048872, 1.1247914127169796, 0.2795679985921167, -12.565987119160338)","(0.0, -0.003926990816250607, 0.01688606050987761, 0.013744467856877126, 0.005497787142750851, -0.006283185306000972, 0.003141592653000486, 0.009817477040626518, 0.004319689897875668, 0.0023561944897503642, -0.003926990816250607, 0.005890486224375911, 0.00039269908162506076, -0.0047123889795007284, 0.005497787142750851, 0.006675884387626033, 0.0)","(0.0, 0.0, -14.204, 11.012, 0.496, 4.184, 0.068, -2.58, 0.392, 8.404, -13.852, 0.248, -26.328, -0.056, 0.388, -0.336, -20.48)",467080,1522055967,773152177,robotiq_force_torque_frame_id,-2.3660000801099996,0.19500001668900002,0.219000244141,-0.0930000022054,-0.187000006437,-0.18999999761599998,23.0,29.0,42.0,45.0,51.0,0.0,0.0,0.0,0.0,0.0,7,"(0.7344498357719312, -0.09738982372549283, -0.001364472314410406, 0.991665944411981, 0.12686238981194664, -0.006216017176757271, 0.02158587211937625)",0.22999989986000058,-0.11000001430499995,-0.04999923705999998,-0.0010000020265999998,-0.0050000101319999934,-0.009999990462999958
1522084767.82,21680,1522055967,785947084,,1002393,1522055965,52432046,,0.735294904344,-0.0964213171888,0.000465989477245,0.991819845485,0.125792222232,-0.00551968194103,0.020958149691400002,-9.36770284192e-05,0.00302345774707,0.0013738040811700001,-0.00363685219888,-0.0008062535254550001,0.00153464455708,5.681920528409999,1.60122811794,-2.89350819588,-0.0116178393364,3.07161211967,0.545841574669,1002791,1522055965,60506740,,"['head_nod', 'head_pan', 'left_e0', 'left_e1', 'left_s0', 'left_s1', 'left_w0', 'left_w1', 'left_w2', 'right_e0', 'right_e1', 'right_s0', 'right_s1', 'right_w0', 'right_w1', 'right_w2', 'torso_t0']","(0.0, -0.10162622719740866, -0.9150195399736493, 1.5090536000822758, 0.28723790253154374, 0.6519418348513009, 2.3473741006616544, -0.4759175394414496, -0.026077673394052033, 0.5100486119719001, 1.3740632907483594, 0.7278738838516289, -0.7980535048973865, -0.4298981158048872, 1.1236409271260657, 0.2791845033951453, -12.565987119160338)","(0.0, 0.011388273367126762, -0.004319689897875668, 0.00039269908162506076, 0.01649336142825255, 0.018064157754752792, -0.007461282550876154, -0.0007853981632501215, 0.008246680714126275, 0.0035342917346255468, 0.005890486224375911, -0.014922565101752308, -0.001570796326500243, -0.0011780972448751821, 0.01727875959150267, -0.0027488935713754254, 0.0)","(0.0, 0.0, -14.364, 11.012, 0.308, 4.252, 0.06, -2.616, 0.4, 8.468, -13.884, 0.152, -26.328, -0.064, 0.38, -0.316, -20.48)",467081,1522055967,785335393,robotiq_force_torque_frame_id,-2.17600002289,0.15499993562699999,0.219000244141,-0.08900000154969999,-0.18299999833099997,-0.181999996305,16.0,23.0,27.0,42.0,46.0,0.0,0.0,0.0,0.0,0.0,7,"(0.7344498357719312, -0.09738982372549283, -0.001364472314410406, 0.991665944411981, 0.12686238981194664, -0.006216017176757271, 0.02158587211937625)",0.1900000572199998,-0.04000008106200004,0.0,0.004000000655700012,0.004000008106000014,0.008000001310999982
1522084767.82,21681,1522055967,795882940,,1002393,1522055965,52432046,,0.735294904344,-0.0964213171888,0.000465989477245,0.991819845485,0.125792222232,-0.00551968194103,0.020958149691400002,-9.36770284192e-05,0.00302345774707,0.0013738040811700001,-0.00363685219888,-0.0008062535254550001,0.00153464455708,5.681920528409999,1.60122811794,-2.89350819588,-0.0116178393364,3.07161211967,0.545841574669,1002791,1522055965,60506740,,"['head_nod', 'head_pan', 'left_e0', 'left_e1', 'left_s0', 'left_s1', 'left_w0', 'left_w1', 'left_w2', 'right_e0', 'right_e1', 'right_s0', 'right_s1', 'right_w0', 'right_w1', 'right_w2', 'torso_t0']","(0.0, -0.10162622719740866, -0.9150195399736493, 1.5090536000822758, 0.28723790253154374, 0.6519418348513009, 2.3473741006616544, -0.4759175394414496, -0.026077673394052033, 0.5100486119719001, 1.3740632907483594, 0.7278738838516289, -0.7980535048973865, -0.4298981158048872, 1.1236409271260657, 0.2791845033951453, -12.565987119160338)","(0.0, 0.011388273367126762, -0.004319689897875668, 0.00039269908162506076, 0.01649336142825255, 0.018064157754752792, -0.007461282550876154, -0.0007853981632501215, 0.008246680714126275, 0.0035342917346255468, 0.005890486224375911, -0.014922565101752308, -0.001570796326500243, -0.0011780972448751821, 0.01727875959150267, -0.0027488935713754254, 0.0)","(0.0, 0.0, -14.364, 11.012, 0.308, 4.252, 0.06, -2.616, 0.4, 8.468, -13.884, 0.152, -26.328, -0.064, 0.38, -0.316, -20.48)",467082,1522055967,793487542,robotiq_force_torque_frame_id,-1.4959999561300001,-0.33500007391,0.899000549316,-0.059000000357599995,-0.206000000238,-0.17499999702,16.0,21.0,23.0,23.0,46.0,0.0,0.0,0.0,0.0,0.0,7,"(0.7344498357719312, -0.09738982372549283, -0.001364472314410406, 0.991665944411981, 0.12686238981194664, -0.006216017176757271, 0.02158587211937625)",0.6800000667599997,-0.49000000953699996,0.6800003051750001,0.030000001192099994,-0.023000001907000023,0.006999999285000003
1522084767.82,21682,1522055967,805916070,,1002396,1522055965,82424429,,0.735186526356,-0.09696628153560001,-0.00043263991034500003,0.9918422680050001,0.12560865472000002,-0.00579357832024,0.020924046180700002,0.00749762589204,-0.005901319871520001,0.00934989823274,-0.00733684744725,-0.0167494202013,-0.0067409069473800005,6.24721050262,1.92205417156,-2.9306182861299996,-0.160753458738,3.2992630004900003,0.536071360111,396470,1522055965,80999936,,['r_gripper_l_finger_joint'],"(0.0007790081631392241,)","(0.0,)","(0.0,)",467083,1522055967,805683182,robotiq_force_torque_frame_id,-2.08600010872,-0.895000016689,0.959001922607,-0.0579999983311,-0.219999998808,-0.157000005245,15.0,21.0,23.0,26.0,36.0,0.0,0.0,0.0,0.0,0.0,7,"(0.7344498357719312, -0.09738982372549283, -0.001364472314410406, 0.991665944411981, 0.12686238981194664, -0.006216017176757271, 0.02158587211937625)",-0.5900001525899998,-0.559999942779,0.06000137329099997,0.0010000020264999965,-0.013999998570000005,0.017999991775
1522084767.86,21683,1522055967,815953016,,1002396,1522055965,82424429,,0.735186526356,-0.09696628153560001,-0.00043263991034500003,0.9918422680050001,0.12560865472000002,-0.00579357832024,0.020924046180700002,0.00749762589204,-0.005901319871520001,0.00934989823274,-0.00733684744725,-0.0167494202013,-0.0067409069473800005,6.24721050262,1.92205417156,-2.9306182861299996,-0.160753458738,3.2992630004900003,0.536071360111,1002794,1522055965,90516164,,"['head_nod', 'head_pan', 'left_e0', 'left_e1', 'left_s0', 'left_s1', 'left_w0', 'left_w1', 'left_w2', 'right_e0', 'right_e1', 'right_s0', 'right_s1', 'right_w0', 'right_w1', 'right_w2', 'torso_t0']","(0.0, -0.1012427320004373, -0.9142525495797066, 1.5090536000822758, 0.28685440733457235, 0.6523253300482722, 2.346990605464683, -0.4759175394414496, -0.026461168591023387, 0.5096651167749288, 1.3740632907483594, 0.7290243694425429, -0.7988204952913293, -0.4291311254109445, 1.1236409271260657, 0.2791845033951453, -12.565987119160338)","(0.0, 0.0, 0.0007853981632501215, -0.01727875959150267, -0.009817477040626518, 0.008246680714126275, 0.0, -0.012566370612001944, -0.003141592653000486, 0.00510508806112579, -0.0007853981632501215, 0.008639379795751335, -0.011780972448751823, 0.013744467856877126, -0.0019634954081253035, 0.00039269908162506076, 0.0)","(0.0, 0.0, -14.364, 11.108, 0.34, 4.152, 0.076, -2.628, 0.408, 8.496, -13.972, 0.372, -26.268, -0.064, 0.38, -0.308, -20.48)",467084,1522055967,813825321,robotiq_force_torque_frame_id,-1.9460000038099998,-0.994999921322,0.34900131225599995,-0.0439999997616,-0.223000004888,-0.15099999308599998,15.0,17.0,23.0,36.0,47.0,0.0,0.0,0.0,0.0,0.0,7,"(0.7344498357719312, -0.09738982372549283, -0.001364472314410406, 0.991665944411981, 0.12686238981194664, -0.006216017176757271, 0.02158587211937625)",0.14000010491000014,-0.09999990463300001,-0.6100006103510001,0.013999998569499995,-0.003000006080000006,0.006000012159000007
1522084767.86,21684,1522055967,825947046,,1002398,1522055965,102423614,,0.734675981413,-0.09629606705160002,9.90425942409e-05,0.991780270959,0.126105497128,-0.00593977625901,0.0208330695754,-0.00028285054251,-0.0125491120909,0.0032993378622800003,-0.0134375823239,-0.00612047066257,-0.0123085017145,6.483471870419999,1.82013177872,-2.92974925041,-0.0956400334835,3.4083378315,0.537838160992,396471,1522055965,88999936,,['l_gripper_l_finger_joint'],"(0.02083,)","(0.0,)","(0.0,)",467084,1522055967,813825321,robotiq_force_torque_frame_id,-1.9460000038099998,-0.994999921322,0.34900131225599995,-0.0439999997616,-0.223000004888,-0.15099999308599998,15.0,15.0,17.0,43.0,47.0,0.0,0.0,0.0,0.0,0.0,7,"(0.7344498357719312, -0.09738982372549283, -0.001364472314410406, 0.991665944411981, 0.12686238981194664, -0.006216017176757271, 0.02158587211937625)",0.0,0.0,0.0,0.0,0.0,0.0
1522084767.86,21685,1522055967,835912942,,1002399,1522055965,112424614,,0.734978511467,-0.09533673168860002,0.000222320998447,0.9917246967219999,0.126631850244,-0.00554861666728,0.0203890477609,-0.014782768621399999,0.007215253721529999,-0.0057998920190900005,-0.00615067209363,0.025037600140400004,0.00949275266531,6.248636245730001,1.9512509107599998,-2.91370463371,-0.14032739400900002,3.2924053669,0.548861145973,1002796,1522055965,110541599,,"['head_nod', 'head_pan', 'left_e0', 'left_e1', 'left_s0', 'left_s1', 'left_w0', 'left_w1', 'left_w2', 'right_e0', 'right_e1', 'right_s0', 'right_s1', 'right_w0', 'right_w1', 'right_w2', 'torso_t0']","(0.0, -0.10162622719740866, -0.9146360447766779, 1.509437095279247, 0.286470912137601, 0.6519418348513009, 2.3473741006616544, -0.4759175394414496, -0.026461168591023387, 0.5111990975628141, 1.3740632907483594, 0.7290243694425429, -0.7988204952913293, -0.42951462060791584, 1.124024422323037, 0.27880100819817394, -12.565987119160338)","(0.0, -0.0027488935713754254, 0.01021017612225158, -0.0047123889795007284, -0.019242254999627974, 0.0035342917346255468, 0.01767145867312773, 0.0329867228565051, 0.0011780972448751821, 0.001570796326500243, 0.008246680714126275, 0.013351768775252066, 0.005497787142750851, 0.0023561944897503642, 0.013351768775252066, 0.006283185306000972, 0.0)","(0.0, 0.0, -14.204, 11.14, 0.372, 4.152, 0.052, -2.648, 0.392, 8.528, -13.972, 0.372, -26.3, -0.072, 0.36, -0.336, -20.48)",467086,1522055967,834136673,robotiq_force_torque_frame_id,-1.6660000324200002,-0.934999978542,1.2790016174299998,-0.0430000014603,-0.21899999678100002,-0.165000006557,18.0,19.0,29.0,35.0,43.0,0.0,0.0,0.0,0.0,0.0,7,"(0.7344498357719312, -0.09738982372549283, -0.001364472314410406, 0.991665944411981, 0.12686238981194664, -0.006216017176757271, 0.02158587211937625)",0.27999997138999966,0.05999994277999998,0.9300003051739999,0.0009999983013000008,0.0040000081069999915,-0.014000013471000022
1522084767.86,21686,1522055967,845942974,,1002399,1522055965,112424614,,0.734978511467,-0.09533673168860002,0.000222320998447,0.9917246967219999,0.126631850244,-0.00554861666728,0.0203890477609,-0.014782768621399999,0.007215253721529999,-0.0057998920190900005,-0.00615067209363,0.025037600140400004,0.00949275266531,6.248636245730001,1.9512509107599998,-2.91370463371,-0.14032739400900002,3.2924053669,0.548861145973,1002797,1522055965,120487899,,"['head_nod', 'head_pan', 'left_e0', 'left_e1', 'left_s0', 'left_s1', 'left_w0', 'left_w1', 'left_w2', 'right_e0', 'right_e1', 'right_s0', 'right_s1', 'right_w0', 'right_w1', 'right_w2', 'torso_t0']","(0.0, -0.10162622719740866, -0.9142525495797066, 1.5086701048853044, 0.286470912137601, 0.6519418348513009, 2.3477575958586256, -0.47553404424447826, -0.026461168591023387, 0.5104321071688714, 1.3744467859453307, 0.7282573790486002, -0.7988204952913293, -0.4298981158048872, 1.1236409271260657, 0.2791845033951453, -12.565987119160338)","(0.0, -0.011780972448751823, -0.009817477040626518, 0.0007853981632501215, 0.014137166938502187, -0.009424777959001457, 0.006675884387626033, 0.010995574285501701, 0.007461282550876154, 0.01767145867312773, 0.007461282550876154, 0.00510508806112579, 0.007853981632501214, -0.005497787142750851, -0.01727875959150267, 0.0070685834692510935, 0.0)","(0.0, 0.0, -14.172, 11.172, 0.56, 4.184, 0.076, -2.648, 0.4, 8.468, -13.972, 0.28, -26.328, -0.064, 0.38, -0.336, -20.48)",467087,1522055967,842285435,robotiq_force_torque_frame_id,-1.6460000515,-0.664999997616,1.5590003967299997,-0.0480000004172,-0.21899999678100002,-0.157000005245,19.0,19.0,26.0,27.0,35.0,0.0,0.0,0.0,0.0,0.0,7,"(0.7344498357719312, -0.09738982372549283, -0.001364472314410406, 0.991665944411981, 0.12686238981194664, -0.006216017176757271, 0.02158587211937625)",0.019999980920000215,0.26999998092599997,0.27999877929999983,-0.004999998956899995,0.0,0.008000001312000016
1522084767.9,21687,1522055967,855933904,,1002401,1522055965,132424475,,0.734899564455,-0.09570343616100001,-7.88052867745e-06,0.9917835211589999,0.126154699518,-0.00566353669843,0.0204539311138,0.011601533282600001,-0.016425889765,0.00127964125898,-0.012320824625299999,-0.01353639628,-0.017673953928799998,6.16119766235,1.7014871835699998,-2.93635344505,-0.0611505806446,3.26392173767,0.5312250852579999,396472,1522055965,131000064,,['r_gripper_l_finger_joint'],"(0.0007790081631392241,)","(0.0,)","(0.0,)",467087,1522055967,842285435,robotiq_force_torque_frame_id,-1.6460000515,-0.664999997616,1.5590003967299997,-0.0480000004172,-0.21899999678100002,-0.157000005245,17.0,19.0,26.0,26.0,27.0,0.0,0.0,0.0,0.0,0.0,7,"(0.7344498357719312, -0.09738982372549283, -0.001364472314410406, 0.991665944411981, 0.12686238981194664, -0.006216017176757271, 0.02158587211937625)",0.0,0.0,0.0,0.0,0.0,0.0
1522084767.9,21688,1522055967,865919113,,1002401,1522055965,132424475,,0.734899564455,-0.09570343616100001,-7.88052867745e-06,0.9917835211589999,0.126154699518,-0.00566353669843,0.0204539311138,0.011601533282600001,-0.016425889765,0.00127964125898,-0.012320824625299999,-0.01353639628,-0.017673953928799998,6.16119766235,1.7014871835699998,-2.93635344505,-0.0611505806446,3.26392173767,0.5312250852579999,396473,1522055965,139000064,,['l_gripper_l_finger_joint'],"(0.02083,)","(0.0,)","(0.0,)",467089,1522055967,862628324,robotiq_force_torque_frame_id,-2.31600012779,-0.845000064373,0.5290016174319999,-0.0729999989271,-0.20000000298,-0.163000002503,19.0,20.0,21.0,34.0,43.0,0.0,0.0,0.0,0.0,0.0,7,"(0.7344498357719312, -0.09738982372549283, -0.001364472314410406, 0.991665944411981, 0.12686238981194664, -0.006216017176757271, 0.02158587211937625)",-0.6700000762900002,-0.18000006675699998,-1.0299987792979999,-0.024999998509900007,0.01899999380100001,-0.005999997258000017
1522084767.9,21689,1522055967,875922918,,1002402,1522055965,142431118,,0.735319010831,-0.09649974087430001,-3.51402593315e-05,0.991812778326,0.12586045276,-0.00557529575802,0.0208680439219,-0.009783129105680001,0.0208351527473,-0.0043212390078,0.006409213799260001,0.00865460410406,0.0316169941149,6.317718505859999,1.78135144711,-2.85778617859,-0.057896912097899995,3.3652265071900005,0.5611064434049999,396473,1522055965,139000064,,['l_gripper_l_finger_joint'],"(0.02083,)","(0.0,)","(0.0,)",467090,1522055967,874820761,robotiq_force_torque_frame_id,-1.5960000991799999,-1.68499997854,1.18900146484,-0.054999999702,-0.216999992728,-0.143999993801,19.0,20.0,21.0,34.0,43.0,0.0,0.0,0.0,0.0,0.0,7,"(0.7344498357719312, -0.09738982372549283, -0.001364472314410406, 0.991665944411981, 0.12686238981194664, -0.006216017176757271, 0.02158587211937625)",0.7200000286100003,-0.839999914167,0.6599998474080001,0.017999999225100004,-0.01699998974799999,0.019000008702
1522084767.9,21690,1522055967,885935068,,1002404,1522055965,162432431,,0.735078528278,-0.0972133414753,6.48836116932e-05,0.991823061709,0.12572698474000002,-0.0059261497724399995,0.021086021902799998,0.0021307916370599997,-0.0194600480566,-0.0023304675794,-0.00745324376543,0.00409491337968,-0.037183712945300006,6.06279373169,1.8384714126599997,-2.90093779564,-0.156363129616,3.25480461121,0.531115353107,1002801,1522055965,160526310,,"['head_nod', 'head_pan', 'left_e0', 'left_e1', 'left_s0', 'left_s1', 'left_w0', 'left_w1', 'left_w2', 'right_e0', 'right_e1', 'right_s0', 'right_s1', 'right_w0', 'right_w1', 'right_w2', 'torso_t0']","(0.0, -0.10162622719740866, -0.9138690543827352, 1.5090536000822758, 0.28685440733457235, 0.6523253300482722, 2.3473741006616544, -0.4759175394414496, -0.025310683000109326, 0.5100486119719001, 1.3740632907483594, 0.7278738838516289, -0.7988204952913293, -0.4298981158048872, 1.1247914127169796, 0.27880100819817394, -12.565987119160338)","(0.0, -0.0019634954081253035, 0.0070685834692510935, 0.007461282550876154, 0.007461282550876154, 0.012959069693627005, -0.014922565101752308, -0.0019634954081253035, -0.008639379795751335, -0.0023561944897503642, 0.0, -0.022383847652628464, 0.0035342917346255468, -0.00510508806112579, 0.003926990816250607, 0.01531526418337737, 0.0)","(0.0, 0.0, -14.3, 11.044, 0.436, 4.152, 0.052, -2.636, 0.408, 8.404, -13.884, 0.34, -26.3, -0.072, 0.428, -0.336, -20.48)",467091,1522055967,882968270,robotiq_force_torque_frame_id,-1.25599994659,-1.60500005484,1.30900039673,-0.0439999997616,-0.216000005603,-0.15000000596,15.0,17.0,17.0,29.0,43.0,0.0,0.0,0.0,0.0,0.0,7,"(0.7344498357719312, -0.09738982372549283, -0.001364472314410406, 0.991665944411981, 0.12686238981194664, -0.006216017176757271, 0.02158587211937625)",0.3400001525899998,0.07999992369999998,0.11999893188999988,0.010999999940399997,0.0009999871249999903,-0.006000012158999979
1522084767.9,21691,1522055967,895915031,,1002404,1522055965,162432431,,0.735078528278,-0.0972133414753,6.48836116932e-05,0.991823061709,0.12572698474000002,-0.0059261497724399995,0.021086021902799998,0.0021307916370599997,-0.0194600480566,-0.0023304675794,-0.00745324376543,0.00409491337968,-0.037183712945300006,6.06279373169,1.8384714126599997,-2.90093779564,-0.156363129616,3.25480461121,0.531115353107,396474,1522055965,180999936,,['r_gripper_l_finger_joint'],"(0.0007790081631392241,)","(0.0,)","(0.0,)",467092,1522055967,895162092,robotiq_force_torque_frame_id,-0.9759999752040001,-1.82500008345,0.899000549316,-0.059000000357599995,-0.202999994159,-0.141000002623,17.0,19.0,22.0,29.0,43.0,0.0,0.0,0.0,0.0,0.0,7,"(0.7344498357719312, -0.09738982372549283, -0.001364472314410406, 0.991665944411981, 0.12686238981194664, -0.006216017176757271, 0.02158587211937625)",0.27999997138599997,-0.2200000286099999,-0.40999984741399986,-0.015000000595999992,0.01300001144400001,0.00900000333699999
1522084767.91,21692,1522055967,905909061,,1002406,1522055965,182426520,,0.7350606830259999,-0.09661969112360001,-0.000319656381928,0.991770799752,0.12613701461500001,-0.00570593591161,0.021156006209,0.00421349613212,0.0231936071864,0.00400060316672,0.0202706401885,-0.011517672240500001,0.008981333011440001,5.92560529709,1.9740679264099996,-2.8625371456099997,-0.229539141059,3.20158958435,0.522029042244,396474,1522055965,180999936,,['r_gripper_l_finger_joint'],"(0.0007790081631392241,)","(0.0,)","(0.0,)",467093,1522055967,903295259,robotiq_force_torque_frame_id,-1.09600009918,-2.01499990225,0.90899887085,-0.0630000010133,-0.203999996185,-0.149000003934,19.0,22.0,31.0,32.0,43.0,0.0,0.0,0.0,0.0,0.0,7,"(0.7344498357719312, -0.09738982372549283, -0.001364472314410406, 0.991665944411981, 0.12686238981194664, -0.006216017176757271, 0.02158587211937625)",-0.12000012397600002,-0.18999981880000005,0.009998321533999932,-0.004000000655700005,-0.0010000020260000075,-0.00800000131100001
1522084767.92,21693,1522055967,915937900,,1002408,1522055965,202424228,,0.735780569536,-0.0960982062215,3.44499647739e-05,0.991766610476,0.126282415607,-0.00495768199055,0.020667927878199998,-0.00510173511386,-0.012593205949799999,-0.00580094672639,-0.01613450445,0.00969109816307,0.0156310434265,5.61571502686,1.49424862862,-2.8222587108599995,0.0569686293602,3.0881576538099997,0.572721123695,396475,1522055965,190000128,,['l_gripper_l_finger_joint'],"(0.02083,)","(0.0,)","(0.0,)",467094,1522055967,915499342,robotiq_force_torque_frame_id,-1.3460000991799999,-1.77500013113,1.41900100708,-0.0540000014007,-0.215000003576,-0.158000007272,17.0,21.0,27.0,31.0,40.0,0.0,0.0,0.0,0.0,0.0,7,"(0.7344498357719312, -0.09738982372549283, -0.001364472314410406, 0.991665944411981, 0.12686238981194664, -0.006216017176757271, 0.02158587211937625)",-0.24999999999999978,0.23999977111999993,0.5100021362300001,0.0089999996126,-0.011000007390999988,-0.009000003337999996
1522084767.93,21694,1522055967,925977945,,1002408,1522055965,202424228,,0.735780569536,-0.0960982062215,3.44499647739e-05,0.991766610476,0.126282415607,-0.00495768199055,0.020667927878199998,-0.00510173511386,-0.012593205949799999,-0.00580094672639,-0.01613450445,0.00969109816307,0.0156310434265,5.61571502686,1.49424862862,-2.8222587108599995,0.0569686293602,3.0881576538099997,0.572721123695,396475,1522055965,190000128,,['l_gripper_l_finger_joint'],"(0.02083,)","(0.0,)","(0.0,)",467095,1522055967,923637622,robotiq_force_torque_frame_id,-0.566000127792,-0.9050000071529999,1.47899856567,-0.052000001072899996,-0.21799999475499998,-0.156000003219,11.0,17.0,21.0,27.0,40.0,0.0,0.0,0.0,0.0,0.0,7,"(0.7344498357719312, -0.09738982372549283, -0.001364472314410406, 0.991665944411981, 0.12686238981194664, -0.006216017176757271, 0.02158587211937625)",0.7799999713879998,0.8700001239770002,0.05999755858999989,0.002000000327800004,-0.002999991178999989,0.002000004052999993
1522084767.94,21695,1522055967,936103105,,1002409,1522055965,212428129,,0.735409757131,-0.0956456283091,0.00046001244882400003,0.991738209663,0.126525310819,-0.00512113416985,0.020504711701200003,0.004265976832780001,-0.00729724416521,-0.000171269863079,0.0134316980816,-0.00230228536451,-0.0282722460557,5.646562576290001,1.70990538597,-2.84532141685,-0.0547823756933,3.09436106682,0.546563267708,1002806,1522055965,210535510,,"['head_nod', 'head_pan', 'left_e0', 'left_e1', 'left_s0', 'left_s1', 'left_w0', 'left_w1', 'left_w2', 'right_e0', 'right_e1', 'right_s0', 'right_s1', 'right_w0', 'right_w1', 'right_w2', 'torso_t0']","(0.0, -0.10162622719740866, -0.9138690543827352, 1.5086701048853044, 0.28608741694062967, 0.6519418348513009, 2.3473741006616544, -0.476301034638421, -0.026461168591023387, 0.5111990975628141, 1.3740632907483594, 0.7286408742455716, -0.7992039904883006, -0.4298981158048872, 1.1236409271260657, 0.27880100819817394, -12.565987119160338)","(0.0, -0.006283185306000972, 0.0011780972448751821, -0.009817477040626518, -0.006283185306000972, 0.0070685834692510935, 0.009817477040626518, 0.021991148571003403, -0.0047123889795007284, -0.014922565101752308, -0.00039269908162506076, -0.01060287520387664, -0.0035342917346255468, 0.023561944897503646, -0.010995574285501701, -0.0035342917346255468, 0.0)","(0.0, 0.0, -14.364, 11.044, 0.436, 4.12, 0.052, -2.636, 0.4, 8.496, -13.824, 0.308, -26.3, -0.056, 0.42, -0.324, -20.48)",467096,1522055967,935835186,robotiq_force_torque_frame_id,-0.545999908447,-0.605000054836,1.7990020752000002,-0.039000000804699994,-0.229000002146,-0.148000001907,9.0,12.0,20.0,39.0,41.0,0.0,0.0,0.0,0.0,0.0,7,"(0.7344498357719312, -0.09738982372549283, -0.001364472314410406, 0.991665944411981, 0.12686238981194664, -0.006216017176757271, 0.02158587211937625)",0.02000021934500007,0.29999995231699994,0.32000350953000023,0.013000000268200002,-0.011000007391000016,0.008000001312000016
1522084767.95,21696,1522055967,945945024,,1002409,1522055965,212428129,,0.735409757131,-0.0956456283091,0.00046001244882400003,0.991738209663,0.126525310819,-0.00512113416985,0.020504711701200003,0.004265976832780001,-0.00729724416521,-0.000171269863079,0.0134316980816,-0.00230228536451,-0.0282722460557,5.646562576290001,1.70990538597,-2.84532141685,-0.0547823756933,3.09436106682,0.546563267708,1002806,1522055965,210535510,,"['head_nod', 'head_pan', 'left_e0', 'left_e1', 'left_s0', 'left_s1', 'left_w0', 'left_w1', 'left_w2', 'right_e0', 'right_e1', 'right_s0', 'right_s1', 'right_w0', 'right_w1', 'right_w2', 'torso_t0']","(0.0, -0.10162622719740866, -0.9138690543827352, 1.5086701048853044, 0.28608741694062967, 0.6519418348513009, 2.3473741006616544, -0.476301034638421, -0.026461168591023387, 0.5111990975628141, 1.3740632907483594, 0.7286408742455716, -0.7992039904883006, -0.4298981158048872, 1.1236409271260657, 0.27880100819817394, -12.565987119160338)","(0.0, -0.006283185306000972, 0.0011780972448751821, -0.009817477040626518, -0.006283185306000972, 0.0070685834692510935, 0.009817477040626518, 0.021991148571003403, -0.0047123889795007284, -0.014922565101752308, -0.00039269908162506076, -0.01060287520387664, -0.0035342917346255468, 0.023561944897503646, -0.010995574285501701, -0.0035342917346255468, 0.0)","(0.0, 0.0, -14.364, 11.044, 0.436, 4.12, 0.052, -2.636, 0.4, 8.496, -13.824, 0.308, -26.3, -0.056, 0.42, -0.324, -20.48)",467097,1522055967,943971428,robotiq_force_torque_frame_id,-0.7259999752040001,-0.595000064373,1.71900024414,-0.0410000011325,-0.231999993324,-0.138999998569,9.0,12.0,20.0,39.0,41.0,0.0,0.0,0.0,0.0,0.0,7,"(0.7344498357719312, -0.09738982372549283, -0.001364472314410406, 0.991665944411981, 0.12686238981194664, -0.006216017176757271, 0.02158587211937625)",-0.1800000667570001,0.00999999046299993,-0.08000183106000014,-0.002000000327800004,-0.002999991178000011,0.009000003337999996
1522084767.98,21697,1522055967,955967903,,1002411,1522055965,232430394,,0.734728395237,-0.09642604596989998,-0.000497149919685,0.991753193293,0.12627454190600002,-0.00604402251875,0.0210668804295,-4.69060729517e-05,-0.0132097814319,0.00414776635153,-0.0129451206403,0.00395971904527,-0.0067298157577799994,5.8199324607800005,1.67562568188,-2.9327993392900003,-0.0528620779514,3.1234760284400003,0.54730784893,396476,1522055965,232000000,,['r_gripper_l_finger_joint'],"(0.0007790081631392241,)","(0.0,)","(0.0,)",467097,1522055967,943971428,robotiq_force_torque_frame_id,-0.7259999752040001,-0.595000064373,1.71900024414,-0.0410000011325,-0.231999993324,-0.138999998569,15.0,16.0,21.0,31.0,32.0,0.0,0.0,0.0,0.0,0.0,7,"(0.7344498357719312, -0.09738982372549283, -0.001364472314410406, 0.991665944411981, 0.12686238981194664, -0.006216017176757271, 0.02158587211937625)",0.0,0.0,0.0,0.0,0.0,0.0
1522084767.98,21698,1522055967,965914964,,1002411,1522055965,232430394,,0.734728395237,-0.09642604596989998,-0.000497149919685,0.991753193293,0.12627454190600002,-0.00604402251875,0.0210668804295,-4.69060729517e-05,-0.0132097814319,0.00414776635153,-0.0129451206403,0.00395971904527,-0.0067298157577799994,5.8199324607800005,1.67562568188,-2.9327993392900003,-0.0528620779514,3.1234760284400003,0.54730784893,1002809,1522055965,240482189,,"['head_nod', 'head_pan', 'left_e0', 'left_e1', 'left_s0', 'left_s1', 'left_w0', 'left_w1', 'left_w2', 'right_e0', 'right_e1', 'right_s0', 'right_s1', 'right_w0', 'right_w1', 'right_w2', 'torso_t0']","(0.0, -0.1012427320004373, -0.9134855591857639, 1.5090536000822758, 0.28685440733457235, 0.6523253300482722, 2.3489080814495398, -0.476301034638421, -0.02684466378799474, 0.5100486119719001, 1.3744467859453307, 0.7282573790486002, -0.7988204952913293, -0.42951462060791584, 1.1236409271260657, 0.27880100819817394, -12.565987119160338)","(0.0, 0.00039269908162506076, 0.010995574285501701, -0.014137166938502187, 0.01060287520387664, 0.01021017612225158, 0.009032078877376396, -0.0023561944897503642, -0.0035342917346255468, 0.00510508806112579, 0.03063052836675474, 0.009032078877376396, -0.01531526418337737, -0.009424777959001457, 0.019242254999627974, 0.00510508806112579, 0.0)","(0.0, 0.0, -14.3, 11.044, 0.372, 4.12, 0.052, -2.616, 0.4, 8.528, -13.852, 0.308, -26.268, -0.032, 0.38, -0.336, -20.48)",467099,1522055967,964518448,robotiq_force_torque_frame_id,-1.7459999561300001,-1.37500003576,1.6989997863799997,-0.035999998450300004,-0.221000000834,-0.16400000453,14.0,15.0,20.0,38.0,46.0,0.0,0.0,0.0,0.0,0.0,7,"(0.7344498357719312, -0.09738982372549283, -0.001364472314410406, 0.991665944411981, 0.12686238981194664, -0.006216017176757271, 0.02158587211937625)",-1.019999980926,-0.7799999713870001,-0.020000457760000367,0.005000002682199994,0.010999992489999999,-0.025000005960999994
1522084767.98,21699,1522055967,975915908,,1002412,1522055965,242425433,,0.735139495,-0.0966077346435,-5.37193056478e-05,0.9918086586700001,0.125911567018,-0.00563532943971,0.020738971536700002,-0.019451118502099997,-0.000644058944201,0.00012442225787799997,-0.023658867487300003,0.0240209759766,0.0216557508739,5.79942512512,1.72902846336,-2.9253399372099995,-0.00140115618706,3.14233899117,0.559554874897,396477,1522055965,240999936,,['l_gripper_l_finger_joint'],"(0.02083,)","(0.0,)","(0.0,)",467100,1522055967,972645132,robotiq_force_torque_frame_id,-1.6860000133500002,-1.8550000548400003,1.4890007019,-0.0399999991059,-0.20999999344300002,-0.156000003219,19.0,20.0,21.0,38.0,46.0,0.0,0.0,0.0,0.0,0.0,7,"(0.7344498357719312, -0.09738982372549283, -0.001364472314410406, 0.991665944411981, 0.12686238981194664, -0.006216017176757271, 0.02158587211937625)",0.05999994277999998,-0.48000001908000023,-0.2099990844799997,-0.0040000006555999945,0.011000007390999988,0.008000001310999982
1522084768.02,21700,1522055967,985919952,,1002414,1522055965,262444203,,0.734534969692,-0.0962123822395,-1.71688410682e-05,0.9918011605850001,0.12595408867799998,-0.0061958195522799995,0.0206793913687,0.0040767106575900006,-0.00828747831592,0.0076690873563500005,-0.0027220477322700003,-0.00707140015458,-0.0179623326228,5.79263114929,1.55425822735,-2.98339819908,0.037281587719900006,3.07984805107,0.545723974705,1002811,1522055965,260538455,,"['head_nod', 'head_pan', 'left_e0', 'left_e1', 'left_s0', 'left_s1', 'left_w0', 'left_w1', 'left_w2', 'right_e0', 'right_e1', 'right_s0', 'right_s1', 'right_w0', 'right_w1', 'right_w2', 'torso_t0']","(0.0, -0.10162622719740866, -0.9142525495797066, 1.5086701048853044, 0.28723790253154374, 0.6523253300482722, 2.3477575958586256, -0.4759175394414496, -0.02569417819708068, 0.5104321071688714, 1.3744467859453307, 0.7286408742455716, -0.7988204952913293, -0.4291311254109445, 1.1247914127169796, 0.2791845033951453, -12.565987119160338)","(0.0, -0.012959069693627005, -0.007853981632501214, 0.015707963265002428, 0.003926990816250607, -0.001570796326500243, 0.0019634954081253035, 0.009424777959001457, -0.005890486224375911, 0.0035342917346255468, 0.0, -0.012566370612001944, -0.012173671530376884, -0.0011780972448751821, 0.0070685834692510935, 0.008246680714126275, 0.0)","(0.0, 0.0, -14.332, 11.044, 0.56, 4.284, 0.052, -2.608, 0.4, 8.404, -13.884, 0.184, -26.3, -0.064, 0.348, -0.324, -20.48)",467101,1522055967,984846762,robotiq_force_torque_frame_id,0.00400004386902,0.0149999499321,1.6989997863799997,-0.046999998390699994,-0.211999997497,-0.18299999833099997,14.0,14.0,23.0,24.0,46.0,0.0,0.0,0.0,0.0,0.0,7,"(0.7344498357719312, -0.09738982372549283, -0.001364472314410406, 0.991665944411981, 0.12686238981194664, -0.006216017176757271, 0.02158587211937625)",1.6900000572190201,1.8700000047721004,0.2099990844799997,-0.006999999284799996,-0.002000004053999971,-0.026999995111999964
1522084768.02,21701,1522055967,995963096,,1002414,1522055965,262444203,,0.734534969692,-0.0962123822395,-1.71688410682e-05,0.9918011605850001,0.12595408867799998,-0.0061958195522799995,0.0206793913687,0.0040767106575900006,-0.00828747831592,0.0076690873563500005,-0.0027220477322700003,-0.00707140015458,-0.0179623326228,5.79263114929,1.55425822735,-2.98339819908,0.037281587719900006,3.07984805107,0.545723974705,396478,1522055965,283000064,,['r_gripper_l_finger_joint'],"(0.0007790081631392241,)","(0.0,)","(0.0,)",467102,1522055967,992961373,robotiq_force_torque_frame_id,-0.04600014686580001,0.645000004768,1.8090003967299997,-0.0379999987781,-0.21400000155,-0.18999999761599998,14.0,16.0,23.0,24.0,46.0,0.0,0.0,0.0,0.0,0.0,7,"(0.7344498357719312, -0.09738982372549283, -0.001364472314410406, 0.991665944411981, 0.12686238981194664, -0.006216017176757271, 0.02158587211937625)",-0.05000019073482001,0.6300000548359,0.11000061034999997,0.008999999612599993,-0.0020000040530000207,-0.006999999285000003
1522084768.02,21702,1522055968,5908012,,1002416,1522055965,282428311,,0.735356020524,-0.0963869023397,0.00034788464911100005,0.991800671911,0.12595661367,-0.00527293788236,0.0209416999446,0.0137433849581,-0.0137733640527,0.0038677861609,0.00632793814079,-0.0186800564887,-0.0255943843084,5.83788776398,1.59756159782,-2.9302940368700003,-0.010309368372,3.1249978542299996,0.557965636253,396478,1522055965,283000064,,['r_gripper_l_finger_joint'],"(0.0007790081631392241,)","(0.0,)","(0.0,)",467103,1522055968,5153500,robotiq_force_torque_frame_id,-0.646000051498,0.0349999308586,1.5189994812,-0.0439999997616,-0.20800000429200002,-0.17599999904599997,11.0,14.0,14.0,16.0,46.0,0.0,0.0,0.0,0.0,0.0,7,"(0.7344498357719312, -0.09738982372549283, -0.001364472314410406, 0.991665944411981, 0.12686238981194664, -0.006216017176757271, 0.02158587211937625)",-0.5999999046322,-0.6100000739094,-0.2900009155299996,-0.006000000983500002,0.005999997257999989,0.013999998570000005
1522084768.02,21703,1522055968,16083002,,1002418,1522055965,302459092,,0.7347465689329999,-0.0963977012178,-0.00044478603263500003,0.991714411971,0.126601755352,-0.00602926978833,0.0209324756459,0.00554613395796,0.00421408367397,0.0011388445445399999,0.0034204552212300002,-0.0126324708577,-0.0108205514169,6.0124874114999995,1.7778873443599998,-2.88119149208,-0.0897987037897,3.23870611191,0.533463001251,396479,1522055965,291000064,,['l_gripper_l_finger_joint'],"(0.02083,)","(0.0,)","(0.0,)",467104,1522055968,13298258,robotiq_force_torque_frame_id,-1.06600012779,0.205000007153,1.3690017700200001,-0.0460000000894,-0.20000000298,-0.171000003815,18.0,19.0,23.0,26.0,46.0,0.0,0.0,0.0,0.0,0.0,7,"(0.7344498357719312, -0.09738982372549283, -0.001364472314410406, 0.991665944411981, 0.12686238981194664, -0.006216017176757271, 0.02158587211937625)",-0.420000076292,0.1700000762944,-0.14999771117999994,-0.0020000003277999973,0.008000001312000016,0.004999995230999976
1522084768.06,21704,1522055968,25933027,,1002418,1522055965,302459092,,0.7347465689329999,-0.0963977012178,-0.00044478603263500003,0.991714411971,0.126601755352,-0.00602926978833,0.0209324756459,0.00554613395796,0.00421408367397,0.0011388445445399999,0.0034204552212300002,-0.0126324708577,-0.0108205514169,6.0124874114999995,1.7778873443599998,-2.88119149208,-0.0897987037897,3.23870611191,0.533463001251,1002815,1522055965,300527648,,"['head_nod', 'head_pan', 'left_e0', 'left_e1', 'left_s0', 'left_s1', 'left_w0', 'left_w1', 'left_w2', 'right_e0', 'right_e1', 'right_s0', 'right_s1', 'right_w0', 'right_w1', 'right_w2', 'torso_t0']","(0.0, -0.10162622719740866, -0.9142525495797066, 1.5102040856731898, 0.28685440733457235, 0.6530923204422149, 2.346990605464683, -0.47668452983539233, -0.02684466378799474, 0.5104321071688714, 1.3744467859453307, 0.7286408742455716, -0.7980535048973865, -0.4302816110018586, 1.124024422323037, 0.2784175130012026, -12.565987119160338)","(0.0, -0.007853981632501214, 0.003926990816250607, -0.018456856836377853, -0.003141592653000486, 0.0, -0.006283185306000972, 0.003926990816250607, 0.0027488935713754254, -0.003141592653000486, -0.0047123889795007284, 0.006675884387626033, 0.0, -0.00039269908162506076, -0.009032078877376396, 0.014137166938502187, 0.0)","(0.0, 0.0, -14.204, 11.012, 0.464, 4.216, 0.052, -2.608, 0.38, 8.468, -13.884, 0.28, -26.3, -0.072, 0.42, -0.316, -20.48)",467105,1522055968,25499904,robotiq_force_torque_frame_id,-1.3360001087200002,0.144999945164,1.43900146484,-0.0610000006855,-0.212999999523,-0.172000005841,19.0,23.0,26.0,34.0,50.0,0.0,0.0,0.0,0.0,0.0,7,"(0.7344498357719312, -0.09738982372549283, -0.001364472314410406, 0.991665944411981, 0.12686238981194664, -0.006216017176757271, 0.02158587211937625)",-0.2699999809300002,-0.060000061989000014,0.0699996948199999,-0.015000000596100002,-0.012999996542999992,-0.0010000020260000075
1522084768.06,21705,1522055968,35912036,,1002419,1522055965,312439706,,0.7360137868719999,-0.0960931543732,0.0007069139790960001,0.9918287452050001,0.125802517239,-0.004626487533399999,0.0206896702243,0.00739338355556,0.019511163349,0.0007057396504999999,0.012569412883200001,-0.0225797256256,0.028320384388900003,5.8560957908599995,1.65202105045,-2.79115223885,-0.0442569553852,3.1896810531599997,0.554309487343,1002815,1522055965,300527648,,"['head_nod', 'head_pan', 'left_e0', 'left_e1', 'left_s0', 'left_s1', 'left_w0', 'left_w1', 'left_w2', 'right_e0', 'right_e1', 'right_s0', 'right_s1', 'right_w0', 'right_w1', 'right_w2', 'torso_t0']","(0.0, -0.10162622719740866, -0.9142525495797066, 1.5102040856731898, 0.28685440733457235, 0.6530923204422149, 2.346990605464683, -0.47668452983539233, -0.02684466378799474, 0.5104321071688714, 1.3744467859453307, 0.7286408742455716, -0.7980535048973865, -0.4302816110018586, 1.124024422323037, 0.2784175130012026, -12.565987119160338)","(0.0, -0.007853981632501214, 0.003926990816250607, -0.018456856836377853, -0.003141592653000486, 0.0, -0.006283185306000972, 0.003926990816250607, 0.0027488935713754254, -0.003141592653000486, -0.0047123889795007284, 0.006675884387626033, 0.0, -0.00039269908162506076, -0.009032078877376396, 0.014137166938502187, 0.0)","(0.0, 0.0, -14.204, 11.012, 0.464, 4.216, 0.052, -2.608, 0.38, 8.468, -13.884, 0.28, -26.3, -0.072, 0.42, -0.316, -20.48)",467106,1522055968,33632922,robotiq_force_torque_frame_id,-2.16600003242,0.934999996424,0.799002075195,-0.0750000029802,-0.209000006318,-0.181999996305,14.0,22.0,38.0,39.0,61.0,0.0,0.0,0.0,0.0,0.0,7,"(0.7344498357719312, -0.09738982372549283, -0.001364472314410406, 0.991665944411981, 0.12686238981194664, -0.006216017176757271, 0.02158587211937625)",-0.8299999236999998,0.7900000512600001,-0.639999389645,-0.014000002294699998,0.0039999932049999964,-0.009999990463999991
1522084768.06,21706,1522055968,45962095,,1002419,1522055965,312439706,,0.7360137868719999,-0.0960931543732,0.0007069139790960001,0.9918287452050001,0.125802517239,-0.004626487533399999,0.0206896702243,0.00739338355556,0.019511163349,0.0007057396504999999,0.012569412883200001,-0.0225797256256,0.028320384388900003,5.8560957908599995,1.65202105045,-2.79115223885,-0.0442569553852,3.1896810531599997,0.554309487343,1002817,1522055965,320509514,,"['head_nod', 'head_pan', 'left_e0', 'left_e1', 'left_s0', 'left_s1', 'left_w0', 'left_w1', 'left_w2', 'right_e0', 'right_e1', 'right_s0', 'right_s1', 'right_w0', 'right_w1', 'right_w2', 'torso_t0']","(0.0, -0.10162622719740866, -0.9138690543827352, 1.5098205904762185, 0.28723790253154374, 0.6519418348513009, 2.346990605464683, -0.4751505490475069, -0.02569417819708068, 0.5100486119719001, 1.3740632907483594, 0.7282573790486002, -0.7988204952913293, -0.4302816110018586, 1.1232574319290942, 0.2784175130012026, -12.565987119160338)","(0.0, 0.009424777959001457, -0.0023561944897503642, -0.008246680714126275, -0.02552544030562895, -0.0200276531628781, -0.008639379795751335, 0.004319689897875668, 0.0047123889795007284, 0.012959069693627005, 0.007853981632501214, -0.0007853981632501215, -0.003141592653000486, 0.001570796326500243, -0.00039269908162506076, -0.014922565101752308, 0.0)","(0.0, 0.0, -14.204, 11.044, 0.404, 4.216, 0.068, -2.616, 0.38, 8.528, -13.852, 0.248, -26.328, -0.084, 0.428, -0.336, -20.48)",467106,1522055968,33632922,robotiq_force_torque_frame_id,-2.16600003242,0.934999996424,0.799002075195,-0.0750000029802,-0.209000006318,-0.181999996305,17.0,22.0,38.0,39.0,61.0,0.0,0.0,0.0,0.0,0.0,7,"(0.7344498357719312, -0.09738982372549283, -0.001364472314410406, 0.991665944411981, 0.12686238981194664, -0.006216017176757271, 0.02158587211937625)",0.0,0.0,0.0,0.0,0.0,0.0
1522084768.06,21707,1522055968,55931091,,1002421,1522055965,332429182,,0.7360620127519999,-0.0963995987372,4.51918343197e-05,0.991779109367,0.12617999222200002,-0.004718958064609999,0.0207494390357,0.00167097147353,-0.0251208682841,-0.00559564782194,-0.0155647819942,0.00569609867778,-0.0169823200121,5.954234123230001,1.7558281421700002,-2.90514135361,-0.0831720530987,3.20602488518,0.5387341976169999,396480,1522055965,332999936,,['r_gripper_l_finger_joint'],"(0.0007790081631392241,)","(0.0,)","(0.0,)",467108,1522055968,53972770,robotiq_force_torque_frame_id,-0.896000051498,0.47499998807899996,0.86900177002,-0.0750000029802,-0.209000006318,-0.165000006557,16.0,20.0,25.0,35.0,81.0,0.0,0.0,0.0,0.0,0.0,7,"(0.7344498357719312, -0.09738982372549283, -0.001364472314410406, 0.991665944411981, 0.12686238981194664, -0.006216017176757271, 0.02158587211937625)",1.269999980922,-0.46000000834500004,0.06999969482500001,0.0,0.0,0.01699998974799999
1522084768.1,21708,1522055968,65922975,,1002421,1522055965,332429182,,0.7360620127519999,-0.0963995987372,4.51918343197e-05,0.991779109367,0.12617999222200002,-0.004718958064609999,0.0207494390357,0.00167097147353,-0.0251208682841,-0.00559564782194,-0.0155647819942,0.00569609867778,-0.0169823200121,5.954234123230001,1.7558281421700002,-2.90514135361,-0.0831720530987,3.20602488518,0.5387341976169999,396481,1522055965,342000128,,['l_gripper_l_finger_joint'],"(0.02083,)","(0.0,)","(0.0,)",467109,1522055968,66163955,robotiq_force_torque_frame_id,-1.1660000324200002,-0.41499999761600004,0.9789985656739999,-0.07000000029799999,-0.20999999344300002,-0.170000001788,19.0,20.0,20.0,35.0,81.0,0.0,0.0,0.0,0.0,0.0,7,"(0.7344498357719312, -0.09738982372549283, -0.001364472314410406, 0.991665944411981, 0.12686238981194664, -0.006216017176757271, 0.02158587211937625)",-0.26999998092200017,-0.889999985695,0.10999679565399989,0.005000002682200008,-0.000999987125000018,-0.004999995231000004
