time,.header.seq,.header.stamp.secs,.header.stamp.nsecs,.header.frame_id,.endpoint_state.header.seq,.endpoint_state.header.stamp.secs,.endpoint_state.header.stamp.nsecs,.endpoint_state.header.frame_id,.endpoint_state.pose.position.x,.endpoint_state.pose.position.y,.endpoint_state.pose.position.z,.endpoint_state.pose.orientation.x,.endpoint_state.pose.orientation.y,.endpoint_state.pose.orientation.z,.endpoint_state.pose.orientation.w,.endpoint_state.twist.linear.x,.endpoint_state.twist.linear.y,.endpoint_state.twist.linear.z,.endpoint_state.twist.angular.x,.endpoint_state.twist.angular.y,.endpoint_state.twist.angular.z,.endpoint_state.wrench.force.x,.endpoint_state.wrench.force.y,.endpoint_state.wrench.force.z,.endpoint_state.wrench.torque.x,.endpoint_state.wrench.torque.y,.endpoint_state.wrench.torque.z,.joint_state.header.seq,.joint_state.header.stamp.secs,.joint_state.header.stamp.nsecs,.joint_state.header.frame_id,.joint_state.name,.joint_state.position,.joint_state.velocity,.joint_state.effort,.wrench_stamped.header.seq,.wrench_stamped.header.stamp.secs,.wrench_stamped.header.stamp.nsecs,.wrench_stamped.header.frame_id,.wrench_stamped.wrench.force.x,.wrench_stamped.wrench.force.y,.wrench_stamped.wrench.force.z,.wrench_stamped.wrench.torque.x,.wrench_stamped.wrench.torque.y,.wrench_stamped.wrench.torque.z,.tactile_values.tactile_values_0,.tactile_values.tactile_values_1,.tactile_values.tactile_values_2,.tactile_values.tactile_values_3,.tactile_values.tactile_values_4,.tactile_values.tactile_values_5,.tactile_values.tactile_values_6,.tactile_values.tactile_values_7,.tactile_values.tactile_values_8,.tactile_values.tactile_values_9,.tag,.goal_vector,.delta_wrench.force.x,.delta_wrench.force.y,.delta_wrench.force.z,.delta_wrench.torque.x,.delta_wrench.torque.y,.delta_wrench.torque.z
1522690433.57,14141,1522661633,530983924,,1190801,1522661631,47018056,,0.8068470371690001,-0.19231656392000002,0.105871125868,0.9027986948819999,0.428668346346,-0.0340343076071,-0.00629533685256,-0.00045547009192500003,0.0012513674561600002,-0.00369988343972,-0.00170724929049,0.00347557018667,0.00628154650777,10.0453863144,1.72218906879,12.3872318268,-0.805217325687,4.0916581153900005,-0.117944389582,1191151,1522661631,45067176,,"['head_nod', 'head_pan', 'left_e0', 'left_e1', 'left_s0', 'left_s1', 'left_w0', 'left_w1', 'left_w2', 'right_e0', 'right_e1', 'right_s0', 'right_s1', 'right_w0', 'right_w1', 'right_w2', 'torso_t0']","(0.0, -0.10085923680346595, -0.9069661408372509, 1.5025341817337627, 0.2791845033951453, 0.6454224165027879, 2.3431556534949696, -0.4881893857445329, -0.03298058693953639, 0.14879613642488512, 0.7742768026851626, 0.813776807973212, -0.6331505701997046, -0.12885438618237474, 1.5063691337034764, 2.392626533904274, -12.565987119160338)","(0.0, 0.022383847652628464, -0.001570796326500243, -0.008246680714126275, -0.003141592653000486, -0.013744467856877126, -0.005497787142750851, -0.00510508806112579, 0.003926990816250607, 0.003141592653000486, -0.004319689897875668, 0.001570796326500243, 0.007853981632501214, -0.0047123889795007284, 0.00039269908162506076, -0.0027488935713754254, 0.0)","(0.0, 0.0, -14.652, 10.948, 0.248, 5.036, 0.104, -2.656, 0.232, 2.484, -18.952, 0.34, -36.032, -0.176, 0.832, 0.176, -20.48)",1173719,1522661633,530207390,robotiq_force_torque_frame_id,-0.472000086308,1.2910000562700001,5.58999824524,-0.0040000001899899995,-0.171000003815,-0.109999999404,490.0,604.0,706.0,721.0,841.0,240.0,249.0,520.0,595.0,1068.0,7,"(0.7974681936725454, -0.2024337314418763, 0.07431222197396148, -0.4321239316589991, 0.9014856061666308, 0.003541062748319952, -0.02408465147274151)",0.0,0.0,0.0,0.0,0.0,0.0
1522690433.57,14142,1522661633,541002988,,1190802,1522661631,57017534,,0.807040662322,-0.19313989706300003,0.1061200015,0.902755036086,0.428768373505,-0.0340310437335,-0.00573713922083,0.0031599501217199994,0.00806971022202,-0.00903647266405,0.00577963543262,-0.00146335443349,-0.00154531545915,9.89079380035,1.5588157177000002,12.425219535799998,-0.738542020321,4.04187297821,-0.103224247694,1191152,1522661631,55067032,,"['head_nod', 'head_pan', 'left_e0', 'left_e1', 'left_s0', 'left_s1', 'left_w0', 'left_w1', 'left_w2', 'right_e0', 'right_e1', 'right_s0', 'right_s1', 'right_w0', 'right_w1', 'right_w2', 'torso_t0']","(0.0, -0.10085923680346595, -0.9073496360342223, 1.5025341817337627, 0.2784175130012026, 0.6450389213058165, 2.3412381775101125, -0.48742239535059023, -0.033364082136507746, 0.14841264122791378, 0.7742768026851626, 0.8133933127762406, -0.6335340653966759, -0.12962137657631745, 1.5063691337034764, 2.3918595435103316, -12.565987119160338)","(0.0, -0.0019634954081253035, 0.0035342917346255468, -0.008246680714126275, 0.014529866020127248, -0.011780972448751823, 0.014529866020127248, 0.014137166938502187, -0.01649336142825255, -0.006675884387626033, -0.01610066234662749, 0.010995574285501701, 0.02081305132612822, 0.009424777959001457, -0.007461282550876154, 0.005497787142750851, 0.0)","(0.0, 0.0, -14.62, 10.948, 0.184, 5.068, 0.076, -2.656, 0.26, 2.452, -18.952, 0.248, -36.06, -0.192, 0.84, 0.156, -20.48)",1173720,1522661633,538371131,robotiq_force_torque_frame_id,-0.442000114918,1.5310000658,5.56999778748,0.0,-0.170000001788,-0.11100000143100001,490.0,598.0,703.0,721.0,834.0,238.0,246.0,504.0,595.0,1064.0,7,"(0.7974681936725454, -0.2024337314418763, 0.07431222197396148, -0.4321239316589991, 0.9014856061666308, 0.003541062748319952, -0.02408465147274151)",0.02999997138999999,0.2400000095299999,-0.020000457760000145,0.0040000001899899995,0.0010000020269999854,-0.0010000020270000132
1522690433.57,14143,1522661633,551098108,,1190802,1522661631,57017534,,0.807040662322,-0.19313989706300003,0.1061200015,0.902755036086,0.428768373505,-0.0340310437335,-0.00573713922083,0.0031599501217199994,0.00806971022202,-0.00903647266405,0.00577963543262,-0.00146335443349,-0.00154531545915,9.89079380035,1.5588157177000002,12.425219535799998,-0.738542020321,4.04187297821,-0.103224247694,1191152,1522661631,55067032,,"['head_nod', 'head_pan', 'left_e0', 'left_e1', 'left_s0', 'left_s1', 'left_w0', 'left_w1', 'left_w2', 'right_e0', 'right_e1', 'right_s0', 'right_s1', 'right_w0', 'right_w1', 'right_w2', 'torso_t0']","(0.0, -0.10085923680346595, -0.9073496360342223, 1.5025341817337627, 0.2784175130012026, 0.6450389213058165, 2.3412381775101125, -0.48742239535059023, -0.033364082136507746, 0.14841264122791378, 0.7742768026851626, 0.8133933127762406, -0.6335340653966759, -0.12962137657631745, 1.5063691337034764, 2.3918595435103316, -12.565987119160338)","(0.0, -0.0019634954081253035, 0.0035342917346255468, -0.008246680714126275, 0.014529866020127248, -0.011780972448751823, 0.014529866020127248, 0.014137166938502187, -0.01649336142825255, -0.006675884387626033, -0.01610066234662749, 0.010995574285501701, 0.02081305132612822, 0.009424777959001457, -0.007461282550876154, 0.005497787142750851, 0.0)","(0.0, 0.0, -14.62, 10.948, 0.184, 5.068, 0.076, -2.656, 0.26, 2.452, -18.952, 0.248, -36.06, -0.192, 0.84, 0.156, -20.48)",1173721,1522661633,550601609,robotiq_force_torque_frame_id,-0.502000057697,1.7810000658,5.539999008180001,0.0209999997169,-0.17800000309900002,-0.119999997318,489.0,582.0,703.0,719.0,825.0,238.0,246.0,504.0,590.0,1064.0,7,"(0.7974681936725454, -0.2024337314418763, 0.07431222197396148, -0.4321239316589991, 0.9014856061666308, 0.003541062748319952, -0.02408465147274151)",-0.05999994277899995,0.25,-0.02999877929999961,0.0209999997169,-0.00800000131100001,-0.008999995886999984
1522690433.57,14144,1522661633,561013936,,1190803,1522661631,67011846,,0.806702362596,-0.19412930752399998,0.105729502425,0.9030962391509999,0.42799814829599997,-0.034688157823699994,-0.00561244985836,-0.00209935696283,0.00880327896085,0.00211616496479,-0.00446028286416,-0.00010287313419499999,0.008116419354149999,9.43954372406,1.45913088322,12.439266204800001,-0.7045845985410001,3.87075734138,-0.112726658583,470906,1522661631,83000064,,['l_gripper_l_finger_joint'],"(0.0032494800670444966,)","(0.0,)","(0.0,)",1173722,1522661633,558754579,robotiq_force_torque_frame_id,-1.1620000243200002,1.36099998951,5.7300014495800005,0.0120000001043,-0.188999995589,-0.101999998093,489.0,582.0,701.0,736.0,825.0,201.0,240.0,515.0,590.0,1064.0,7,"(0.7974681936725454, -0.2024337314418763, 0.07431222197396148, -0.4321239316589991, 0.9014856061666308, 0.003541062748319952, -0.02408465147274151)",-0.6599999666230002,-0.42000007629,0.1900024413999999,-0.0089999996126,-0.010999992489999971,0.017999999224999993
1522690433.61,14145,1522661633,571008920,,1190805,1522661631,87022465,,0.806322732004,-0.193522810509,0.10549580056800001,0.902626632055,0.42896071420299997,-0.0349826767025,-0.00583790258839,0.00298000425934,-0.000506086035248,-0.00419137914769,0.000339763374488,-0.0032595194529200003,-0.00393348138856,8.775415420529999,1.44034385681,12.3309335709,-0.663728177547,3.5943586826300002,-0.11720685660800001,470907,1522661631,83000064,,['r_gripper_l_finger_joint'],"(0.004166000062078238,)","(0.0,)","(0.2946236729621887,)",1173722,1522661633,558754579,robotiq_force_torque_frame_id,-1.1620000243200002,1.36099998951,5.7300014495800005,0.0120000001043,-0.188999995589,-0.101999998093,484.0,558.0,703.0,736.0,810.0,201.0,240.0,515.0,590.0,1064.0,7,"(0.7974681936725454, -0.2024337314418763, 0.07431222197396148, -0.4321239316589991, 0.9014856061666308, 0.003541062748319952, -0.02408465147274151)",0.0,0.0,0.0,0.0,0.0,0.0
1522690433.61,14146,1522661633,581001043,,1190806,1522661631,97012697,,0.8070787177050001,-0.193531605553,0.106108594452,0.9028780711,0.428503950175,-0.0341507323471,-0.0054111820352500005,0.000365184262645,-0.00956642024248,0.00682101322973,-0.0190573934265,-0.00500509817473,0.0030247545200599996,9.11047649384,1.59287631512,12.293775558499998,-0.753876924515,3.73704791069,-0.112888529897,1191155,1522661631,85116402,,"['head_nod', 'head_pan', 'left_e0', 'left_e1', 'left_s0', 'left_s1', 'left_w0', 'left_w1', 'left_w2', 'right_e0', 'right_e1', 'right_s0', 'right_s1', 'right_w0', 'right_w1', 'right_w2', 'torso_t0']","(0.0, -0.1012427320004373, -0.9073496360342223, 1.5013836961428486, 0.2791845033951453, 0.6458059116997592, 2.3420051679040554, -0.48703890015361884, -0.03298058693953639, 0.14879613642488512, 0.7754272882760767, 0.8130098175792693, -0.6331505701997046, -0.13038836697026016, 1.5067526289004476, 2.39147604831336, -12.565987119160338)","(0.0, 0.0035342917346255468, 0.0035342917346255468, 0.004319689897875668, 0.012959069693627005, -0.0035342917346255468, 0.0011780972448751821, -0.007853981632501214, -0.003926990816250607, -0.003141592653000486, -0.009424777959001457, 0.0007853981632501215, 0.01060287520387664, 0.001570796326500243, -0.0047123889795007284, 0.001570796326500243, 0.0)","(0.0, 0.0, -14.524, 10.916, 0.248, 5.068, 0.076, -2.648, 0.252, 2.484, -18.86, 0.216, -36.12, -0.176, 0.832, 0.176, -20.48)",1173724,1522661633,579185814,robotiq_force_torque_frame_id,0.24799994230300001,0.5910000085830001,4.6099987030000005,0.0179999992251,-0.20800000429200002,-0.101999998093,481.0,558.0,703.0,730.0,810.0,228.0,250.0,519.0,593.0,1072.0,7,"(0.7974681936725454, -0.2024337314418763, 0.07431222197396148, -0.4321239316589991, 0.9014856061666308, 0.003541062748319952, -0.02408465147274151)",1.409999966623,-0.769999980927,-1.12000274658,0.005999999120800001,-0.019000008703000032,0.0
1522690433.61,14147,1522661633,591008901,,1190806,1522661631,97012697,,0.8070787177050001,-0.193531605553,0.106108594452,0.9028780711,0.428503950175,-0.0341507323471,-0.0054111820352500005,0.000365184262645,-0.00956642024248,0.00682101322973,-0.0190573934265,-0.00500509817473,0.0030247545200599996,9.11047649384,1.59287631512,12.293775558499998,-0.753876924515,3.73704791069,-0.112888529897,1191157,1522661631,105123510,,"['head_nod', 'head_pan', 'left_e0', 'left_e1', 'left_s0', 'left_s1', 'left_w0', 'left_w1', 'left_w2', 'right_e0', 'right_e1', 'right_s0', 'right_s1', 'right_w0', 'right_w1', 'right_w2', 'torso_t0']","(0.0, -0.1012427320004373, -0.9069661408372509, 1.50176719133982, 0.27880100819817394, 0.6454224165027879, 2.3420051679040554, -0.4881893857445329, -0.033364082136507746, 0.14802914603094242, 0.7750437930791053, 0.813776807973212, -0.6331505701997046, -0.12962137657631745, 1.5063691337034764, 2.392243038707303, -12.565987119160338)","(0.0, -0.0035342917346255468, -0.0011780972448751821, -0.009032078877376396, 0.01060287520387664, -0.005497787142750851, 0.023954643979128706, -0.0007853981632501215, 0.009817477040626518, 0.0011780972448751821, 0.009817477040626518, -0.01021017612225158, -0.022776546734253524, -0.009817477040626518, 0.01060287520387664, -0.014137166938502187, 0.0)","(0.0, 0.0, -14.588, 10.916, 0.216, 5.004, 0.068, -2.664, 0.232, 2.42, -18.832, 0.404, -36.06, -0.168, 0.832, 0.156, -20.48)",1173725,1522661633,591405840,robotiq_force_torque_frame_id,0.15800002813300001,0.741000103951,4.9499988555900005,0.0250000003725,-0.204999998212,-0.112000003457,481.0,556.0,697.0,730.0,822.0,225.0,250.0,519.0,593.0,1063.0,7,"(0.7974681936725454, -0.2024337314418763, 0.07431222197396148, -0.4321239316589991, 0.9014856061666308, 0.003541062748319952, -0.02408465147274151)",-0.08999991417,0.15000009536799996,0.34000015259000005,0.007000001147400001,0.003000006080000034,-0.01000000536399999
1522690433.61,14148,1522661633,600995063,,1190808,1522661631,117017804,,0.806890496422,-0.192886973607,0.10573313462000002,0.902688190803,0.42889720601899994,-0.034143459082299994,-0.005953239136229999,0.004961046273479999,0.00300483332788,0.000904416289195,0.00749870378092,-0.00962842050895,0.0077139257918,9.087203025820001,1.56359660625,12.3482685089,-0.7645176053049999,3.7418115138999997,-0.123892426491,1191158,1522661631,115154697,,"['head_nod', 'head_pan', 'left_e0', 'left_e1', 'left_s0', 'left_s1', 'left_w0', 'left_w1', 'left_w2', 'right_e0', 'right_e1', 'right_s0', 'right_s1', 'right_w0', 'right_w1', 'right_w2', 'torso_t0']","(0.0, -0.10085923680346595, -0.9065826456402796, 1.5021506865367915, 0.27880100819817394, 0.6446554261088451, 2.3431556534949696, -0.48742239535059023, -0.03298058693953639, 0.14879613642488512, 0.774660297882134, 0.8133933127762406, -0.6331505701997046, -0.12962137657631745, 1.505985638506505, 2.3918595435103316, -12.565987119160338)","(0.0, -0.012566370612001944, -0.008246680714126275, 0.009817477040626518, -0.00510508806112579, 0.0035342917346255468, -0.013744467856877126, -0.01610066234662749, -0.018456856836377853, 0.0011780972448751821, -0.012173671530376884, 0.00039269908162506076, 0.0047123889795007284, 0.004319689897875668, -0.003141592653000486, -0.008639379795751335, 0.0)","(0.0, 0.0, -14.556, 10.948, 0.124, 5.036, 0.112, -2.656, 0.212, 2.392, -18.86, 0.308, -36.092, -0.156, 0.852, 0.168, -20.48)",1173726,1522661633,599551860,robotiq_force_torque_frame_id,0.15800002813300001,0.8709999799729999,4.960000991819999,0.0260000005364,-0.207000002265,-0.119000002742,486.0,565.0,697.0,717.0,822.0,225.0,250.0,522.0,592.0,1063.0,7,"(0.7974681936725454, -0.2024337314418763, 0.07431222197396148, -0.4321239316589991, 0.9014856061666308, 0.003541062748319952, -0.02408465147274151)",0.0,0.12999987602199992,0.010002136229998904,0.0010000001638999986,-0.0020000040530000207,-0.006999999285000003
1522690433.65,14149,1522661633,610990047,,1190809,1522661631,127015324,,0.806871850488,-0.193822407352,0.10610644034,0.903098795615,0.428023196271,-0.0343370520762,-0.0054475377313800005,-0.00195660400706,0.00856782319991,-0.00807058180873,0.0196391401487,0.00711205653621,-0.00401061734894,8.711017608639999,1.3979460001,12.2347221375,-0.6611300706859999,3.5705716610000002,-0.10699340701099999,470908,1522661631,134000128,,['l_gripper_l_finger_joint'],"(0.0032494800670444966,)","(0.0,)","(0.0,)",1173727,1522661633,609261190,robotiq_force_torque_frame_id,-0.312000000477,1.4810001134900002,5.32999992371,0.00999999977648,-0.19900000095400003,-0.122000001371,486.0,565.0,697.0,719.0,823.0,195.0,250.0,529.0,592.0,1063.0,7,"(0.7974681936725454, -0.2024337314418763, 0.07431222197396148, -0.4321239316589991, 0.9014856061666308, 0.003541062748319952, -0.02408465147274151)",-0.47000002861,0.6100001335170002,0.36999893189000055,-0.01600000075992,0.008000001310999982,-0.0029999986290000086
1522690433.65,14150,1522661633,621006965,,1190810,1522661631,137012715,,0.806822874906,-0.193555334507,0.10585976238900001,0.9027838433419999,0.428672020791,-0.034508024758900004,-0.00555220846853,0.00356953437703,0.0105459895967,0.0029829392306999995,0.00297874341352,-0.011348472966200002,0.0029305830109099995,8.86056137085,1.54568910599,12.1644763947,-0.7368253469470001,3.6373434066800003,-0.119583830237,1191160,1522661631,135077656,,"['head_nod', 'head_pan', 'left_e0', 'left_e1', 'left_s0', 'left_s1', 'left_w0', 'left_w1', 'left_w2', 'right_e0', 'right_e1', 'right_s0', 'right_s1', 'right_w0', 'right_w1', 'right_w2', 'torso_t0']","(0.0, -0.10085923680346595, -0.9069661408372509, 1.50176719133982, 0.27803401780423126, 0.6446554261088451, 2.341621672707084, -0.48780589054756157, -0.03259709174256504, 0.14802914603094242, 0.7742768026851626, 0.8133933127762406, -0.6331505701997046, -0.13000487177328882, 1.5067526289004476, 2.3918595435103316, -12.565987119160338)","(0.0, 0.008639379795751335, 0.00039269908162506076, 0.003141592653000486, -0.0047123889795007284, 0.0027488935713754254, -0.023169245815878585, -0.012566370612001944, 0.007461282550876154, -0.0019634954081253035, -0.0047123889795007284, 0.013351768775252066, -0.0023561944897503642, 0.003926990816250607, -0.0047123889795007284, 0.008246680714126275, 0.0)","(0.0, 0.0, -14.72, 10.948, 0.248, 5.004, 0.076, -2.648, 0.224, 2.42, -18.8, 0.308, -36.004, -0.168, 0.832, 0.168, -20.48)",1173727,1522661633,609261190,robotiq_force_torque_frame_id,-0.312000000477,1.4810001134900002,5.32999992371,0.00999999977648,-0.19900000095400003,-0.122000001371,486.0,565.0,704.0,719.0,824.0,195.0,250.0,529.0,592.0,1063.0,7,"(0.7974681936725454, -0.2024337314418763, 0.07431222197396148, -0.4321239316589991, 0.9014856061666308, 0.003541062748319952, -0.02408465147274151)",0.0,0.0,0.0,0.0,0.0,0.0
1522690433.65,14151,1522661633,630989074,,1190810,1522661631,137012715,,0.806822874906,-0.193555334507,0.10585976238900001,0.9027838433419999,0.428672020791,-0.034508024758900004,-0.00555220846853,0.00356953437703,0.0105459895967,0.0029829392306999995,0.00297874341352,-0.011348472966200002,0.0029305830109099995,8.86056137085,1.54568910599,12.1644763947,-0.7368253469470001,3.6373434066800003,-0.119583830237,1191161,1522661631,145103611,,"['head_nod', 'head_pan', 'left_e0', 'left_e1', 'left_s0', 'left_s1', 'left_w0', 'left_w1', 'left_w2', 'right_e0', 'right_e1', 'right_s0', 'right_s1', 'right_w0', 'right_w1', 'right_w2', 'torso_t0']","(0.0, -0.10085923680346595, -0.9069661408372509, 1.50176719133982, 0.2784175130012026, 0.6450389213058165, 2.3420051679040554, -0.4881893857445329, -0.03298058693953639, 0.14841264122791378, 0.774660297882134, 0.8122428271853266, -0.6335340653966759, -0.13000487177328882, 1.5063691337034764, 2.3918595435103316, -12.565987119160338)","(0.0, 0.004319689897875668, -0.01021017612225158, -0.005497787142750851, -0.003141592653000486, -0.0027488935713754254, -0.0027488935713754254, -0.0047123889795007284, 0.006675884387626033, 0.003141592653000486, 0.011780972448751823, -0.008639379795751335, -0.006675884387626033, -0.003141592653000486, 0.0027488935713754254, 0.006283185306000972, 0.0)","(0.0, 0.0, -14.652, 10.916, 0.184, 5.068, 0.084, -2.664, 0.26, 2.452, -18.772, 0.248, -36.032, -0.156, 0.832, 0.176, -20.48)",1173729,1522661633,629622919,robotiq_force_torque_frame_id,0.217999970913,1.5910000085799998,5.609998703,0.016000000759999997,-0.215000003576,-0.12099999934399999,486.0,565.0,704.0,724.0,824.0,196.0,262.0,530.0,603.0,1063.0,7,"(0.7974681936725454, -0.2024337314418763, 0.07431222197396148, -0.4321239316589991, 0.9014856061666308, 0.003541062748319952, -0.02408465147274151)",0.52999997139,0.10999989508999963,0.2799987792899996,0.0060000009835199965,-0.016000002621999965,0.0010000020270000132
1522690433.65,14152,1522661633,641000032,,1190812,1522661631,157017104,,0.806891007588,-0.193295346776,0.105990816567,0.902647767852,0.42897680906499996,-0.0342681138002,-0.00562146356328,0.00695744536357,-0.009854858602480001,0.007708331091399999,-0.0162506355803,-0.017934541646000002,-0.00247492789146,9.00598716736,1.560287714,12.250630378699999,-0.748522281647,3.70171546936,-0.120198465884,1191162,1522661631,155090433,,"['head_nod', 'head_pan', 'left_e0', 'left_e1', 'left_s0', 'left_s1', 'left_w0', 'left_w1', 'left_w2', 'right_e0', 'right_e1', 'right_s0', 'right_s1', 'right_w0', 'right_w1', 'right_w2', 'torso_t0']","(0.0, -0.10085923680346595, -0.9073496360342223, 1.5025341817337627, 0.2784175130012026, 0.6450389213058165, 2.3423886631010267, -0.48703890015361884, -0.0337475773334791, 0.14841264122791378, 0.774660297882134, 0.8133933127762406, -0.6335340653966759, -0.13000487177328882, 1.5063691337034764, 2.39147604831336, -12.565987119160338)","(0.0, -0.012173671530376884, -0.009424777959001457, -0.005497787142750851, -0.0019634954081253035, 0.006675884387626033, 0.0023561944897503642, 0.012566370612001944, -0.01060287520387664, -0.00510508806112579, -0.007461282550876154, -0.0019634954081253035, -0.007853981632501214, -0.013744467856877126, -0.0007853981632501215, -0.001570796326500243, 0.0)","(0.0, 0.0, -14.556, 10.916, 0.248, 4.968, 0.084, -2.684, 0.26, 2.42, -18.832, 0.308, -36.032, -0.168, 0.84, 0.168, -20.48)",1173729,1522661633,629622919,robotiq_force_torque_frame_id,0.217999970913,1.5910000085799998,5.609998703,0.016000000759999997,-0.215000003576,-0.12099999934399999,486.0,553.0,705.0,724.0,824.0,204.0,262.0,530.0,603.0,1071.0,7,"(0.7974681936725454, -0.2024337314418763, 0.07431222197396148, -0.4321239316589991, 0.9014856061666308, 0.003541062748319952, -0.02408465147274151)",0.0,0.0,0.0,0.0,0.0,0.0
1522690433.69,14153,1522661633,650995969,,1190813,1522661631,167169891,,0.807126188646,-0.193529350086,0.10649605138399999,0.902874960597,0.42852524775,-0.0339800121539,-0.005317550393939999,0.00707059343179,-0.00111935814981,0.008124337648170001,0.0026379977814200003,-0.021175330901000003,-0.00190379504808,8.797668457030001,1.50756895542,12.253238677999999,-0.7849040627480001,3.6414132118199998,-0.122787319124,1191162,1522661631,155090433,,"['head_nod', 'head_pan', 'left_e0', 'left_e1', 'left_s0', 'left_s1', 'left_w0', 'left_w1', 'left_w2', 'right_e0', 'right_e1', 'right_s0', 'right_s1', 'right_w0', 'right_w1', 'right_w2', 'torso_t0']","(0.0, -0.10085923680346595, -0.9073496360342223, 1.5025341817337627, 0.2784175130012026, 0.6450389213058165, 2.3423886631010267, -0.48703890015361884, -0.0337475773334791, 0.14841264122791378, 0.774660297882134, 0.8133933127762406, -0.6335340653966759, -0.13000487177328882, 1.5063691337034764, 2.39147604831336, -12.565987119160338)","(0.0, -0.012173671530376884, -0.009424777959001457, -0.005497787142750851, -0.0019634954081253035, 0.006675884387626033, 0.0023561944897503642, 0.012566370612001944, -0.01060287520387664, -0.00510508806112579, -0.007461282550876154, -0.0019634954081253035, -0.007853981632501214, -0.013744467856877126, -0.0007853981632501215, -0.001570796326500243, 0.0)","(0.0, 0.0, -14.556, 10.916, 0.248, 4.968, 0.084, -2.684, 0.26, 2.42, -18.832, 0.308, -36.032, -0.168, 0.84, 0.168, -20.48)",1173731,1522661633,649964053,robotiq_force_torque_frame_id,0.668000018597,2.06100003719,5.960000991819999,0.0170000009239,-0.243000000715,-0.122000001371,482.0,553.0,705.0,732.0,824.0,204.0,256.0,523.0,596.0,1071.0,7,"(0.7974681936725454, -0.2024337314418763, 0.07431222197396148, -0.4321239316589991, 0.9014856061666308, 0.003541062748319952, -0.02408465147274151)",0.450000047684,0.4700000286100001,0.35000228881999984,0.001000000163900002,-0.027999997139000005,-0.0010000020270000132
1522690433.69,14154,1522661633,661005020,,1190814,1522661631,177182428,,0.806993548621,-0.19351760912799998,0.106096118855,0.902857944621,0.42854632543300003,-0.0341534928883,-0.00539608337386,-0.000960837188966,-0.0019276462682500002,-0.000466920418306,-0.00473003262047,0.00231897032766,0.0019889128570499998,8.840008735660001,1.53609740734,12.1891336441,-0.760859966278,3.6399517059300006,-0.12722830474400001,470911,1522661631,184000000,,['r_gripper_l_finger_joint'],"(0.004166000062078238,)","(0.0,)","(0.3096774220466614,)",1173731,1522661633,649964053,robotiq_force_torque_frame_id,0.668000018597,2.06100003719,5.960000991819999,0.0170000009239,-0.243000000715,-0.122000001371,482.0,603.0,714.0,732.0,821.0,199.0,258.0,510.0,610.0,1066.0,7,"(0.7974681936725454, -0.2024337314418763, 0.07431222197396148, -0.4321239316589991, 0.9014856061666308, 0.003541062748319952, -0.02408465147274151)",0.0,0.0,0.0,0.0,0.0,0.0
1522690433.69,14155,1522661633,670984029,,1190815,1522661631,187177901,,0.806859530259,-0.193792970262,0.105887397931,0.9028396906,0.428558388723,-0.03444090360069999,-0.005659036339939999,0.000763523497588,-0.0013690805652799998,-0.00239139044209,-0.0100883577925,0.00156847930763,0.004507227578630001,8.64851570129,1.5112056732199999,12.1864614487,-0.663560271263,3.58214950562,-0.08859016001219999,1191165,1522661631,185242236,,"['head_nod', 'head_pan', 'left_e0', 'left_e1', 'left_s0', 'left_s1', 'left_w0', 'left_w1', 'left_w2', 'right_e0', 'right_e1', 'right_s0', 'right_s1', 'right_w0', 'right_w1', 'right_w2', 'torso_t0']","(0.0, -0.1012427320004373, -0.9065826456402796, 1.5013836961428486, 0.27880100819817394, 0.6450389213058165, 2.3420051679040554, -0.4881893857445329, -0.033364082136507746, 0.14879613642488512, 0.7742768026851626, 0.8126263223822979, -0.6331505701997046, -0.13038836697026016, 1.5067526289004476, 2.3918595435103316, -12.565987119160338)","(0.0, -0.0035342917346255468, 0.01021017612225158, -0.005890486224375911, -0.0035342917346255468, 0.01649336142825255, 0.0, -0.001570796326500243, 0.00510508806112579, -0.001570796326500243, -0.01060287520387664, 0.0047123889795007284, 0.009032078877376396, -0.009424777959001457, 0.004319689897875668, -0.0007853981632501215, 0.0)","(0.0, 0.0, -14.652, 10.916, 0.248, 4.968, 0.076, -2.656, 0.232, 2.548, -18.772, 0.308, -36.004, -0.148, 0.852, 0.148, -20.48)",1173733,1522661633,670326552,robotiq_force_torque_frame_id,0.6480000376699999,2.70100002289,6.370000839229999,0.00899999961257,-0.25,-0.130999997258,479.0,597.0,714.0,715.0,826.0,209.0,258.0,510.0,610.0,1066.0,7,"(0.7974681936725454, -0.2024337314418763, 0.07431222197396148, -0.4321239316589991, 0.9014856061666308, 0.003541062748319952, -0.02408465147274151)",-0.01999998092700006,0.6399999857000003,0.40999984740999995,-0.00800000131133,-0.006999999285000003,-0.008999995886999984
1522690433.69,14156,1522661633,681005954,,1190816,1522661631,197182656,,0.8069921891799999,-0.194588067332,0.105952651219,0.903125667904,0.427960303312,-0.0344509286025,-0.005209633363180001,-0.005719009765249999,-0.010632437490299998,-0.0008752069766659999,-0.0200918813807,0.0158880063808,-0.006037343292939999,9.07613563538,1.4088269472100001,12.119031906099998,-0.652466118336,3.7297258377099998,-0.115995422006,1191166,1522661631,195228358,,"['head_nod', 'head_pan', 'left_e0', 'left_e1', 'left_s0', 'left_s1', 'left_w0', 'left_w1', 'left_w2', 'right_e0', 'right_e1', 'right_s0', 'right_s1', 'right_w0', 'right_w1', 'right_w2', 'torso_t0']","(0.0, -0.1012427320004373, -0.9065826456402796, 1.50176719133982, 0.2791845033951453, 0.6442719309118737, 2.3412381775101125, -0.48780589054756157, -0.03259709174256504, 0.1472621556369997, 0.774660297882134, 0.8126263223822979, -0.6335340653966759, -0.13000487177328882, 1.5063691337034764, 2.392243038707303, -12.565987119160338)","(0.0, 0.01021017612225158, 0.008639379795751335, 0.01767145867312773, 0.007853981632501214, -0.0027488935713754254, -0.0011780972448751821, 0.01021017612225158, 0.0019634954081253035, -0.00510508806112579, 0.00039269908162506076, -0.001570796326500243, 0.001570796326500243, -0.013744467856877126, 0.01610066234662749, 0.003141592653000486, 0.0)","(0.0, 0.0, -14.556, 10.916, 0.216, 5.068, 0.104, -2.656, 0.232, 2.36, -18.8, 0.216, -35.944, -0.124, 0.832, 0.148, -20.48)",1173734,1522661633,678489843,robotiq_force_torque_frame_id,0.45799998045,2.2810000658000003,6.49999809265,0.0130000002682,-0.263000011444,-0.136999994516,479.0,597.0,705.0,717.0,826.0,213.0,253.0,516.0,624.0,1066.0,7,"(0.7974681936725454, -0.2024337314418763, 0.07431222197396148, -0.4321239316589991, 0.9014856061666308, 0.003541062748319952, -0.02408465147274151)",-0.1900000572199999,-0.41999995708999993,0.1299972534200009,0.00400000065563,-0.013000011443999981,-0.005999997258000017
1522690433.73,14157,1522661633,691093921,,1190817,1522661631,207172743,,0.8064363215899999,-0.193174804602,0.10547219353000001,0.902682114602,0.42885643395000006,-0.034865836308800004,-0.00561538038481,-0.0122103944854,0.00887148040065,0.00360760061967,-0.00867028225604,0.0244379794056,0.00757792657506,8.999751091,1.61532270908,12.2566308975,-0.687782049179,3.70117998123,-0.12149323523,1191167,1522661631,205278021,,"['head_nod', 'head_pan', 'left_e0', 'left_e1', 'left_s0', 'left_s1', 'left_w0', 'left_w1', 'left_w2', 'right_e0', 'right_e1', 'right_s0', 'right_s1', 'right_w0', 'right_w1', 'right_w2', 'torso_t0']","(0.0, -0.1012427320004373, -0.9073496360342223, 1.50176719133982, 0.27880100819817394, 0.6446554261088451, 2.3412381775101125, -0.4881893857445329, -0.033364082136507746, 0.14841264122791378, 0.7754272882760767, 0.813776807973212, -0.6331505701997046, -0.13038836697026016, 1.5063691337034764, 2.392243038707303, -12.565987119160338)","(0.0, 0.0047123889795007284, 0.005890486224375911, 0.0070685834692510935, 0.0, -0.01060287520387664, -0.011780972448751823, 0.0011780972448751821, -0.004319689897875668, 0.0047123889795007284, 0.01060287520387664, 0.013744467856877126, -0.009424777959001457, -0.007461282550876154, 0.024740042142378828, 0.010995574285501701, 0.0)","(0.0, 0.0, -14.556, 10.852, 0.248, 5.036, 0.104, -2.648, 0.24, 2.516, -18.832, 0.34, -36.032, -0.1, 0.84, 0.168, -20.48)",1173734,1522661633,678489843,robotiq_force_torque_frame_id,0.45799998045,2.2810000658000003,6.49999809265,0.0130000002682,-0.263000011444,-0.136999994516,480.0,577.0,710.0,717.0,862.0,213.0,253.0,516.0,624.0,1062.0,7,"(0.7974681936725454, -0.2024337314418763, 0.07431222197396148, -0.4321239316589991, 0.9014856061666308, 0.003541062748319952, -0.02408465147274151)",0.0,0.0,0.0,0.0,0.0,0.0
1522690433.73,14158,1522661633,700998067,,1190818,1522661631,217168959,,0.80677516942,-0.193708511508,0.105852110414,0.902736508407,0.428764408785,-0.03468572320880001,-0.00497782624213,-0.015255254723499999,-0.00567953375746,-0.0138023989593,-0.0269305092882,0.0317798928393,0.00408289146066,9.500822067260001,1.58997607231,12.3123083115,-0.702446937561,3.8894550800300003,-0.133989706635,1191167,1522661631,205278021,,"['head_nod', 'head_pan', 'left_e0', 'left_e1', 'left_s0', 'left_s1', 'left_w0', 'left_w1', 'left_w2', 'right_e0', 'right_e1', 'right_s0', 'right_s1', 'right_w0', 'right_w1', 'right_w2', 'torso_t0']","(0.0, -0.1012427320004373, -0.9073496360342223, 1.50176719133982, 0.27880100819817394, 0.6446554261088451, 2.3412381775101125, -0.4881893857445329, -0.033364082136507746, 0.14841264122791378, 0.7754272882760767, 0.813776807973212, -0.6331505701997046, -0.13038836697026016, 1.5063691337034764, 2.392243038707303, -12.565987119160338)","(0.0, 0.0047123889795007284, 0.005890486224375911, 0.0070685834692510935, 0.0, -0.01060287520387664, -0.011780972448751823, 0.0011780972448751821, -0.004319689897875668, 0.0047123889795007284, 0.01060287520387664, 0.013744467856877126, -0.009424777959001457, -0.007461282550876154, 0.024740042142378828, 0.010995574285501701, 0.0)","(0.0, 0.0, -14.556, 10.852, 0.248, 5.036, 0.104, -2.648, 0.24, 2.516, -18.832, 0.34, -36.032, -0.1, 0.84, 0.168, -20.48)",1173736,1522661633,699188445,robotiq_force_torque_frame_id,1.27799991369,1.63099997044,6.49999809265,0.0179999992251,-0.23899999260899998,-0.10800000280099999,481.0,577.0,710.0,719.0,862.0,208.0,253.0,540.0,604.0,1062.0,7,"(0.7974681936725454, -0.2024337314418763, 0.07431222197396148, -0.4321239316589991, 0.9014856061666308, 0.003541062748319952, -0.02408465147274151)",0.81999993324,-0.6500000953600003,0.0,0.0049999989569000005,0.024000018834999998,0.02899999171500002
1522690433.73,14159,1522661633,710989952,,1190819,1522661631,227176850,,0.8065079128020001,-0.193187866864,0.106000265847,0.902689700698,0.428855375864,-0.0346973012309,-0.005519794769970001,0.0035133147812800004,0.00936363709245,0.00177796072495,0.015201668495399999,-0.010817430929299997,0.020236492675000002,9.52136421204,1.55118358135,12.362954139700001,-0.687012314796,3.9131765365599995,-0.11779373884199999,470912,1522661631,235000064,,['l_gripper_l_finger_joint'],"(0.0032494800670444966,)","(0.0,)","(0.0,)",1173736,1522661633,699188445,robotiq_force_torque_frame_id,1.27799991369,1.63099997044,6.49999809265,0.0179999992251,-0.23899999260899998,-0.10800000280099999,481.0,581.0,706.0,719.0,854.0,224.0,253.0,539.0,604.0,1070.0,7,"(0.7974681936725454, -0.2024337314418763, 0.07431222197396148, -0.4321239316589991, 0.9014856061666308, 0.003541062748319952, -0.02408465147274151)",0.0,0.0,0.0,0.0,0.0,0.0
1522690433.73,14160,1522661633,720993995,,1190820,1522661631,237163302,,0.807131251553,-0.193708182072,0.106369781912,0.902887774841,0.428499232602,-0.033973179,-0.00528174305369,0.00195620706493,-0.0143396825933,0.0018366483305399999,-0.00730493928174,0.00107478825185,-0.000852989438697,9.65896606445,1.66020524502,12.3555402756,-0.7341095805169999,3.9787094593,-0.11604809015999999,1191170,1522661631,235264271,,"['head_nod', 'head_pan', 'left_e0', 'left_e1', 'left_s0', 'left_s1', 'left_w0', 'left_w1', 'left_w2', 'right_e0', 'right_e1', 'right_s0', 'right_s1', 'right_w0', 'right_w1', 'right_w2', 'torso_t0']","(0.0, -0.10085923680346595, -0.9061991504433081, 1.5021506865367915, 0.27880100819817394, 0.6446554261088451, 2.3412381775101125, -0.4881893857445329, -0.03298058693953639, 0.14841264122791378, 0.7750437930791053, 0.8130098175792693, -0.6343010557906186, -0.13038836697026016, 1.505985638506505, 2.392243038707303, -12.565987119160338)","(0.0, 0.0047123889795007284, -0.00039269908162506076, 0.003141592653000486, 0.0023561944897503642, -0.014137166938502187, 0.001570796326500243, -0.01021017612225158, -0.0019634954081253035, -0.003141592653000486, -0.013351768775252066, -0.012959069693627005, 0.004319689897875668, -0.005890486224375911, 0.01060287520387664, -0.014922565101752308, 0.0)","(0.0, 0.0, -14.588, 10.916, 0.28, 4.968, 0.084, -2.628, 0.212, 2.42, -18.892, 0.372, -36.004, -0.072, 0.852, 0.14, -20.48)",1173738,1522661633,719672173,robotiq_force_torque_frame_id,0.807999885082,1.9210001707099997,6.280000686649999,-0.019999999553,-0.237000003457,-0.09399999678130001,482.0,577.0,706.0,713.0,832.0,224.0,253.0,539.0,581.0,1070.0,7,"(0.7974681936725454, -0.2024337314418763, 0.07431222197396148, -0.4321239316589991, 0.9014856061666308, 0.003541062748319952, -0.02408465147274151)",-0.47000002860799994,0.29000020026999973,-0.21999740600000095,-0.0379999987781,0.0019999891519999757,0.014000006019699973
1522690433.77,14161,1522661633,730988025,,1190821,1522661631,247171460,,0.806992079409,-0.19324823407900002,0.10623682236700001,0.9027040938779999,0.42887014574500004,-0.0341558579912,-0.00539391783759,0.00755781506364,-0.00912631926423,-0.00300559959019,-0.012992198649200001,-0.01440854746,-0.008848224040780001,9.27419090271,1.6415849924099999,12.4494972229,-0.692067444324,3.87489080429,-0.125592023134,1191171,1522661631,245262548,,"['head_nod', 'head_pan', 'left_e0', 'left_e1', 'left_s0', 'left_s1', 'left_w0', 'left_w1', 'left_w2', 'right_e0', 'right_e1', 'right_s0', 'right_s1', 'right_w0', 'right_w1', 'right_w2', 'torso_t0']","(0.0, -0.1012427320004373, -0.9065826456402796, 1.5025341817337627, 0.2784175130012026, 0.6450389213058165, 2.3408546823131413, -0.48742239535059023, -0.033364082136507746, 0.14802914603094242, 0.774660297882134, 0.813776807973212, -0.6339175605936472, -0.13000487177328882, 1.5063691337034764, 2.3918595435103316, -12.565987119160338)","(0.0, 0.003141592653000486, -0.0027488935713754254, 0.0, 0.0047123889795007284, 0.003141592653000486, 0.0011780972448751821, 0.02513274122400389, 0.018456856836377853, -0.014529866020127248, -0.01060287520387664, 0.0011780972448751821, 0.008639379795751335, -0.003926990816250607, -0.011780972448751823, 0.0007853981632501215, 0.0)","(0.0, 0.0, -14.652, 10.884, 0.248, 5.036, 0.06, -2.684, 0.24, 2.516, -18.86, 0.34, -36.06, -0.084, 0.9, 0.168, -20.48)",1173738,1522661633,719672173,robotiq_force_torque_frame_id,0.807999885082,1.9210001707099997,6.280000686649999,-0.019999999553,-0.237000003457,-0.09399999678130001,482.0,577.0,707.0,720.0,832.0,245.0,260.0,522.0,583.0,1088.0,7,"(0.7974681936725454, -0.2024337314418763, 0.07431222197396148, -0.4321239316589991, 0.9014856061666308, 0.003541062748319952, -0.02408465147274151)",0.0,0.0,0.0,0.0,0.0,0.0
1522690433.77,14162,1522661633,740983963,,1190822,1522661631,257169049,,0.806693974561,-0.19386138716899998,0.10573243661599999,0.902667416324,0.42889706120800003,-0.0348027853432,-0.00525476226274,-0.00149528744427,0.0104755948889,-0.017060298845799998,0.0039162298847,0.00333771380528,0.0148501664797,9.239204406739999,1.57068383694,12.5397577286,-0.6742417216300001,3.91060352325,-0.128054961562,1191172,1522661631,255242248,,"['head_nod', 'head_pan', 'left_e0', 'left_e1', 'left_s0', 'left_s1', 'left_w0', 'left_w1', 'left_w2', 'right_e0', 'right_e1', 'right_s0', 'right_s1', 'right_w0', 'right_w1', 'right_w2', 'torso_t0']","(0.0, -0.1012427320004373, -0.9077331312311936, 1.5013836961428486, 0.2795679985921167, 0.6450389213058165, 2.341621672707084, -0.48780589054756157, -0.03298058693953639, 0.14802914603094242, 0.774660297882134, 0.8133933127762406, -0.6331505701997046, -0.13077186216723152, 1.5067526289004476, 2.39147604831336, -12.565987119160338)","(0.0, 0.006283185306000972, -0.02591813938725401, 0.01727875959150267, 0.008246680714126275, 0.01649336142825255, -0.0023561944897503642, 0.015707963265002428, 0.008639379795751335, -0.011388273367126762, 0.01688606050987761, 0.01610066234662749, 0.014922565101752308, 0.011388273367126762, -0.029845130203504617, -0.0047123889795007284, 0.0)","(0.0, 0.0, -14.588, 10.916, 0.216, 5.004, 0.084, -2.664, 0.232, 2.452, -18.832, 0.308, -36.092, -0.064, 0.96, 0.156, -20.48)",1173740,1522661633,739985522,robotiq_force_torque_frame_id,0.267999923229,1.75100009441,4.40999794006,-0.10400000214600001,-0.16400000453,-0.10599999874800001,475.0,581.0,707.0,720.0,838.0,245.0,260.0,522.0,583.0,1079.0,7,"(0.7974681936725454, -0.2024337314418763, 0.07431222197396148, -0.4321239316589991, 0.9014856061666308, 0.003541062748319952, -0.02408465147274151)",-0.539999961853,-0.1700000762999998,-1.870002746589999,-0.08400000259300001,0.07299999892700001,-0.012000001966699994
1522690433.77,14163,1522661633,751005887,,1190823,1522661631,267170374,,0.807243668627,-0.192726361316,0.106104584445,0.9025867006530001,0.42914929056100004,-0.033783431869,-0.0051782183907799996,0.00493325283716,-0.011425087028099998,-0.00883432557388,-0.024846041337700003,-0.010675413824200002,0.0044671905855,9.550316810610001,1.5759832859,12.5739383698,-0.6893418431280001,4.07552099228,-0.12701502442399998,1191172,1522661631,255242248,,"['head_nod', 'head_pan', 'left_e0', 'left_e1', 'left_s0', 'left_s1', 'left_w0', 'left_w1', 'left_w2', 'right_e0', 'right_e1', 'right_s0', 'right_s1', 'right_w0', 'right_w1', 'right_w2', 'torso_t0']","(0.0, -0.1012427320004373, -0.9077331312311936, 1.5013836961428486, 0.2795679985921167, 0.6450389213058165, 2.341621672707084, -0.48780589054756157, -0.03298058693953639, 0.14802914603094242, 0.774660297882134, 0.8133933127762406, -0.6331505701997046, -0.13077186216723152, 1.5067526289004476, 2.39147604831336, -12.565987119160338)","(0.0, 0.006283185306000972, -0.02591813938725401, 0.01727875959150267, 0.008246680714126275, 0.01649336142825255, -0.0023561944897503642, 0.015707963265002428, 0.008639379795751335, -0.011388273367126762, 0.01688606050987761, 0.01610066234662749, 0.014922565101752308, 0.011388273367126762, -0.029845130203504617, -0.0047123889795007284, 0.0)","(0.0, 0.0, -14.588, 10.916, 0.216, 5.004, 0.084, -2.664, 0.232, 2.452, -18.832, 0.308, -36.092, -0.064, 0.96, 0.156, -20.48)",1173740,1522661633,739985522,robotiq_force_torque_frame_id,0.267999923229,1.75100009441,4.40999794006,-0.10400000214600001,-0.16400000453,-0.10599999874800001,474.0,581.0,707.0,714.0,838.0,242.0,261.0,497.0,581.0,1079.0,7,"(0.7974681936725454, -0.2024337314418763, 0.07431222197396148, -0.4321239316589991, 0.9014856061666308, 0.003541062748319952, -0.02408465147274151)",0.0,0.0,0.0,0.0,0.0,0.0
1522690433.77,14164,1522661633,760982036,,1190824,1522661631,277177014,,0.8068259124060001,-0.194138580096,0.10545359103700001,0.902930766697,0.428361455371,-0.0345541832431,-0.00533877561394,0.014301202967,0.0035013075135799997,0.00889151467887,0.004953420286090001,-0.038532646565199995,-0.00168834164946,9.95344924927,1.8088375330000002,12.6827278137,-0.818349897861,4.272203445430001,-0.141246631742,470915,1522661631,286000128,,['l_gripper_l_finger_joint'],"(0.0032494800670444966,)","(0.0,)","(0.0,)",1173742,1522661633,760371619,robotiq_force_torque_frame_id,1.50799993277,2.61100010872,5.1400012969999995,-0.082999996841,-0.168999999762,-0.11699999868899999,474.0,588.0,704.0,714.0,828.0,240.0,261.0,497.0,581.0,1083.0,7,"(0.7974681936725454, -0.2024337314418763, 0.07431222197396148, -0.4321239316589991, 0.9014856061666308, 0.003541062748319952, -0.02408465147274151)",1.240000009541,0.86000001431,0.7300033569399993,0.021000005305000014,-0.00499999523200001,-0.010999999940999983
1522690433.81,14165,1522661633,771017074,,1190825,1522661631,287170173,,0.806708700436,-0.194098725004,0.105181680913,0.9027273704979999,0.42877152100599997,-0.034790114966,-0.00528443270174,0.011741438831100001,-0.0062390000731100004,0.0021044216360100003,-0.007834079315640001,-0.028867080235599998,-0.009367025473629999,9.425198554989999,1.70586597919,12.5828676224,-0.759950101376,4.06210041046,-0.129293143749,1191175,1522661631,285249253,,"['head_nod', 'head_pan', 'left_e0', 'left_e1', 'left_s0', 'left_s1', 'left_w0', 'left_w1', 'left_w2', 'right_e0', 'right_e1', 'right_s0', 'right_s1', 'right_w0', 'right_w1', 'right_w2', 'torso_t0']","(0.0, -0.10085923680346595, -0.9069661408372509, 1.50176719133982, 0.2784175130012026, 0.6446554261088451, 2.3408546823131413, -0.48857288094150425, -0.03298058693953639, 0.14802914603094242, 0.7754272882760767, 0.8130098175792693, -0.6327670750027332, -0.13077186216723152, 1.5056021433095337, 2.39147604831336, -12.565987119160338)","(0.0, -0.009817477040626518, 0.008246680714126275, -0.008246680714126275, -0.011388273367126762, 0.005890486224375911, 0.02513274122400389, -0.02120575040775328, -0.00039269908162506076, -0.008639379795751335, -0.006283185306000972, -0.00039269908162506076, -0.0011780972448751821, -0.004319689897875668, -0.02081305132612822, 0.003926990816250607, 0.0)","(0.0, 0.0, -14.62, 10.916, 0.216, 5.004, 0.084, -2.656, 0.224, 2.452, -18.772, 0.404, -36.032, -0.072, 1.044, 0.156, -20.48)",1173743,1522661633,768523369,robotiq_force_torque_frame_id,1.8280001044299998,2.8810000896499997,5.03000068665,-0.09499999880789999,-0.148000001907,-0.122000001371,473.0,593.0,704.0,713.0,828.0,240.0,262.0,498.0,595.0,1083.0,7,"(0.7974681936725454, -0.2024337314418763, 0.07431222197396148, -0.4321239316589991, 0.9014856061666308, 0.003541062748319952, -0.02408465147274151)",0.32000017165999983,0.26999998092999977,-0.1100006103499993,-0.012000001966899987,0.020999997855000008,-0.005000002682000015
1522690433.81,14166,1522661633,781059026,,1190826,1522661631,297164954,,0.8074820378540001,-0.19353229493700003,0.10622283167400001,0.9028169914859999,0.42867637369999995,-0.0336615594885,-0.00499458985098,0.008006760277979998,-0.0118015379585,0.00361998336787,-0.00222604506643,-0.017729020859,-0.009601223837620002,8.75466823578,1.71511483192,12.5985441208,-0.770532548428,3.8400170803099996,-0.116290539503,1191176,1522661631,295231290,,"['head_nod', 'head_pan', 'left_e0', 'left_e1', 'left_s0', 'left_s1', 'left_w0', 'left_w1', 'left_w2', 'right_e0', 'right_e1', 'right_s0', 'right_s1', 'right_w0', 'right_w1', 'right_w2', 'torso_t0']","(0.0, -0.10085923680346595, -0.9061991504433081, 1.5013836961428486, 0.2791845033951453, 0.6446554261088451, 2.341621672707084, -0.48742239535059023, -0.033364082136507746, 0.14841264122791378, 0.774660297882134, 0.8133933127762406, -0.6339175605936472, -0.13077186216723152, 1.5052186481125622, 2.392243038707303, -12.565987119160338)","(0.0, -0.013744467856877126, -0.01060287520387664, -0.01021017612225158, 0.0019634954081253035, -0.0035342917346255468, -0.015707963265002428, -0.003141592653000486, 0.0023561944897503642, 0.005497787142750851, -0.006675884387626033, -0.01649336142825255, -0.0019634954081253035, -0.009032078877376396, -0.008246680714126275, -0.003141592653000486, 0.0)","(0.0, 0.0, -14.652, 10.948, 0.216, 4.968, 0.084, -2.664, 0.252, 2.484, -18.712, 0.464, -36.06, -0.072, 1.064, 0.148, -20.48)",1173743,1522661633,768523369,robotiq_force_torque_frame_id,1.8280001044299998,2.8810000896499997,5.03000068665,-0.09499999880789999,-0.148000001907,-0.122000001371,473.0,593.0,705.0,713.0,839.0,238.0,267.0,487.0,601.0,1086.0,7,"(0.7974681936725454, -0.2024337314418763, 0.07431222197396148, -0.4321239316589991, 0.9014856061666308, 0.003541062748319952, -0.02408465147274151)",0.0,0.0,0.0,0.0,0.0,0.0
1522690433.81,14167,1522661633,791023969,,1190827,1522661631,307176983,,0.8071576140510001,-0.193407782873,0.10558453251199999,0.9027351531129999,0.42880644451800004,-0.0341320371239,-0.00541114739728,0.00925545201752,-0.00173591465264,0.005970719387460001,0.0046481280858900005,-0.0226012492159,-0.014384432686299999,8.73791790009,1.76291322708,12.679236412,-0.810071825981,3.84798169136,-0.120279058814,1191177,1522661631,305232637,,"['head_nod', 'head_pan', 'left_e0', 'left_e1', 'left_s0', 'left_s1', 'left_w0', 'left_w1', 'left_w2', 'right_e0', 'right_e1', 'right_s0', 'right_s1', 'right_w0', 'right_w1', 'right_w2', 'torso_t0']","(0.0, -0.10085923680346595, -0.9065826456402796, 1.5021506865367915, 0.27803401780423126, 0.6446554261088451, 2.341621672707084, -0.48780589054756157, -0.033364082136507746, 0.14841264122791378, 0.7742768026851626, 0.8133933127762406, -0.6327670750027332, -0.13038836697026016, 1.5056021433095337, 2.3918595435103316, -12.565987119160338)","(0.0, -0.008246680714126275, 0.005497787142750851, -0.0047123889795007284, -0.003926990816250607, -0.011780972448751823, -0.011780972448751823, 0.013744467856877126, 0.003141592653000486, -0.001570796326500243, -0.01060287520387664, -0.003926990816250607, -0.003926990816250607, 0.003926990816250607, -0.008639379795751335, 0.007853981632501214, 0.0)","(0.0, 0.0, -14.556, 10.916, 0.184, 5.004, 0.068, -2.656, 0.252, 2.484, -18.712, 0.496, -36.12, -0.084, 1.092, 0.156, -20.48)",1173745,1522661633,789089345,robotiq_force_torque_frame_id,0.668000018597,3.1310000896499997,5.17999839783,-0.123999997973,-0.130999997258,-0.122000001371,468.0,586.0,705.0,709.0,828.0,238.0,267.0,487.0,601.0,1086.0,7,"(0.7974681936725454, -0.2024337314418763, 0.07431222197396148, -0.4321239316589991, 0.9014856061666308, 0.003541062748319952, -0.02408465147274151)",-1.160000085833,0.25,0.14999771118000016,-0.028999999165100016,0.017000004649000006,0.0
1522690433.81,14168,1522661633,801111936,,1190828,1522661631,317197405,,0.807240059826,-0.193524057191,0.10556360578099999,0.902711314949,0.428869487808,-0.0340096464385,-0.00515637844753,0.014016561034,-0.00506490805836,0.011617413827200001,0.007897575662270001,-0.03788205176000001,-0.0194076850761,8.44952583313,1.76586377621,12.6560811996,-0.811313331127,3.7728657722500003,-0.11590320617000001,1191177,1522661631,305232637,,"['head_nod', 'head_pan', 'left_e0', 'left_e1', 'left_s0', 'left_s1', 'left_w0', 'left_w1', 'left_w2', 'right_e0', 'right_e1', 'right_s0', 'right_s1', 'right_w0', 'right_w1', 'right_w2', 'torso_t0']","(0.0, -0.10085923680346595, -0.9065826456402796, 1.5021506865367915, 0.27803401780423126, 0.6446554261088451, 2.341621672707084, -0.48780589054756157, -0.033364082136507746, 0.14841264122791378, 0.7742768026851626, 0.8133933127762406, -0.6327670750027332, -0.13038836697026016, 1.5056021433095337, 2.3918595435103316, -12.565987119160338)","(0.0, -0.008246680714126275, 0.005497787142750851, -0.0047123889795007284, -0.003926990816250607, -0.011780972448751823, -0.011780972448751823, 0.013744467856877126, 0.003141592653000486, -0.001570796326500243, -0.01060287520387664, -0.003926990816250607, -0.003926990816250607, 0.003926990816250607, -0.008639379795751335, 0.007853981632501214, 0.0)","(0.0, 0.0, -14.556, 10.916, 0.184, 5.004, 0.068, -2.656, 0.252, 2.484, -18.712, 0.496, -36.12, -0.084, 1.092, 0.156, -20.48)",1173745,1522661633,789089345,robotiq_force_torque_frame_id,0.668000018597,3.1310000896499997,5.17999839783,-0.123999997973,-0.130999997258,-0.122000001371,468.0,586.0,710.0,713.0,828.0,256.0,271.0,490.0,594.0,1104.0,7,"(0.7974681936725454, -0.2024337314418763, 0.07431222197396148, -0.4321239316589991, 0.9014856061666308, 0.003541062748319952, -0.02408465147274151)",0.0,0.0,0.0,0.0,0.0,0.0
1522690433.85,14169,1522661633,811029911,,1190829,1522661631,327169536,,0.8073395359860001,-0.193686739161,0.10623137285800001,0.902820639017,0.428655997061,-0.0337845215647,-0.00524748037257,0.0021271711119500002,0.0189791059902,-0.00792974210527,0.0163219182034,-0.00775994435501,0.0191918668724,8.43175029755,1.7073104381600002,12.6364898682,-0.774681687355,3.73833155632,-0.131825700402,1191177,1522661631,305232637,,"['head_nod', 'head_pan', 'left_e0', 'left_e1', 'left_s0', 'left_s1', 'left_w0', 'left_w1', 'left_w2', 'right_e0', 'right_e1', 'right_s0', 'right_s1', 'right_w0', 'right_w1', 'right_w2', 'torso_t0']","(0.0, -0.10085923680346595, -0.9065826456402796, 1.5021506865367915, 0.27803401780423126, 0.6446554261088451, 2.341621672707084, -0.48780589054756157, -0.033364082136507746, 0.14841264122791378, 0.7742768026851626, 0.8133933127762406, -0.6327670750027332, -0.13038836697026016, 1.5056021433095337, 2.3918595435103316, -12.565987119160338)","(0.0, -0.008246680714126275, 0.005497787142750851, -0.0047123889795007284, -0.003926990816250607, -0.011780972448751823, -0.011780972448751823, 0.013744467856877126, 0.003141592653000486, -0.001570796326500243, -0.01060287520387664, -0.003926990816250607, -0.003926990816250607, 0.003926990816250607, -0.008639379795751335, 0.007853981632501214, 0.0)","(0.0, 0.0, -14.556, 10.916, 0.184, 5.004, 0.068, -2.656, 0.252, 2.484, -18.712, 0.496, -36.12, -0.084, 1.092, 0.156, -20.48)",1173745,1522661633,789089345,robotiq_force_torque_frame_id,0.668000018597,3.1310000896499997,5.17999839783,-0.123999997973,-0.130999997258,-0.122000001371,468.0,573.0,706.0,713.0,831.0,238.0,271.0,490.0,594.0,1091.0,7,"(0.38829058205682443, -0.8161681509245794, 0.13683103169809008, 0.9999377972961767, -0.00435222739790081, -0.009388168303921664, 0.004161964805750734)",0.0,0.0,0.0,0.0,0.0,0.0
1522690433.85,14170,1522661633,821003913,,1190830,1522661631,337165122,,0.8077207246089999,-0.193675642401,0.10578636463600001,0.902866359621,0.42858630548,-0.033472874434,-0.00506775061286,0.0161225617078,-0.00561486453186,0.004983439444560001,0.0060930536915100005,-0.0362615083452,-0.006836698243979999,8.447171211239999,1.73563051224,12.581869125399999,-0.789994716644,3.79108476639,-0.12072300910900001,1191180,1522661631,335261625,,"['head_nod', 'head_pan', 'left_e0', 'left_e1', 'left_s0', 'left_s1', 'left_w0', 'left_w1', 'left_w2', 'right_e0', 'right_e1', 'right_s0', 'right_s1', 'right_w0', 'right_w1', 'right_w2', 'torso_t0']","(0.0, -0.10085923680346595, -0.9065826456402796, 1.5021506865367915, 0.27880100819817394, 0.6454224165027879, 2.341621672707084, -0.4881893857445329, -0.03298058693953639, 0.14764565083397108, 0.7742768026851626, 0.8133933127762406, -0.6331505701997046, -0.13000487177328882, 1.5044516577186196, 2.3918595435103316, -12.565987119160338)","(0.0, -0.010995574285501701, 0.003141592653000486, 0.008246680714126275, -0.0027488935713754254, 0.0019634954081253035, 0.003141592653000486, -0.0047123889795007284, -0.006283185306000972, -0.004319689897875668, -0.019634954081253035, -0.007853981632501214, 0.001570796326500243, 0.004319689897875668, -0.019242254999627974, -0.006283185306000972, 0.0)","(0.0, 0.0, -14.524, 10.916, 0.372, 5.004, 0.084, -2.648, 0.24, 2.484, -18.62, 0.496, -36.032, -0.072, 1.132, 0.156, -20.48)",1173747,1522661633,809468498,robotiq_force_torque_frame_id,0.6480000376699999,1.7710000753400001,4.92000007629,-0.097000002861,-0.10000000149,-0.09600000083450001,465.0,573.0,706.0,716.0,831.0,238.0,274.0,489.0,604.0,1091.0,7,"(0.38829058205682443, -0.8161681509245794, 0.13683103169809008, 0.9999377972961767, -0.00435222739790081, -0.009388168303921664, 0.004161964805750734)",-0.01999998092700006,-1.3600000143099995,-0.25999832154000035,0.026999995112000005,0.030999995767999985,0.026000000536499993
1522690433.85,14171,1522661633,830987930,,1190831,1522661631,347169816,,0.806954464898,-0.193607957786,0.105596924081,0.902650583757,0.428969957904,-0.0343116831104,-0.005422846275770001,-0.0009438641679899999,-0.012817734957,-0.00018507922250700002,-0.026222757958499997,0.00194293132889,-0.0044062740397,9.27369403839,1.91501486301,12.693206787100001,-0.8763953447339999,4.08341169357,-0.106584668159,1191181,1522661631,345266769,,"['head_nod', 'head_pan', 'left_e0', 'left_e1', 'left_s0', 'left_s1', 'left_w0', 'left_w1', 'left_w2', 'right_e0', 'right_e1', 'right_s0', 'right_s1', 'right_w0', 'right_w1', 'right_w2', 'torso_t0']","(0.0, -0.10085923680346595, -0.9065826456402796, 1.50176719133982, 0.27880100819817394, 0.6446554261088451, 2.3408546823131413, -0.48780589054756157, -0.033364082136507746, 0.14879613642488512, 0.7750437930791053, 0.8130098175792693, -0.6331505701997046, -0.13077186216723152, 1.5056021433095337, 2.39147604831336, -12.565987119160338)","(0.0, -0.007461282550876154, -0.012959069693627005, 0.0047123889795007284, 0.014529866020127248, 0.003141592653000486, 0.008246680714126275, 0.009424777959001457, 0.0047123889795007284, -0.023169245815878585, 0.0047123889795007284, 0.006283185306000972, -0.003141592653000486, -0.0070685834692510935, 0.0019634954081253035, -0.001570796326500243, 0.0)","(0.0, 0.0, -14.556, 10.948, 0.184, 5.004, 0.076, -2.656, 0.24, 2.516, -18.712, 0.592, -36.032, -0.084, 1.124, 0.14, -20.48)",1173749,1522661633,829981425,robotiq_force_torque_frame_id,1.03800014257,1.2810000658,5.539999008180001,-0.103000000119,-0.0920000001788,-0.101000003517,465.0,578.0,707.0,716.0,822.0,212.0,269.0,481.0,612.0,1089.0,7,"(0.38829058205682443, -0.8161681509245794, 0.13683103169809008, 0.9999377972961767, -0.00435222739790081, -0.009388168303921664, 0.004161964805750734)",0.39000010490000014,-0.4900000095400001,0.6199989318900005,-0.005999997258000003,0.008000001311200003,-0.0050000026824999905
1522690433.85,14172,1522661633,841003894,,1190832,1522661631,357162319,,0.807451505113,-0.194708152453,0.106236650874,0.9029577560780001,0.428359781665,-0.0339551696264,-0.00471536278146,0.0013372926484200001,-0.005650420165350001,0.0138671019102,-0.0207091247834,-0.0159127594397,-0.00290941057613,8.88184642792,1.8422427177400003,12.6649494171,-0.818732559681,3.9452157020599996,-0.11952984332999998,1191182,1522661631,355267778,,"['head_nod', 'head_pan', 'left_e0', 'left_e1', 'left_s0', 'left_s1', 'left_w0', 'left_w1', 'left_w2', 'right_e0', 'right_e1', 'right_s0', 'right_s1', 'right_w0', 'right_w1', 'right_w2', 'torso_t0']","(0.0, -0.10085923680346595, -0.9069661408372509, 1.50176719133982, 0.2784175130012026, 0.6446554261088451, 2.3412381775101125, -0.48780589054756157, -0.033364082136507746, 0.14841264122791378, 0.774660297882134, 0.8122428271853266, -0.6339175605936472, -0.13153885256117423, 1.5056021433095337, 2.3918595435103316, -12.565987119160338)","(0.0, -0.005890486224375911, 0.0007853981632501215, -0.00510508806112579, -0.0023561944897503642, -0.012173671530376884, -0.012959069693627005, 0.0070685834692510935, -0.001570796326500243, 0.0035342917346255468, 0.021991148571003403, 0.0007853981632501215, -0.031415926530004856, -0.021991148571003403, -0.003141592653000486, 0.011388273367126762, 0.0)","(0.0, 0.0, -14.684, 10.916, 0.34, 4.968, 0.068, -2.656, 0.232, 2.516, -18.68, 0.56, -36.032, -0.064, 1.124, 0.148, -20.48)",1173749,1522661633,829981425,robotiq_force_torque_frame_id,1.03800014257,1.2810000658,5.539999008180001,-0.103000000119,-0.0920000001788,-0.101000003517,462.0,594.0,707.0,718.0,835.0,212.0,269.0,481.0,612.0,1089.0,7,"(0.38829058205682443, -0.8161681509245794, 0.13683103169809008, 0.9999377972961767, -0.00435222739790081, -0.009388168303921664, 0.004161964805750734)",0.0,0.0,0.0,0.0,0.0,0.0
1522690433.89,14173,1522661633,850986003,,1190833,1522661631,367176967,,0.807328388863,-0.19336992475200002,0.105821177336,0.902809070412,0.428680824631,-0.033777463468499996,-0.00525508683772,-0.00137625516738,-0.0040901319611,-0.0040109635299600006,0.0015717227715000002,0.00791400108583,0.00756683172656,8.49739742279,2.04866933823,12.634664535499999,-0.9065517187119999,3.8158321380599998,-0.12093933671700001,1191182,1522661631,355267778,,"['head_nod', 'head_pan', 'left_e0', 'left_e1', 'left_s0', 'left_s1', 'left_w0', 'left_w1', 'left_w2', 'right_e0', 'right_e1', 'right_s0', 'right_s1', 'right_w0', 'right_w1', 'right_w2', 'torso_t0']","(0.0, -0.10085923680346595, -0.9069661408372509, 1.50176719133982, 0.2784175130012026, 0.6446554261088451, 2.3412381775101125, -0.48780589054756157, -0.033364082136507746, 0.14841264122791378, 0.774660297882134, 0.8122428271853266, -0.6339175605936472, -0.13153885256117423, 1.5056021433095337, 2.3918595435103316, -12.565987119160338)","(0.0, -0.005890486224375911, 0.0007853981632501215, -0.00510508806112579, -0.0023561944897503642, -0.012173671530376884, -0.012959069693627005, 0.0070685834692510935, -0.001570796326500243, 0.0035342917346255468, 0.021991148571003403, 0.0007853981632501215, -0.031415926530004856, -0.021991148571003403, -0.003141592653000486, 0.011388273367126762, 0.0)","(0.0, 0.0, -14.684, 10.916, 0.34, 4.968, 0.068, -2.656, 0.232, 2.516, -18.68, 0.56, -36.032, -0.064, 1.124, 0.148, -20.48)",1173751,1522661633,850419085,robotiq_force_torque_frame_id,1.7379999518400002,1.72100012302,6.65999794006,-0.136999994516,-0.123000003397,-0.09000000357629999,462.0,594.0,707.0,716.0,835.0,228.0,280.0,482.0,618.0,1079.0,7,"(0.38829058205682443, -0.8161681509245794, 0.13683103169809008, 0.9999377972961767, -0.00435222739790081, -0.009388168303921664, 0.004161964805750734)",0.6999998092700002,0.44000005722,1.1199989318799997,-0.03399999439700001,-0.031000003218199998,0.010999999940700014
