time,.header.seq,.header.stamp.secs,.header.stamp.nsecs,.header.frame_id,.endpoint_state.header.seq,.endpoint_state.header.stamp.secs,.endpoint_state.header.stamp.nsecs,.endpoint_state.header.frame_id,.endpoint_state.pose.position.x,.endpoint_state.pose.position.y,.endpoint_state.pose.position.z,.endpoint_state.pose.orientation.x,.endpoint_state.pose.orientation.y,.endpoint_state.pose.orientation.z,.endpoint_state.pose.orientation.w,.endpoint_state.twist.linear.x,.endpoint_state.twist.linear.y,.endpoint_state.twist.linear.z,.endpoint_state.twist.angular.x,.endpoint_state.twist.angular.y,.endpoint_state.twist.angular.z,.endpoint_state.wrench.force.x,.endpoint_state.wrench.force.y,.endpoint_state.wrench.force.z,.endpoint_state.wrench.torque.x,.endpoint_state.wrench.torque.y,.endpoint_state.wrench.torque.z,.joint_state.header.seq,.joint_state.header.stamp.secs,.joint_state.header.stamp.nsecs,.joint_state.header.frame_id,.joint_state.name,.joint_state.position,.joint_state.velocity,.joint_state.effort,.wrench_stamped.header.seq,.wrench_stamped.header.stamp.secs,.wrench_stamped.header.stamp.nsecs,.wrench_stamped.header.frame_id,.wrench_stamped.wrench.force.x,.wrench_stamped.wrench.force.y,.wrench_stamped.wrench.force.z,.wrench_stamped.wrench.torque.x,.wrench_stamped.wrench.torque.y,.wrench_stamped.wrench.torque.z,.tactile_values.tactile_values_0,.tactile_values.tactile_values_1,.tactile_values.tactile_values_2,.tactile_values.tactile_values_3,.tactile_values.tactile_values_4,.tactile_values.tactile_values_5,.tactile_values.tactile_values_6,.tactile_values.tactile_values_7,.tactile_values.tactile_values_8,.tactile_values.tactile_values_9,.tag,.goal_vector,.delta_wrench.force.x,.delta_wrench.force.y,.delta_wrench.force.z,.delta_wrench.torque.x,.delta_wrench.torque.y,.delta_wrench.torque.z
1522082517.82,22777,1522053717,809412002,,777407,1522053715,192044859,,0.7709558543899999,-0.154498138562,0.0615311344993,0.9972364865539999,0.0613755253918,0.0416431908721,-0.00427544419316,0.0158886634715,0.012059294411599999,0.007154955254329999,0.025179728818099996,-0.0312374175679,0.00256816138946,5.9559454917900005,1.4282425641999998,7.45034313202,0.146570324898,3.05136060715,0.668468952179,777803,1522053715,180068667,,"['head_nod', 'head_pan', 'left_e0', 'left_e1', 'left_s0', 'left_s1', 'left_w0', 'left_w1', 'left_w2', 'right_e0', 'right_e1', 'right_s0', 'right_s1', 'right_w0', 'right_w1', 'right_w2', 'torso_t0']","(0.0, -0.10239321759135137, -0.9146360447766779, 1.5086701048853044, 0.28838838812245776, 0.6530923204422149, 2.346990605464683, -0.4759175394414496, -0.026077673394052033, 0.6373690173663894, 1.4196992191879505, 0.5227039534719548, -0.8931603137462821, -0.43948549572917106, 1.1017817008986983, 0.3198349942741088, -12.565987119160338)","(0.0, -0.003141592653000486, 0.009424777959001457, -0.013744467856877126, 0.0047123889795007284, 0.006283185306000972, 0.0047123889795007284, 0.027488935713754253, 0.008639379795751335, 0.005497787142750851, 0.019634954081253035, -0.008246680714126275, -0.0027488935713754254, 0.0, -0.0047123889795007284, -0.007461282550876154, 0.0)","(0.0, 0.0, -14.492, 11.044, 0.436, 4.284, 0.032, -2.636, 0.392, 11.392, -18.26, 0.62, -31.108, -0.108, -0.552, -0.288, -20.48)",242331,1522053717,803809160,robotiq_force_torque_frame_id,-0.594000065327,-2.37400011718,8.152997970580001,-0.0759999975562,-0.0399999991059,-0.151999995112,247.0,249.0,494.0,549.0,998.0,680.0,712.0,720.0,722.0,820.0,7,"(0.7716724294411388, -0.15390327321786434, 0.06012232289913362, 0.9970724747921007, 0.06328297308814464, 0.042679456720434175, -0.004495475851315756)",0.0,0.0,0.0,0.0,0.0,0.0
1522082517.86,22778,1522053717,819540977,,777408,1522053715,202030233,,0.7699433188160001,-0.154647538914,0.0605779307235,0.9972716837700001,0.0615211598035,0.040603805605599994,-0.00395810782634,0.0027898187559899997,-0.0148126619539,-0.0038646515749,-0.0140925050268,-0.0037474136660300005,-0.012984073278700001,5.71855545044,1.4972600936899998,7.5118551254299994,0.183472886682,2.96329450607,0.6951406598090001,307444,1522053715,207000064,,['l_gripper_l_finger_joint'],"(0.02083,)","(0.0,)","(0.0,)",242332,1522053717,811907568,robotiq_force_torque_frame_id,-0.47399994134900003,-2.35400013626,7.822999954219999,-0.0860000029206,-0.05099999904630001,-0.16099999845000001,249.0,249.0,494.0,549.0,998.0,676.0,708.0,709.0,724.0,820.0,7,"(0.7716724294411388, -0.15390327321786434, 0.06012232289913362, 0.9970724747921007, 0.06328297308814464, 0.042679456720434175, -0.004495475851315756)",0.12000012397799997,0.019999980920000215,-0.32999801636000203,-0.010000005364400003,-0.010999999940400011,-0.009000003338000023
1522082517.86,22779,1522053717,829406976,,777409,1522053715,212017829,,0.770620578698,-0.155254245566,0.061297269193099996,0.997300029009,0.060648656054300004,0.0411910467484,-0.004205986845159999,-0.011346107660299998,-0.0008532456156389998,-0.012132692856,-0.00708728853866,0.0301810565349,0.0172567719416,5.81566047668,1.26343870163,7.545094013210001,0.322574645281,2.9832198619800003,0.727911829948,777806,1522053715,210121465,,"['head_nod', 'head_pan', 'left_e0', 'left_e1', 'left_s0', 'left_s1', 'left_w0', 'left_w1', 'left_w2', 'right_e0', 'right_e1', 'right_s0', 'right_s1', 'right_w0', 'right_w1', 'right_w2', 'torso_t0']","(0.0, -0.10239321759135137, -0.9154030351706206, 1.5098205904762185, 0.2880048929254864, 0.6515583396543295, 2.3477575958586256, -0.476301034638421, -0.02684466378799474, 0.6381360077603321, 1.4196992191879505, 0.5227039534719548, -0.8927768185493108, -0.43948549572917106, 1.1017817008986983, 0.3198349942741088, -12.565987119160338)","(0.0, 0.0027488935713754254, -0.006675884387626033, -0.006675884387626033, -0.013351768775252066, -0.007461282550876154, 0.0007853981632501215, -0.02552544030562895, 0.01060287520387664, 0.0, -0.00039269908162506076, 0.0027488935713754254, 0.019634954081253035, -0.005497787142750851, 0.01531526418337737, -0.012959069693627005, 0.0)","(0.0, 0.0, -14.492, 11.012, 0.464, 4.252, 0.052, -2.608, 0.364, 11.364, -18.292, 0.528, -31.108, -0.108, -0.592, -0.288, -20.48)",242333,1522053717,824098800,robotiq_force_torque_frame_id,0.236000096798,-1.63400010765,7.70300102234,-0.0729999989271,-0.0320000015199,-0.166999995708,249.0,249.0,492.0,546.0,996.0,676.0,708.0,709.0,724.0,819.0,7,"(0.7716724294411388, -0.15390327321786434, 0.06012232289913362, 0.9970724747921007, 0.06328297308814464, 0.042679456720434175, -0.004495475851315756)",0.710000038147,0.7200000286099999,-0.11999893187999966,0.0130000039935,0.01899999752640001,-0.005999997257999989
1522082517.86,22780,1522053717,839413881,,777410,1522053715,222024805,,0.7708593167290001,-0.155414874219,0.061097648707400004,0.997306769355,0.060477416518199996,0.041286400938800004,-0.00413799317638,0.009025664317270001,0.00292805723317,0.0148140225626,0.00215740743494,-0.0204798613838,0.009474567977649999,5.6948890686,1.18803417683,7.485536575319999,0.319240868092,2.9324557781200005,0.682657897472,777807,1522053715,220129764,,"['head_nod', 'head_pan', 'left_e0', 'left_e1', 'left_s0', 'left_s1', 'left_w0', 'left_w1', 'left_w2', 'right_e0', 'right_e1', 'right_s0', 'right_s1', 'right_w0', 'right_w1', 'right_w2', 'torso_t0']","(0.0, -0.10162622719740866, -0.9146360447766779, 1.5090536000822758, 0.28723790253154374, 0.6523253300482722, 2.3473741006616544, -0.4759175394414496, -0.02569417819708068, 0.6373690173663894, 1.419315723990979, 0.5230874486689261, -0.8923933233523395, -0.43948549572917106, 1.101398205701727, 0.3198349942741088, -12.565987119160338)","(0.0, 0.0, 0.0, -0.021991148571003403, -0.013351768775252066, -0.014529866020127248, 0.009032078877376396, -0.027488935713754253, -0.005497787142750851, 0.01610066234662749, -0.013744467856877126, -0.006283185306000972, -0.012566370612001944, -0.003926990816250607, 0.009032078877376396, -0.0070685834692510935, 0.0)","(0.0, 0.0, -14.428, 11.044, 0.436, 4.252, 0.068, -2.596, 0.38, 11.236, -18.26, 0.464, -31.136, -0.092, -0.58, -0.26, -20.48)",242334,1522053717,832245166,robotiq_force_torque_frame_id,-0.503999912739,-0.6439999789,7.732999801639999,-0.07400000095369999,-0.0340000018477,-0.17499999702,238.0,247.0,492.0,551.0,996.0,673.0,707.0,713.0,720.0,819.0,7,"(0.7716724294411388, -0.15390327321786434, 0.06012232289913362, 0.9970724747921007, 0.06328297308814464, 0.042679456720434175, -0.004495475851315756)",-0.7400000095370001,0.9900001287499999,0.02999877929999961,-0.001000002026599986,-0.002000000327800004,-0.008000001311999988
1522082517.86,22781,1522053717,849397897,,777410,1522053715,222024805,,0.7708593167290001,-0.155414874219,0.061097648707400004,0.997306769355,0.060477416518199996,0.041286400938800004,-0.00413799317638,0.009025664317270001,0.00292805723317,0.0148140225626,0.00215740743494,-0.0204798613838,0.009474567977649999,5.6948890686,1.18803417683,7.485536575319999,0.319240868092,2.9324557781200005,0.682657897472,307445,1522053715,233999872,,['r_gripper_l_finger_joint'],"(0.007383642684221268,)","(0.0,)","(0.2946236729621887,)",242335,1522053717,844445115,robotiq_force_torque_frame_id,-0.844000065327,-0.903999969363,7.80299949646,-0.0670000016689,-0.0320000015199,-0.188999995589,238.0,247.0,490.0,551.0,998.0,673.0,709.0,720.0,721.0,814.0,7,"(0.7716724294411388, -0.15390327321786434, 0.06012232289913362, 0.9970724747921007, 0.06328297308814464, 0.042679456720434175, -0.004495475851315756)",-0.340000152588,-0.25999999046299993,0.06999969482000079,0.006999999284799996,0.002000000327800004,-0.013999998569
1522082517.86,22782,1522053717,859483003,,777410,1522053715,222024805,,0.7708593167290001,-0.155414874219,0.061097648707400004,0.997306769355,0.060477416518199996,0.041286400938800004,-0.00413799317638,0.009025664317270001,0.00292805723317,0.0148140225626,0.00215740743494,-0.0204798613838,0.009474567977649999,5.6948890686,1.18803417683,7.485536575319999,0.319240868092,2.9324557781200005,0.682657897472,307445,1522053715,233999872,,['r_gripper_l_finger_joint'],"(0.007383642684221268,)","(0.0,)","(0.2946236729621887,)",242336,1522053717,852577091,robotiq_force_torque_frame_id,-0.0440001130104,-1.8339999169099999,7.5829982757600005,-0.0729999989271,-0.039000000804699994,-0.19799999892700001,234.0,249.0,489.0,563.0,996.0,690.0,709.0,720.0,721.0,814.0,7,"(0.7716724294411388, -0.15390327321786434, 0.06012232289913362, 0.9970724747921007, 0.06328297308814464, 0.042679456720434175, -0.004495475851315756)",0.7999999523166,-0.9299999475469999,-0.2200012206999995,-0.00599999725820001,-0.006999999284799996,-0.009000003338000023
1522082517.87,22783,1522053717,869429111,,777412,1522053715,242288779,,0.7710604369480001,-0.154254688509,0.061824128139699994,0.997206172493,0.0617140088296,0.0418629401394,-0.0043272276923100005,0.0023329899428400002,0.0139758893839,0.017094080988200002,-0.00662497610629,-0.014920828573399998,0.021017128732099998,5.91216516495,1.55560231209,7.5782899856600014,0.146843135357,3.04205679893,0.688166499138,307445,1522053715,233999872,,['r_gripper_l_finger_joint'],"(0.007383642684221268,)","(0.0,)","(0.2946236729621887,)",242337,1522053717,864797842,robotiq_force_torque_frame_id,-0.013999903202100001,-2.09399990737,7.652997970580001,-0.0710000023246,-0.035999998450300004,-0.190999999642,234.0,249.0,489.0,563.0,996.0,679.0,695.0,723.0,728.0,814.0,7,"(0.7716724294411388, -0.15390327321786434, 0.06012232289913362, 0.9970724747921007, 0.06328297308814464, 0.042679456720434175, -0.004495475851315756)",0.0300002098083,-0.25999999046000033,0.06999969482000079,0.0019999966024999982,0.00300000235439999,0.006999999285000003
1522082517.88,22784,1522053717,879363059,,777412,1522053715,242288779,,0.7710604369480001,-0.154254688509,0.061824128139699994,0.997206172493,0.0617140088296,0.0418629401394,-0.0043272276923100005,0.0023329899428400002,0.0139758893839,0.017094080988200002,-0.00662497610629,-0.014920828573399998,0.021017128732099998,5.91216516495,1.55560231209,7.5782899856600014,0.146843135357,3.04205679893,0.688166499138,307446,1522053715,256999936,,['l_gripper_l_finger_joint'],"(0.02083,)","(0.0,)","(0.0,)",242338,1522053717,872934848,robotiq_force_torque_frame_id,-1.5739999651899999,-0.494000002742,8.01299858093,-0.0689999982715,-0.0379999987781,-0.179000005126,234.0,247.0,488.0,572.0,998.0,679.0,695.0,723.0,728.0,806.0,7,"(0.7716724294411388, -0.15390327321786434, 0.06012232289913362, 0.9970724747921007, 0.06328297308814464, 0.042679456720434175, -0.004495475851315756)",-1.5600000619878998,1.5999999046280002,0.3600006103499993,0.00200000405310001,-0.0020000003277999973,0.011999994516000007
1522082517.89,22785,1522053717,889396905,,777414,1522053715,262296450,,0.77033895176,-0.155332899387,0.060937798199800004,0.9972683923200001,0.061371659262699996,0.0409010093432,-0.004047289667,-0.010114929875499999,-0.0163322760106,-0.0217213214322,-0.00295248246024,0.0267017070173,-0.018993207075099997,6.335237503049999,1.56450343132,7.30760097504,0.11895190179300001,3.16952252388,0.6759632825849999,307446,1522053715,256999936,,['l_gripper_l_finger_joint'],"(0.02083,)","(0.0,)","(0.0,)",242339,1522053717,881062482,robotiq_force_torque_frame_id,-2.50400000215,-1.30399994552,7.95300102234,-0.0759999975562,-0.039000000804699994,-0.168999999762,242.0,249.0,488.0,572.0,998.0,682.0,692.0,711.0,713.0,806.0,7,"(0.7716724294411388, -0.15390327321786434, 0.06012232289913362, 0.9970724747921007, 0.06328297308814464, 0.042679456720434175, -0.004495475851315756)",-0.9300000369600003,-0.809999942778,-0.059997558590001,-0.006999999284700006,-0.0010000020265999929,0.010000005364000003
1522082517.9,22786,1522053717,899431943,,777414,1522053715,262296450,,0.77033895176,-0.155332899387,0.060937798199800004,0.9972683923200001,0.061371659262699996,0.0409010093432,-0.004047289667,-0.010114929875499999,-0.0163322760106,-0.0217213214322,-0.00295248246024,0.0267017070173,-0.018993207075099997,6.335237503049999,1.56450343132,7.30760097504,0.11895190179300001,3.16952252388,0.6759632825849999,777811,1522053715,260352074,,"['head_nod', 'head_pan', 'left_e0', 'left_e1', 'left_s0', 'left_s1', 'left_w0', 'left_w1', 'left_w2', 'right_e0', 'right_e1', 'right_s0', 'right_s1', 'right_w0', 'right_w1', 'right_w2', 'torso_t0']","(0.0, -0.1012427320004373, -0.9154030351706206, 1.5090536000822758, 0.2880048929254864, 0.6523253300482722, 2.3466071102677115, -0.476301034638421, -0.02684466378799474, 0.6381360077603321, 1.4200827143849217, 0.5227039534719548, -0.8923933233523395, -0.4398689909261424, 1.1017817008986983, 0.3186845086831947, -12.565987119160338)","(0.0, -0.003141592653000486, -0.010995574285501701, -0.012173671530376884, 0.003926990816250607, 0.007853981632501214, 0.0035342917346255468, 0.009424777959001457, -0.012173671530376884, -0.03180862561162992, 0.02120575040775328, -0.004319689897875668, 0.015707963265002428, 0.011780972448751823, -0.018849555918002914, -0.006283185306000972, 0.0)","(0.0, 0.0, -14.492, 11.076, 0.404, 4.284, 0.052, -2.628, 0.4, 11.236, -18.292, 0.684, -31.02, -0.1, -0.592, -0.296, -20.48)",242340,1522053717,893260059,robotiq_force_torque_frame_id,-1.61400004625,-2.4840000122799997,8.19299888611,-0.0780000016093,-0.039000000804699994,-0.152999997139,242.0,249.0,483.0,571.0,1000.0,682.0,692.0,706.0,711.0,807.0,7,"(0.7716724294411388, -0.15390327321786434, 0.06012232289913362, 0.9970724747921007, 0.06328297308814464, 0.042679456720434175, -0.004495475851315756)",0.8899999559000003,-1.1800000667599997,0.2399978637700011,-0.0020000040530999963,0.0,0.016000002622999998
1522082517.91,22787,1522053717,909409999,,777414,1522053715,262296450,,0.77033895176,-0.155332899387,0.060937798199800004,0.9972683923200001,0.061371659262699996,0.0409010093432,-0.004047289667,-0.010114929875499999,-0.0163322760106,-0.0217213214322,-0.00295248246024,0.0267017070173,-0.018993207075099997,6.335237503049999,1.56450343132,7.30760097504,0.11895190179300001,3.16952252388,0.6759632825849999,307447,1522053715,284999936,,['r_gripper_l_finger_joint'],"(0.007383642684221268,)","(0.0,)","(0.30215054750442505,)",242341,1522053717,901403089,robotiq_force_torque_frame_id,0.105999982357,-1.13400010765,8.43300056458,-0.0680000036955,-0.029999999329400003,-0.163000002503,250.0,252.0,491.0,582.0,1005.0,677.0,693.0,706.0,713.0,807.0,7,"(0.7716724294411388, -0.15390327321786434, 0.06012232289913362, 0.9970724747921007, 0.06328297308814464, 0.042679456720434175, -0.004495475851315756)",1.7200000286069999,1.3499999046299997,0.24000167846999965,0.009999997913800004,0.00900000147529999,-0.010000005364000003
1522082517.92,22788,1522053717,919564962,,777417,1522053715,292294515,,0.7708831384550001,-0.154680286987,0.061419706307,0.997279081322,0.0608364908978,0.04139398158319999,-0.00446022652963,0.0037540183397500003,0.00374594945424,1.7365725875400002e-06,0.007666157117370001,-0.0010141840535400001,-0.011694471464,6.05192041397,1.72840809822,7.34939908981,-0.016277685761500002,3.04286694527,0.6230375766749999,307447,1522053715,284999936,,['r_gripper_l_finger_joint'],"(0.007383642684221268,)","(0.0,)","(0.30215054750442505,)",242342,1522053717,913594911,robotiq_force_torque_frame_id,-0.763999903202,0.14599998295299998,8.402997970580001,-0.0790000036359,-0.0419999994338,-0.180999994278,250.0,252.0,491.0,582.0,1005.0,677.0,691.0,716.0,719.0,812.0,7,"(0.7716724294411388, -0.15390327321786434, 0.06012232289913362, 0.9970724747921007, 0.06328297308814464, 0.042679456720434175, -0.004495475851315756)",-0.869999885559,1.280000090603,-0.03000259399999905,-0.010999999940400004,-0.012000000104399996,-0.017999991775
1522082517.93,22789,1522053717,929426908,,777417,1522053715,292294515,,0.7708831384550001,-0.154680286987,0.061419706307,0.997279081322,0.0608364908978,0.04139398158319999,-0.00446022652963,0.0037540183397500003,0.00374594945424,1.7365725875400002e-06,0.007666157117370001,-0.0010141840535400001,-0.011694471464,6.05192041397,1.72840809822,7.34939908981,-0.016277685761500002,3.04286694527,0.6230375766749999,777814,1522053715,290382575,,"['head_nod', 'head_pan', 'left_e0', 'left_e1', 'left_s0', 'left_s1', 'left_w0', 'left_w1', 'left_w2', 'right_e0', 'right_e1', 'right_s0', 'right_s1', 'right_w0', 'right_w1', 'right_w2', 'torso_t0']","(0.0, -0.10200972239438001, -0.915786530367592, 1.5098205904762185, 0.2876213977285151, 0.6530923204422149, 2.346990605464683, -0.4759175394414496, -0.026077673394052033, 0.6385195029573034, 1.4189322287940078, 0.5230874486689261, -0.8923933233523395, -0.43948549572917106, 1.1017817008986983, 0.3198349942741088, -12.565987119160338)","(0.0, -0.006675884387626033, 0.012566370612001944, 0.018064157754752792, -0.0035342917346255468, -0.014529866020127248, -0.00039269908162506076, -0.024740042142378828, 0.014529866020127248, -0.001570796326500243, -0.014529866020127248, 0.0047123889795007284, 0.008246680714126275, 0.003926990816250607, 0.0023561944897503642, 0.008246680714126275, 0.0)","(0.0, 0.0, -14.428, 11.076, 0.404, 4.284, 0.068, -2.628, 0.392, 11.268, -18.26, 0.776, -31.108, -0.132, -0.58, -0.26, -20.48)",242343,1522053717,921869746,robotiq_force_torque_frame_id,-0.7739998936650001,0.0859999805689,8.492998123169999,-0.07400000095369999,-0.0399999991059,-0.193000003695,251.0,256.0,493.0,582.0,998.0,689.0,691.0,716.0,719.0,816.0,7,"(0.7716724294411388, -0.15390327321786434, 0.06012232289913362, 0.9970724747921007, 0.06328297308814464, 0.042679456720434175, -0.004495475851315756)",-0.009999990463000152,-0.060000002384099985,0.09000015258999738,0.005000002682200008,0.0020000003279000006,-0.012000009416999996
1522082517.94,22790,1522053717,939405918,,777417,1522053715,292294515,,0.7708831384550001,-0.154680286987,0.061419706307,0.997279081322,0.0608364908978,0.04139398158319999,-0.00446022652963,0.0037540183397500003,0.00374594945424,1.7365725875400002e-06,0.007666157117370001,-0.0010141840535400001,-0.011694471464,6.05192041397,1.72840809822,7.34939908981,-0.016277685761500002,3.04286694527,0.6230375766749999,307448,1522053715,308000000,,['l_gripper_l_finger_joint'],"(0.02083,)","(0.0,)","(0.0,)",242344,1522053717,934222173,robotiq_force_torque_frame_id,-0.46399995088600005,-0.33400003612,8.77300071716,-0.082000002265,-0.0399999991059,-0.188999995589,247.0,248.0,493.0,582.0,998.0,694.0,697.0,708.0,719.0,816.0,7,"(0.7716724294411388, -0.15390327321786434, 0.06012232289913362, 0.9970724747921007, 0.06328297308814464, 0.042679456720434175, -0.004495475851315756)",0.30999994277900006,-0.4200000166889,0.2800025939900017,-0.008000001311300006,0.0,0.004000008106000014
1522082517.95,22791,1522053717,949393987,,777420,1522053715,322306025,,0.77056119235,-0.155283738964,0.0608351133955,0.997301704345,0.060791696410499994,0.040922492936999996,-0.00436230785537,0.00930950512389,-0.018285191652599998,0.0065348110224200005,0.00482075665874,-0.012185022359,-0.021613362599900002,6.146286964419999,1.64197337627,7.43152713776,0.089651376009,3.0713737011,0.645993113518,307448,1522053715,308000000,,['l_gripper_l_finger_joint'],"(0.02083,)","(0.0,)","(0.0,)",242345,1522053717,942354987,robotiq_force_torque_frame_id,-0.023999893665299997,0.13599999249000003,8.832998275760001,-0.0799999982119,-0.0370000004768,-0.18999999761599998,247.0,248.0,491.0,563.0,1000.0,694.0,697.0,708.0,719.0,839.0,7,"(0.7716724294411388, -0.15390327321786434, 0.06012232289913362, 0.9970724747921007, 0.06328297308814464, 0.042679456720434175, -0.004495475851315756)",0.44000005722070007,0.47000002861,0.059997558600001,0.0020000040530999963,0.002999998629099998,-0.0010000020269999854
1522082517.96,22792,1522053717,959594964,,777420,1522053715,322306025,,0.77056119235,-0.155283738964,0.0608351133955,0.997301704345,0.060791696410499994,0.040922492936999996,-0.00436230785537,0.00930950512389,-0.018285191652599998,0.0065348110224200005,0.00482075665874,-0.012185022359,-0.021613362599900002,6.146286964419999,1.64197337627,7.43152713776,0.089651376009,3.0713737011,0.645993113518,777817,1522053715,320406567,,"['head_nod', 'head_pan', 'left_e0', 'left_e1', 'left_s0', 'left_s1', 'left_w0', 'left_w1', 'left_w2', 'right_e0', 'right_e1', 'right_s0', 'right_s1', 'right_w0', 'right_w1', 'right_w2', 'torso_t0']","(0.0, -0.10162622719740866, -0.9146360447766779, 1.5098205904762185, 0.2876213977285151, 0.6523253300482722, 2.346990605464683, -0.4770680250323637, -0.026461168591023387, 0.6385195029573034, 1.419315723990979, 0.5223204582749834, -0.8916263329583968, -0.4398689909261424, 1.1017817008986983, 0.31945149907713744, -12.565987119160338)","(0.0, 0.005890486224375911, -0.0035342917346255468, -0.012173671530376884, 0.008639379795751335, 0.01021017612225158, 0.0, -0.007461282550876154, 0.0011780972448751821, 0.009032078877376396, -0.009817477040626518, -0.03377212101975522, -0.0023561944897503642, -0.001570796326500243, 0.0011780972448751821, -0.008246680714126275, 0.0)","(0.0, 0.0, -14.492, 11.044, 0.404, 4.252, 0.076, -2.596, 0.38, 11.332, -18.32, 0.716, -31.136, -0.108, -0.612, -0.26, -20.48)",242346,1522053717,954554067,robotiq_force_torque_frame_id,0.036000049114199996,0.126000002027,8.652997970580001,-0.07400000095369999,-0.039000000804699994,-0.19200000166900003,237.0,249.0,501.0,564.0,1000.0,690.0,694.0,713.0,727.0,839.0,7,"(0.7716724294411388, -0.15390327321786434, 0.06012232289913362, 0.9970724747921007, 0.06328297308814464, 0.042679456720434175, -0.004495475851315756)",0.05999994277949999,-0.009999990463000014,-0.1800003051800001,0.00599999725820001,-0.0020000003278999937,-0.0020000040530000485
1522082517.97,22793,1522053717,969428062,,777421,1522053715,332295919,,0.7703643002580001,-0.155340444946,0.060679107113300004,0.997296041347,0.0610749202186,0.0406692879484,-0.00405820798092,-0.009950171263180001,-0.00110383854021,-0.00735163951212,-0.00419156288044,0.0153684015934,0.0196904513978,6.17488956451,1.42554163933,7.637323379520001,0.244763061404,3.1133556366,0.7277923822399999,307449,1522053715,336000000,,['r_gripper_l_finger_joint'],"(0.007383642684221268,)","(0.0,)","(0.2946236729621887,)",242347,1522053717,962699045,robotiq_force_torque_frame_id,-0.394000017643,-0.344000026584,8.462999343869999,-0.0769999995828,-0.039000000804699994,-0.19699999690099998,237.0,249.0,501.0,564.0,1001.0,690.0,698.0,699.0,727.0,817.0,7,"(0.7716724294411388, -0.15390327321786434, 0.06012232289913362, 0.9970724747921007, 0.06328297308814464, 0.042679456720434175, -0.004495475851315756)",-0.43000006675720004,-0.470000028611,-0.18999862671000223,-0.002999998629100012,0.0,-0.004999995231999954
1522082517.98,22794,1522053717,979384899,,777423,1522053715,352287183,,0.770281718036,-0.155782281621,0.0607590661594,0.997321651716,0.060688162784,0.0406147705711,-0.00411221698903,0.00545746068689,0.024221037359599996,0.007153205389959999,0.0203894325859,-0.009554916651989999,-0.007540384643419999,6.350230216980001,1.57267987728,7.44590473175,0.117298126221,3.1438305377999995,0.648496508598,777819,1522053715,340387448,,"['head_nod', 'head_pan', 'left_e0', 'left_e1', 'left_s0', 'left_s1', 'left_w0', 'left_w1', 'left_w2', 'right_e0', 'right_e1', 'right_s0', 'right_s1', 'right_w0', 'right_w1', 'right_w2', 'torso_t0']","(0.0, -0.1012427320004373, -0.9146360447766779, 1.5090536000822758, 0.2876213977285151, 0.6527088252452435, 2.346990605464683, -0.47668452983539233, -0.026077673394052033, 0.6381360077603321, 1.4196992191879505, 0.5223204582749834, -0.8920098281553681, -0.43910200053219967, 1.101398205701727, 0.31945149907713744, -12.565987119160338)","(0.0, 0.005497787142750851, 0.009424777959001457, 0.007853981632501214, -0.003141592653000486, 0.0, -0.0023561944897503642, 0.023954643979128706, 0.012566370612001944, 0.0027488935713754254, 0.02552544030562895, 0.008639379795751335, 0.011388273367126762, -0.0027488935713754254, 0.0047123889795007284, 0.0011780972448751821, 0.0)","(0.0, 0.0, -14.396, 11.044, 0.404, 4.284, 0.052, -2.608, 0.38, 11.3, -18.412, 0.592, -31.196, -0.124, -0.62, -0.296, -20.48)",242348,1522053717,974897659,robotiq_force_torque_frame_id,-0.624000036716,-0.283999964595,8.7530002594,-0.0810000002384,-0.0399999991059,-0.194000005722,237.0,247.0,508.0,553.0,1002.0,683.0,698.0,699.0,729.0,812.0,7,"(0.7716724294411388, -0.15390327321786434, 0.06012232289913362, 0.9970724747921007, 0.06328297308814464, 0.042679456720434175, -0.004495475851315756)",-0.230000019073,0.060000061988999986,0.2900009155300012,-0.0040000006555999945,-0.0009999983012000044,0.002999991178999989
1522082517.99,22795,1522053717,989459037,,777423,1522053715,352287183,,0.770281718036,-0.155782281621,0.0607590661594,0.997321651716,0.060688162784,0.0406147705711,-0.00411221698903,0.00545746068689,0.024221037359599996,0.007153205389959999,0.0203894325859,-0.009554916651989999,-0.007540384643419999,6.350230216980001,1.57267987728,7.44590473175,0.117298126221,3.1438305377999995,0.648496508598,307450,1522053715,359000064,,['l_gripper_l_finger_joint'],"(0.02083,)","(0.0,)","(0.0,)",242349,1522053717,983027045,robotiq_force_torque_frame_id,0.0460000395775,0.6359999924899999,8.962999343869999,-0.0839999988675,-0.035999998450300004,-0.19499999284699998,237.0,247.0,508.0,553.0,1002.0,678.0,682.0,695.0,735.0,812.0,7,"(0.7716724294411388, -0.15390327321786434, 0.06012232289913362, 0.9970724747921007, 0.06328297308814464, 0.042679456720434175, -0.004495475851315756)",0.6700000762935,0.9199999570849999,0.20999908446999882,-0.002999998629099998,0.0040000006555999945,-0.0009999871249999903
1522082518.0,22796,1522053717,999398946,,777424,1522053715,362296088,,0.7696861525309999,-0.15439671044000003,0.060823948119099996,0.9972399607260001,0.0621590122415,0.040405500595800004,-0.00401415612416,0.0103913819726,-0.008285823149709999,0.0083945598453,-0.011778885062899999,-0.014359640703100002,-0.011098397853999999,6.23736572266,1.5160074234,7.62310647964,0.168099313974,3.0997953414899997,0.700038909912,777821,1522053715,360359123,,"['head_nod', 'head_pan', 'left_e0', 'left_e1', 'left_s0', 'left_s1', 'left_w0', 'left_w1', 'left_w2', 'right_e0', 'right_e1', 'right_s0', 'right_s1', 'right_w0', 'right_w1', 'right_w2', 'torso_t0']","(0.0, -0.10200972239438001, -0.9146360447766779, 1.509437095279247, 0.2876213977285151, 0.6527088252452435, 2.346990605464683, -0.4751505490475069, -0.026077673394052033, 0.6385195029573034, 1.4204662095818932, 0.5238544390628688, -0.8923933233523395, -0.4398689909261424, 1.1025486912926412, 0.3186845086831947, -12.565987119160338)","(0.0, 0.005497787142750851, -0.009817477040626518, -0.0035342917346255468, -0.01727875959150267, 0.0047123889795007284, 0.01531526418337737, -0.0011780972448751821, -0.00039269908162506076, -0.009032078877376396, -0.02120575040775328, 0.003926990816250607, -0.0047123889795007284, -0.006675884387626033, 0.011388273367126762, 0.0023561944897503642, 0.0)","(0.0, 0.0, -14.364, 11.044, 0.496, 4.252, 0.024, -2.596, 0.392, 11.364, -18.412, 0.652, -31.196, -0.132, -0.632, -0.296, -20.48)",242350,1522053717,991171365,robotiq_force_torque_frame_id,0.0460000395775,0.745999976993,8.09300041199,-0.0729999989271,-0.0370000004768,-0.206000000238,225.0,245.0,518.0,560.0,999.0,678.0,682.0,695.0,735.0,809.0,7,"(0.7716724294411388, -0.15390327321786434, 0.06012232289913362, 0.9970724747921007, 0.06328297308814464, 0.042679456720434175, -0.004495475851315756)",0.0,0.10999998450300008,-0.8699989318799997,0.01099999994039999,-0.0010000020264999965,-0.011000007391000016
1522082518.01,22797,1522053718,9397983,,777424,1522053715,362296088,,0.7696861525309999,-0.15439671044000003,0.060823948119099996,0.9972399607260001,0.0621590122415,0.040405500595800004,-0.00401415612416,0.0103913819726,-0.008285823149709999,0.0083945598453,-0.011778885062899999,-0.014359640703100002,-0.011098397853999999,6.23736572266,1.5160074234,7.62310647964,0.168099313974,3.0997953414899997,0.700038909912,307451,1522053715,385999872,,['r_gripper_l_finger_joint'],"(0.007383642684221268,)","(0.0,)","(0.2946236729621887,)",242351,1522053718,3372092,robotiq_force_torque_frame_id,-0.11400004625299999,0.585999980569,7.5329990387,-0.0489999987185,-0.016000000759999997,-0.202999994159,227.0,240.0,514.0,574.0,999.0,674.0,702.0,712.0,732.0,809.0,7,"(0.7716724294411388, -0.15390327321786434, 0.06012232289913362, 0.9970724747921007, 0.06328297308814464, 0.042679456720434175, -0.004495475851315756)",-0.1600000858305,-0.15999999642399998,-0.5600013732899995,0.024000000208600006,0.020999999716800003,0.0030000060790000005
1522082518.02,22798,1522053718,19434928,,777426,1522053715,382295471,,0.770285165686,-0.15574815062300001,0.0607296343128,0.997319442922,0.060667390115099994,0.0407234371117,-0.00387275305025,0.00643358929749,-0.0154892280689,0.0121220245818,-0.011514439334499998,-0.015431638332499999,-0.00764003324266,6.41925048828,1.54045963287,7.579365253450001,0.19070237875,3.21138525009,0.701320469379,777823,1522053715,380351650,,"['head_nod', 'head_pan', 'left_e0', 'left_e1', 'left_s0', 'left_s1', 'left_w0', 'left_w1', 'left_w2', 'right_e0', 'right_e1', 'right_s0', 'right_s1', 'right_w0', 'right_w1', 'right_w2', 'torso_t0']","(0.0, -0.10239321759135137, -0.9150195399736493, 1.5090536000822758, 0.2876213977285151, 0.6523253300482722, 2.3473741006616544, -0.47668452983539233, -0.026077673394052033, 0.6369855221694181, 1.4200827143849217, 0.5230874486689261, -0.8923933233523395, -0.43948549572917106, 1.1017817008986983, 0.31945149907713744, -12.565987119160338)","(0.0, 0.009817477040626518, -0.004319689897875668, -0.0019634954081253035, -0.0019634954081253035, 0.001570796326500243, 0.004319689897875668, -0.006675884387626033, -0.010995574285501701, -0.001570796326500243, -0.0007853981632501215, -0.01531526418337737, -0.02120575040775328, -0.0019634954081253035, 0.0070685834692510935, -0.008639379795751335, 0.0)","(0.0, 0.0, -14.428, 11.076, 0.464, 4.284, 0.076, -2.616, 0.4, 11.364, -18.412, 0.652, -31.136, -0.108, -0.612, -0.288, -20.48)",242352,1522053718,11498310,robotiq_force_torque_frame_id,-0.3240000844,0.9159999787809999,6.87299919128,-0.0610000006855,-0.0209999997169,-0.19799999892700001,227.0,240.0,514.0,574.0,1000.0,674.0,702.0,712.0,732.0,794.0,7,"(0.7716724294411388, -0.15390327321786434, 0.06012232289913362, 0.9970724747921007, 0.06328297308814464, 0.042679456720434175, -0.004495475851315756)",-0.21000003814700002,0.3299999982119999,-0.65999984742,-0.012000001967000004,-0.004999998956900002,0.004999995231999982
1522082518.03,22799,1522053718,29434919,,777426,1522053715,382295471,,0.770285165686,-0.15574815062300001,0.0607296343128,0.997319442922,0.060667390115099994,0.0407234371117,-0.00387275305025,0.00643358929749,-0.0154892280689,0.0121220245818,-0.011514439334499998,-0.015431638332499999,-0.00764003324266,6.41925048828,1.54045963287,7.579365253450001,0.19070237875,3.21138525009,0.701320469379,777823,1522053715,380351650,,"['head_nod', 'head_pan', 'left_e0', 'left_e1', 'left_s0', 'left_s1', 'left_w0', 'left_w1', 'left_w2', 'right_e0', 'right_e1', 'right_s0', 'right_s1', 'right_w0', 'right_w1', 'right_w2', 'torso_t0']","(0.0, -0.10239321759135137, -0.9150195399736493, 1.5090536000822758, 0.2876213977285151, 0.6523253300482722, 2.3473741006616544, -0.47668452983539233, -0.026077673394052033, 0.6369855221694181, 1.4200827143849217, 0.5230874486689261, -0.8923933233523395, -0.43948549572917106, 1.1017817008986983, 0.31945149907713744, -12.565987119160338)","(0.0, 0.009817477040626518, -0.004319689897875668, -0.0019634954081253035, -0.0019634954081253035, 0.001570796326500243, 0.004319689897875668, -0.006675884387626033, -0.010995574285501701, -0.001570796326500243, -0.0007853981632501215, -0.01531526418337737, -0.02120575040775328, -0.0019634954081253035, 0.0070685834692510935, -0.008639379795751335, 0.0)","(0.0, 0.0, -14.428, 11.076, 0.464, 4.284, 0.076, -2.616, 0.4, 11.364, -18.412, 0.652, -31.136, -0.108, -0.612, -0.288, -20.48)",242353,1522053718,23713345,robotiq_force_torque_frame_id,-0.974000060558,-0.0840000361204,6.7530002594,-0.046999998390699994,-0.0189999993891,-0.193000003695,240.0,245.0,522.0,565.0,994.0,682.0,705.0,712.0,745.0,794.0,7,"(0.7716724294411388, -0.15390327321786434, 0.06012232289913362, 0.9970724747921007, 0.06328297308814464, 0.042679456720434175, -0.004495475851315756)",-0.649999976158,-1.0000000149014,-0.11999893187999966,0.014000002294800008,0.0020000003278000007,0.00499999523200001
1522082518.07,22800,1522053718,39405107,,777428,1522053715,402295905,,0.7702266051100001,-0.155115016054,0.0610903813362,0.9972764475920001,0.0612090077411,0.040944115357199995,-0.004089482575179999,0.0037446854052399993,-0.00035652955763500004,-0.010821669511899999,0.00648219144567,-0.00565368720871,0.0125741293089,6.47549629211,1.74216485023,7.312060832979999,0.0277612954378,3.18156671524,0.652309298515,307452,1522053715,409999872,,['l_gripper_l_finger_joint'],"(0.02083,)","(0.0,)","(0.0,)",242354,1522053718,31854933,robotiq_force_torque_frame_id,-0.874000036716,-0.273999974132,6.44299888611,-0.0489999987185,-0.019999999553,-0.187999993563,240.0,245.0,522.0,565.0,994.0,688.0,696.0,709.0,739.0,798.0,7,"(0.7716724294411388, -0.15390327321786434, 0.06012232289913362, 0.9970724747921007, 0.06328297308814464, 0.042679456720434175, -0.004495475851315756)",0.10000002384200002,-0.1899999380116,-0.31000137329000044,-0.002000000327800004,-0.001000000163900002,0.0050000101319999934
1522082518.07,22801,1522053718,49393892,,777430,1522053715,422295174,,0.769705855556,-0.153977607884,0.0608007430305,0.997264171638,0.061766247270099994,0.0403694940826,-0.00440529374229,0.0007623850651429999,0.00118249702452,-0.0008987559449450001,-0.00237271226697,0.0027722222148700002,0.00783504515951,6.2107181549099995,1.52306199074,7.12793302536,0.162294432521,3.05377578735,0.6847046613689999,307452,1522053715,409999872,,['l_gripper_l_finger_joint'],"(0.02083,)","(0.0,)","(0.0,)",242355,1522053718,44045272,robotiq_force_torque_frame_id,-1.4339999794999998,-0.8839999884370001,6.39299964905,-0.046999998390699994,-0.0219999998808,-0.163000002503,239.0,240.0,513.0,562.0,997.0,688.0,696.0,709.0,739.0,817.0,7,"(0.7716724294411388, -0.15390327321786434, 0.06012232289913362, 0.9970724747921007, 0.06328297308814464, 0.042679456720434175, -0.004495475851315756)",-0.5599999427839998,-0.6100000143050002,-0.04999923705999976,0.002000000327800004,-0.0020000003278000007,0.024999991060000004
1522082518.07,22802,1522053718,59457063,,777430,1522053715,422295174,,0.769705855556,-0.153977607884,0.0608007430305,0.997264171638,0.061766247270099994,0.0403694940826,-0.00440529374229,0.0007623850651429999,0.00118249702452,-0.0008987559449450001,-0.00237271226697,0.0027722222148700002,0.00783504515951,6.2107181549099995,1.52306199074,7.12793302536,0.162294432521,3.05377578735,0.6847046613689999,777827,1522053715,420385625,,"['head_nod', 'head_pan', 'left_e0', 'left_e1', 'left_s0', 'left_s1', 'left_w0', 'left_w1', 'left_w2', 'right_e0', 'right_e1', 'right_s0', 'right_s1', 'right_w0', 'right_w1', 'right_w2', 'torso_t0']","(0.0, -0.10200972239438001, -0.9150195399736493, 1.5086701048853044, 0.2876213977285151, 0.6527088252452435, 2.346990605464683, -0.4759175394414496, -0.026077673394052033, 0.6389029981542749, 1.4200827143849217, 0.5238544390628688, -0.8920098281553681, -0.43948549572917106, 1.1025486912926412, 0.31945149907713744, -12.565987119160338)","(0.0, 0.008246680714126275, -0.008246680714126275, 0.003926990816250607, 0.004319689897875668, -0.0023561944897503642, -0.00039269908162506076, 0.001570796326500243, 0.00039269908162506076, 0.013351768775252066, -0.01021017612225158, -0.0035342917346255468, 0.011388273367126762, -0.014137166938502187, 0.009424777959001457, 0.00039269908162506076, 0.0)","(0.0, 0.0, -14.588, 11.012, 0.436, 4.316, 0.052, -2.608, 0.392, 11.268, -18.26, 0.652, -30.96, -0.116, -0.64, -0.288, -20.48)",242356,1522053718,52181229,robotiq_force_torque_frame_id,-1.13400002718,-1.13400010765,6.492998123169999,-0.0480000004172,-0.0130000002682,-0.165000006557,223.0,247.0,513.0,562.0,997.0,678.0,699.0,700.0,739.0,817.0,7,"(0.7716724294411388, -0.15390327321786434, 0.06012232289913362, 0.9970724747921007, 0.06328297308814464, 0.042679456720434175, -0.004495475851315756)",0.2999999523199999,-0.2500001192129998,0.09999847411999863,-0.0010000020265000034,0.008999999612600002,-0.0020000040539999986
1522082518.11,22803,1522053718,69403886,,777431,1522053715,432295058,,0.7700591432889999,-0.15568566548499999,0.060586679802699994,0.9973189892479999,0.060907747423,0.0403559518778,-0.0040592039949,-0.000277636056207,-0.00153465128455,-0.00124523441794,0.024599268404700003,0.00893759314253,-0.0329580918209,6.050852775569999,1.4244863987,7.20978069305,0.279484719038,2.99605917931,0.728375673294,307453,1522053715,436999936,,['r_gripper_l_finger_joint'],"(0.007383642684221268,)","(0.0,)","(0.30215054750442505,)",242357,1522053718,64387810,robotiq_force_torque_frame_id,-1.48400005102,-1.5539999455200002,6.5430011749300006,-0.052999999374199996,-0.0109999999404,-0.152999997139,223.0,247.0,506.0,556.0,996.0,678.0,699.0,731.0,739.0,824.0,7,"(0.7716724294411388, -0.15390327321786434, 0.06012232289913362, 0.9970724747921007, 0.06328297308814464, 0.042679456720434175, -0.004495475851315756)",-0.35000002384000006,-0.4199998378700003,0.05000305176000186,-0.004999998956999999,0.002000000327799999,0.012000009418000002
1522082518.11,22804,1522053718,79386949,,777433,1522053715,452296601,,0.7699388641859999,-0.155751242565,0.0603942106219,0.997331732263,0.060757963990599996,0.0402585439383,-0.00413947732671,0.00453180146323,-0.00349960140092,-0.00358922303856,-0.00447148890251,-0.007857043029549999,-0.0027930193297100005,5.8192267417900005,1.32536804676,7.3731546402,0.307462930679,2.95238900185,0.7229237556460001,777829,1522053715,440371448,,"['head_nod', 'head_pan', 'left_e0', 'left_e1', 'left_s0', 'left_s1', 'left_w0', 'left_w1', 'left_w2', 'right_e0', 'right_e1', 'right_s0', 'right_s1', 'right_w0', 'right_w1', 'right_w2', 'torso_t0']","(0.0, -0.10239321759135137, -0.9150195399736493, 1.5090536000822758, 0.2880048929254864, 0.6527088252452435, 2.346990605464683, -0.476301034638421, -0.026461168591023387, 0.6377525125633607, 1.419315723990979, 0.5230874486689261, -0.8920098281553681, -0.43948549572917106, 1.1021651960956698, 0.3186845086831947, -12.565987119160338)","(0.0, 0.005890486224375911, 0.0027488935713754254, -0.003141592653000486, -0.009817477040626518, 0.004319689897875668, 0.01727875959150267, 0.007853981632501214, -0.0011780972448751821, -0.02552544030562895, -0.005890486224375911, 0.02081305132612822, 0.0027488935713754254, 0.011388273367126762, -0.005497787142750851, -0.023561944897503646, 0.0)","(0.0, 0.0, -14.556, 11.012, 0.464, 4.284, 0.04, -2.608, 0.408, 11.332, -18.232, 0.748, -31.048, -0.116, -0.6, -0.26, -20.48)",242358,1522053718,72522350,robotiq_force_torque_frame_id,-1.9440000295599997,-1.46400003135,6.81299781799,-0.0500000007451,-0.014999999664700002,-0.16400000453,234.0,249.0,493.0,559.0,998.0,666.0,699.0,731.0,731.0,824.0,7,"(0.7716724294411388, -0.15390327321786434, 0.06012232289913362, 0.9970724747921007, 0.06328297308814464, 0.042679456720434175, -0.004495475851315756)",-0.45999997853999974,0.0899999141700003,0.2699966430599998,0.002999998629099998,-0.003999999724300001,-0.011000007390999988
1522082518.11,22805,1522053718,89431047,,777433,1522053715,452296601,,0.7699388641859999,-0.155751242565,0.0603942106219,0.997331732263,0.060757963990599996,0.0402585439383,-0.00413947732671,0.00453180146323,-0.00349960140092,-0.00358922303856,-0.00447148890251,-0.007857043029549999,-0.0027930193297100005,5.8192267417900005,1.32536804676,7.3731546402,0.307462930679,2.95238900185,0.7229237556460001,307454,1522053715,460999936,,['l_gripper_l_finger_joint'],"(0.02083,)","(0.0,)","(0.0,)",242359,1522053718,84715426,robotiq_force_torque_frame_id,-1.02400001287,-0.454000040889,6.69299888611,-0.059000000357599995,-0.0230000000447,-0.202000007033,234.0,249.0,493.0,559.0,998.0,666.0,699.0,715.0,729.0,814.0,7,"(0.7716724294411388, -0.15390327321786434, 0.06012232289913362, 0.9970724747921007, 0.06328297308814464, 0.042679456720434175, -0.004495475851315756)",0.9200000166899998,1.009999990461,-0.11999893188000055,-0.008999999612499997,-0.008000000379999999,-0.03800000250300001
1522082518.11,22806,1522053718,99416971,,777434,1522053715,462288976,,0.770286577607,-0.153967533905,0.06098726700209999,0.9972392578399999,0.06177646568609999,0.0409634389945,-0.0044190016351,-0.0065064789706700005,0.00214767952829,-0.0069660616296999996,-0.008282751850329999,0.0103088695789,0.00634711213865,5.88495540619,1.18679320812,7.560645103450001,0.337032318115,3.02641320229,0.7331279516220001,777831,1522053715,460382516,,"['head_nod', 'head_pan', 'left_e0', 'left_e1', 'left_s0', 'left_s1', 'left_w0', 'left_w1', 'left_w2', 'right_e0', 'right_e1', 'right_s0', 'right_s1', 'right_w0', 'right_w1', 'right_w2', 'torso_t0']","(0.0, -0.10162622719740866, -0.9150195399736493, 1.5090536000822758, 0.28838838812245776, 0.6527088252452435, 2.348141091055597, -0.476301034638421, -0.026461168591023387, 0.6389029981542749, 1.4196992191879505, 0.5238544390628688, -0.8920098281553681, -0.4398689909261424, 1.1017817008986983, 0.31945149907713744, -12.565987119160338)","(0.0, -0.00039269908162506076, -0.0027488935713754254, 0.008246680714126275, 0.008246680714126275, -0.009817477040626518, 0.014922565101752308, -0.01060287520387664, -0.006675884387626033, 0.005890486224375911, 0.009817477040626518, 0.003926990816250607, 0.007853981632501214, -0.014529866020127248, 0.00039269908162506076, 0.011388273367126762, 0.0)","(0.0, 0.0, -14.556, 10.948, 0.464, 4.252, 0.06, -2.608, 0.38, 11.332, -18.292, 0.464, -31.108, -0.116, -0.572, -0.288, -20.48)",242360,1522053718,92922862,robotiq_force_torque_frame_id,-0.79400011301,-0.454000040889,6.982999801639999,-0.0540000014007,-0.0340000018477,-0.19200000166900003,246.0,250.0,483.0,550.0,1000.0,672.0,699.0,715.0,729.0,814.0,7,"(0.7716724294411388, -0.15390327321786434, 0.06012232289913362, 0.9970724747921007, 0.06328297308814464, 0.042679456720434175, -0.004495475851315756)",0.22999989986000002,0.0,0.2900009155299994,0.004999998956899995,-0.011000001803000002,0.010000005363999975
1522082518.15,22807,1522053718,109399080,,777434,1522053715,462288976,,0.770286577607,-0.153967533905,0.06098726700209999,0.9972392578399999,0.06177646568609999,0.0409634389945,-0.0044190016351,-0.0065064789706700005,0.00214767952829,-0.0069660616296999996,-0.008282751850329999,0.0103088695789,0.00634711213865,5.88495540619,1.18679320812,7.560645103450001,0.337032318115,3.02641320229,0.7331279516220001,777831,1522053715,460382516,,"['head_nod', 'head_pan', 'left_e0', 'left_e1', 'left_s0', 'left_s1', 'left_w0', 'left_w1', 'left_w2', 'right_e0', 'right_e1', 'right_s0', 'right_s1', 'right_w0', 'right_w1', 'right_w2', 'torso_t0']","(0.0, -0.10162622719740866, -0.9150195399736493, 1.5090536000822758, 0.28838838812245776, 0.6527088252452435, 2.348141091055597, -0.476301034638421, -0.026461168591023387, 0.6389029981542749, 1.4196992191879505, 0.5238544390628688, -0.8920098281553681, -0.4398689909261424, 1.1017817008986983, 0.31945149907713744, -12.565987119160338)","(0.0, -0.00039269908162506076, -0.0027488935713754254, 0.008246680714126275, 0.008246680714126275, -0.009817477040626518, 0.014922565101752308, -0.01060287520387664, -0.006675884387626033, 0.005890486224375911, 0.009817477040626518, 0.003926990816250607, 0.007853981632501214, -0.014529866020127248, 0.00039269908162506076, 0.011388273367126762, 0.0)","(0.0, 0.0, -14.556, 10.948, 0.464, 4.252, 0.06, -2.608, 0.38, 11.332, -18.292, 0.464, -31.108, -0.116, -0.572, -0.288, -20.48)",242361,1522053718,101063451,robotiq_force_torque_frame_id,-1.20399996042,-1.0439999550599999,7.163000106810001,-0.0710000023246,-0.0540000014007,-0.184000000358,251.0,251.0,483.0,550.0,1000.0,677.0,695.0,722.0,727.0,814.0,7,"(0.7716724294411388, -0.15390327321786434, 0.06012232289913362, 0.9970724747921007, 0.06328297308814464, 0.042679456720434175, -0.004495475851315756)",-0.40999984741000006,-0.589999914171,0.18000030517000187,-0.017000000923900006,-0.019999999552999997,0.008000001311000038
1522082518.15,22808,1522053718,119415044,,777436,1522053715,482287525,,0.770178813081,-0.155045749881,0.060712469472099996,0.9972875080700001,0.0611777075813,0.0407167212751,-0.00413073249094,0.00351786889564,3.58925347268e-05,-0.00413891328592,0.0035251194390999996,-0.00148334441948,-0.0007496701599410001,6.1978721618699995,1.54483032227,7.41649532318,0.12263002246600001,3.09906554222,0.656578958035,307455,1522053715,487000064,,['r_gripper_l_finger_joint'],"(0.007383642684221268,)","(0.0,)","(0.30215054750442505,)",242362,1522053718,113250713,robotiq_force_torque_frame_id,-1.74400004148,-0.8240000456569999,7.732999801639999,-0.07400000095369999,-0.0480000004172,-0.19799999892700001,251.0,251.0,483.0,554.0,998.0,677.0,695.0,722.0,727.0,817.0,7,"(0.7716724294411388, -0.15390327321786434, 0.06012232289913362, 0.9970724747921007, 0.06328297308814464, 0.042679456720434175, -0.004495475851315756)",-0.5400000810600001,0.21999990940299996,0.5699996948299981,-0.002999998629099984,0.006000000983500002,-0.013999998569000027
1522082518.15,22809,1522053718,129446983,,777436,1522053715,482287525,,0.770178813081,-0.155045749881,0.060712469472099996,0.9972875080700001,0.0611777075813,0.0407167212751,-0.00413073249094,0.00351786889564,3.58925347268e-05,-0.00413891328592,0.0035251194390999996,-0.00148334441948,-0.0007496701599410001,6.1978721618699995,1.54483032227,7.41649532318,0.12263002246600001,3.09906554222,0.656578958035,777835,1522053715,500360771,,"['head_nod', 'head_pan', 'left_e0', 'left_e1', 'left_s0', 'left_s1', 'left_w0', 'left_w1', 'left_w2', 'right_e0', 'right_e1', 'right_s0', 'right_s1', 'right_w0', 'right_w1', 'right_w2', 'torso_t0']","(0.0, -0.10239321759135137, -0.9154030351706206, 1.5090536000822758, 0.2876213977285151, 0.6527088252452435, 2.3485245862525685, -0.476301034638421, -0.026077673394052033, 0.6381360077603321, 1.419315723990979, 0.5227039534719548, -0.8920098281553681, -0.4398689909261424, 1.1017817008986983, 0.31945149907713744, -12.565987119160338)","(0.0, 0.0047123889795007284, -0.003926990816250607, -0.01021017612225158, 0.0035342917346255468, 0.005890486224375911, -0.0027488935713754254, 0.0007853981632501215, 0.014922565101752308, 0.0019634954081253035, 0.00039269908162506076, 0.012959069693627005, 0.0, 0.00510508806112579, 0.003141592653000486, -0.008246680714126275, 0.0)","(0.0, 0.0, -14.428, 11.012, 0.404, 4.316, 0.052, -2.608, 0.38, 11.332, -18.32, 0.652, -31.108, -0.116, -0.612, -0.288, -20.48)",242363,1522053718,121401664,robotiq_force_torque_frame_id,-1.69399996996,-0.414000079036,7.7230014801,-0.0799999982119,-0.046999998390699994,-0.222000002861,244.0,252.0,503.0,557.0,998.0,677.0,692.0,716.0,726.0,817.0,7,"(0.7716724294411388, -0.15390327321786434, 0.06012232289913362, 0.9970724747921007, 0.06328297308814464, 0.042679456720434175, -0.004495475851315756)",0.05000007152000019,0.4099999666209999,-0.009998321539999466,-0.00599999725820001,0.0010000020265000034,-0.02400000393399998
1522082518.15,22810,1522053718,139445066,,777438,1522053715,502295866,,0.770659554595,-0.155313247075,0.0609925583208,0.997293508359,0.0608413211479,0.041066288738,-0.00418948153924,-0.0037364966596799996,0.0118834908968,-4.69413530488e-05,0.0033509900827,0.0047454066343399996,0.020844831451400002,6.13920354843,1.5001758337,7.433373928069999,0.17746645212200002,3.0791490078,0.6929253935809999,307456,1522053715,512000000,,['l_gripper_l_finger_joint'],"(0.02083,)","(0.0,)","(0.0,)",242364,1522053718,133607781,robotiq_force_torque_frame_id,-1.44399996996,-0.494000002742,7.45300102234,-0.0810000002384,-0.0430000014603,-0.20999999344300002,244.0,252.0,503.0,557.0,1000.0,677.0,693.0,723.0,726.0,812.0,7,"(0.7716724294411388, -0.15390327321786434, 0.06012232289913362, 0.9970724747921007, 0.06328297308814464, 0.042679456720434175, -0.004495475851315756)",0.25,-0.07999992370600001,-0.27000045776000015,-0.0010000020264999965,0.003999996930399992,0.012000009417999974
1522082518.19,22811,1522053718,149408102,,777440,1522053715,522295227,,0.770062861858,-0.155614520841,0.060104302976900004,0.9973358858910001,0.0606815674522,0.040247141187699995,-0.00436413940512,-0.00036138114011500003,-0.00909514832882,-0.006079194549780001,0.0069482568042600005,-0.00200357816696,0.000145755939965,6.380385398860001,1.49636137486,7.422971248630001,0.136044710875,3.19948005676,0.670357465744,307456,1522053715,512000000,,['l_gripper_l_finger_joint'],"(0.02083,)","(0.0,)","(0.0,)",242365,1522053718,141741412,robotiq_force_torque_frame_id,-1.84400006533,-1.1140001267200002,7.62299919128,-0.0920000001788,-0.05099999904630001,-0.184000000358,249.0,258.0,499.0,544.0,1001.0,665.0,693.0,723.0,728.0,812.0,7,"(0.7716724294411388, -0.15390327321786434, 0.06012232289913362, 0.9970724747921007, 0.06328297308814464, 0.042679456720434175, -0.004495475851315756)",-0.40000009537000003,-0.6200001239780002,0.1699981689400003,-0.010999999940400004,-0.007999997586000007,0.025999993085000034
1522082518.19,22812,1522053718,159409999,,777440,1522053715,522295227,,0.770062861858,-0.155614520841,0.060104302976900004,0.9973358858910001,0.0606815674522,0.040247141187699995,-0.00436413940512,-0.00036138114011500003,-0.00909514832882,-0.006079194549780001,0.0069482568042600005,-0.00200357816696,0.000145755939965,6.380385398860001,1.49636137486,7.422971248630001,0.136044710875,3.19948005676,0.670357465744,777837,1522053715,520383258,,"['head_nod', 'head_pan', 'left_e0', 'left_e1', 'left_s0', 'left_s1', 'left_w0', 'left_w1', 'left_w2', 'right_e0', 'right_e1', 'right_s0', 'right_s1', 'right_w0', 'right_w1', 'right_w2', 'torso_t0']","(0.0, -0.10162622719740866, -0.9146360447766779, 1.5086701048853044, 0.2880048929254864, 0.6527088252452435, 2.3485245862525685, -0.476301034638421, -0.026461168591023387, 0.6377525125633607, 1.4196992191879505, 0.5223204582749834, -0.890859342564454, -0.43948549572917106, 1.1017817008986983, 0.31906800388016604, -12.565987119160338)","(0.0, 0.005890486224375911, 0.0, 0.007853981632501214, -0.014529866020127248, 0.0, -0.00510508806112579, 0.018456856836377853, -0.00039269908162506076, -0.003141592653000486, 0.01767145867312773, -0.018849555918002914, 0.00039269908162506076, 0.005497787142750851, -0.022776546734253524, -0.01649336142825255, 0.0)","(0.0, 0.0, -14.428, 11.044, 0.436, 4.316, 0.06, -2.628, 0.392, 11.236, -18.32, 0.62, -31.108, -0.108, -0.572, -0.28, -20.48)",242366,1522053718,153975964,robotiq_force_torque_frame_id,-1.44399996996,-1.9140000790400002,7.942998886110001,-0.0920000001788,-0.052999999374199996,-0.187000006437,250.0,258.0,499.0,544.0,1001.0,668.0,691.0,728.0,730.0,816.0,7,"(0.7716724294411388, -0.15390327321786434, 0.06012232289913362, 0.9970724747921007, 0.06328297308814464, 0.042679456720434175, -0.004495475851315756)",0.40000009537000003,-0.7999999523200001,0.3199996948300008,0.0,-0.0020000003278999867,-0.0030000060790000005
1522082518.19,22813,1522053718,169403076,,777441,1522053715,532293047,,0.7704782877249999,-0.15422905856,0.060588603016400004,0.997267856727,0.061233829917699996,0.0410093539205,-0.00504706889665,0.0023502187207,-0.000619030859752,-0.00020722349232,-0.00047461788463800005,-0.0009553279979499999,0.000760045214833,6.30485773087,1.61128163338,7.42278575897,0.030470058322,3.15132379532,0.642998695374,307457,1522053715,536999936,,['r_gripper_l_finger_joint'],"(0.007383642684221268,)","(0.0,)","(0.28602150082588196,)",242367,1522053718,162117719,robotiq_force_torque_frame_id,-1.8540000557900003,-2.6740000695,7.93300056458,-0.082999996841,-0.04500000178809999,-0.18000000715300002,245.0,250.0,488.0,562.0,999.0,668.0,691.0,728.0,730.0,812.0,7,"(0.7716724294411388, -0.15390327321786434, 0.06012232289913362, 0.9970724747921007, 0.06328297308814464, 0.042679456720434175, -0.004495475851315756)",-0.41000008583000036,-0.7599999904599997,-0.009998321530000354,0.009000003337800003,0.007999997586100004,0.006999999283999969
1522082518.19,22814,1522053718,179383993,,777441,1522053715,532293047,,0.7704782877249999,-0.15422905856,0.060588603016400004,0.997267856727,0.061233829917699996,0.0410093539205,-0.00504706889665,0.0023502187207,-0.000619030859752,-0.00020722349232,-0.00047461788463800005,-0.0009553279979499999,0.000760045214833,6.30485773087,1.61128163338,7.42278575897,0.030470058322,3.15132379532,0.642998695374,777839,1522053715,540385454,,"['head_nod', 'head_pan', 'left_e0', 'left_e1', 'left_s0', 'left_s1', 'left_w0', 'left_w1', 'left_w2', 'right_e0', 'right_e1', 'right_s0', 'right_s1', 'right_w0', 'right_w1', 'right_w2', 'torso_t0']","(0.0, -0.10162622719740866, -0.9154030351706206, 1.5079031144913617, 0.2876213977285151, 0.6527088252452435, 2.3473741006616544, -0.476301034638421, -0.026077673394052033, 0.6389029981542749, 1.4196992191879505, 0.5223204582749834, -0.8912428377614254, -0.43948549572917106, 1.1021651960956698, 0.31945149907713744, -12.565987119160338)","(0.0, -0.005890486224375911, 0.009424777959001457, -0.0007853981632501215, -0.01060287520387664, -0.0035342917346255468, -0.018064157754752792, 0.009032078877376396, -0.01531526418337737, 0.0019634954081253035, -0.0070685834692510935, 0.01531526418337737, -0.0019634954081253035, 0.009032078877376396, -0.014137166938502187, 0.027096236632129192, 0.0)","(0.0, 0.0, -14.556, 11.044, 0.404, 4.284, 0.06, -2.636, 0.38, 11.268, -18.292, 0.62, -31.108, -0.116, -0.572, -0.296, -20.48)",242368,1522053718,174308059,robotiq_force_torque_frame_id,-1.8740000367200003,-2.72400002182,7.96299934387,-0.0860000029206,-0.0379999987781,-0.172999992967,239.0,248.0,488.0,575.0,999.0,682.0,685.0,736.0,743.0,812.0,7,"(0.7716724294411388, -0.15390327321786434, 0.06012232289913362, 0.9970724747921007, 0.06328297308814464, 0.042679456720434175, -0.004495475851315756)",-0.019999980929999994,-0.049999952319999874,0.02999877928999961,-0.0030000060796000066,0.007000003009999992,0.00700001418600002
1522082518.23,22815,1522053718,189502000,,777443,1522053715,552296718,,0.7704480800579999,-0.154936269919,0.06071562667119999,0.997273450231,0.0612484372576,0.0409259606649,-0.0044000160271199995,0.00553681479698,-0.0161128504547,0.0022981277713000005,-0.0119432275761,-0.0067011302079500006,-0.00258928715894,6.100256443019999,1.33557546139,7.460897445680001,0.213740229607,3.07561922073,0.665858864784,307458,1522053715,561999872,,['l_gripper_l_finger_joint'],"(0.02083,)","(0.0,)","(0.0,)",242369,1522053718,182440613,robotiq_force_torque_frame_id,-1.10400005579,-1.49400000274,8.163000106810001,-0.0780000016093,-0.039000000804699994,-0.162000000477,239.0,248.0,479.0,575.0,993.0,682.0,685.0,731.0,743.0,805.0,7,"(0.7716724294411388, -0.15390327321786434, 0.06012232289913362, 0.9970724747921007, 0.06328297308814464, 0.042679456720434175, -0.004495475851315756)",0.7699999809300002,1.2300000190799998,0.20000076294000113,0.008000001311300006,-0.0010000020265999929,0.010999992489999999
1522082518.23,22816,1522053718,199398994,,777445,1522053715,572296424,,0.7698921167659999,-0.154694736616,0.060262276260900006,0.9972667728650001,0.0617459143275,0.04035370475530001,-0.0042431493526399995,-0.0156567603992,0.00933548128331,-0.007250499377,0.000331080888485,0.030069681929000003,-0.005597722968800001,6.03731060028,1.57955813408,7.388758659360001,0.0544503033161,3.01709413528,0.658820569515,777841,1522053715,560396229,,"['head_nod', 'head_pan', 'left_e0', 'left_e1', 'left_s0', 'left_s1', 'left_w0', 'left_w1', 'left_w2', 'right_e0', 'right_e1', 'right_s0', 'right_s1', 'right_w0', 'right_w1', 'right_w2', 'torso_t0']","(0.0, -0.10085923680346595, -0.9150195399736493, 1.509437095279247, 0.2876213977285151, 0.6527088252452435, 2.346990605464683, -0.4751505490475069, -0.02684466378799474, 0.6385195029573034, 1.4200827143849217, 0.5223204582749834, -0.890859342564454, -0.43948549572917106, 1.101398205701727, 0.31906800388016604, -12.565987119160338)","(0.0, -0.007853981632501214, -0.011388273367126762, 0.005890486224375911, 0.007461282550876154, 0.011388273367126762, -0.005890486224375911, -0.00039269908162506076, 0.022383847652628464, -0.01610066234662749, -0.005497787142750851, -0.0035342917346255468, -0.009817477040626518, -0.007853981632501214, 0.0200276531628781, -0.01767145867312773, 0.0)","(0.0, 0.0, -14.588, 11.012, 0.496, 4.216, 0.084, -2.648, 0.4, 11.14, -18.26, 0.62, -31.136, -0.108, -0.58, -0.308, -20.48)",242370,1522053718,194649747,robotiq_force_torque_frame_id,-0.7039999604230001,-1.3439999073700002,8.09300041199,-0.0750000029802,-0.032999999821200006,-0.153999999166,242.0,249.0,477.0,554.0,993.0,681.0,685.0,731.0,742.0,805.0,7,"(0.7716724294411388, -0.15390327321786434, 0.06012232289913362, 0.9970724747921007, 0.06328297308814464, 0.042679456720434175, -0.004495475851315756)",0.400000095367,0.1500000953699998,-0.06999969482000168,0.002999998629099998,0.006000000983499988,0.00800000131100001
