time,.header.seq,.header.stamp.secs,.header.stamp.nsecs,.header.frame_id,.endpoint_state.header.seq,.endpoint_state.header.stamp.secs,.endpoint_state.header.stamp.nsecs,.endpoint_state.header.frame_id,.endpoint_state.pose.position.x,.endpoint_state.pose.position.y,.endpoint_state.pose.position.z,.endpoint_state.pose.orientation.x,.endpoint_state.pose.orientation.y,.endpoint_state.pose.orientation.z,.endpoint_state.pose.orientation.w,.endpoint_state.twist.linear.x,.endpoint_state.twist.linear.y,.endpoint_state.twist.linear.z,.endpoint_state.twist.angular.x,.endpoint_state.twist.angular.y,.endpoint_state.twist.angular.z,.endpoint_state.wrench.force.x,.endpoint_state.wrench.force.y,.endpoint_state.wrench.force.z,.endpoint_state.wrench.torque.x,.endpoint_state.wrench.torque.y,.endpoint_state.wrench.torque.z,.joint_state.header.seq,.joint_state.header.stamp.secs,.joint_state.header.stamp.nsecs,.joint_state.header.frame_id,.joint_state.name,.joint_state.position,.joint_state.velocity,.joint_state.effort,.wrench_stamped.header.seq,.wrench_stamped.header.stamp.secs,.wrench_stamped.header.stamp.nsecs,.wrench_stamped.header.frame_id,.wrench_stamped.wrench.force.x,.wrench_stamped.wrench.force.y,.wrench_stamped.wrench.force.z,.wrench_stamped.wrench.torque.x,.wrench_stamped.wrench.torque.y,.wrench_stamped.wrench.torque.z,.tactile_values.tactile_values_0,.tactile_values.tactile_values_1,.tactile_values.tactile_values_2,.tactile_values.tactile_values_3,.tactile_values.tactile_values_4,.tactile_values.tactile_values_5,.tactile_values.tactile_values_6,.tactile_values.tactile_values_7,.tactile_values.tactile_values_8,.tactile_values.tactile_values_9,.tag,.goal_vector,.delta_wrench.force.x,.delta_wrench.force.y,.delta_wrench.force.z,.delta_wrench.torque.x,.delta_wrench.torque.y,.delta_wrench.torque.z
1522692156.75,14992,1522663356,745603084,,1363117,1522663354,207457055,,0.757611945046,-0.15858128534399998,0.0269540241473,0.81878156303,0.5729473418600001,-0.0304752284581,-0.0199838922089,-0.0025761452686100003,-0.022473442209799997,0.00588571393501,-0.012167890298799998,-0.00107382688101,-0.010610552282399998,3.6297397613499998,0.0247376710176,10.255964279199999,-0.13089814782099998,1.6036868095399999,-0.00334296375513,1363467,1522663354,205525486,,"['head_nod', 'head_pan', 'left_e0', 'left_e1', 'left_s0', 'left_s1', 'left_w0', 'left_w1', 'left_w2', 'right_e0', 'right_e1', 'right_s0', 'right_s1', 'right_w0', 'right_w1', 'right_w2', 'torso_t0']","(0.0, -0.1004757416064946, -0.9065826456402796, 1.5021506865367915, 0.27880100819817394, 0.6446554261088451, 2.341621672707084, -0.48780589054756157, -0.03259709174256504, 0.21437381510698658, 1.1236409271260657, 0.8030389424580141, -0.6929758209272356, -0.16336895390979655, 1.230636087081073, 2.1468061126456366, -12.565987119160338)","(0.0, -0.0011780972448751821, -0.004319689897875668, 0.003141592653000486, -0.004319689897875668, -0.003926990816250607, 0.003926990816250607, -0.005497787142750851, 0.004319689897875668, -0.009032078877376396, 0.03063052836675474, -0.02120575040775328, -0.02552544030562895, -0.003141592653000486, -0.0047123889795007284, -0.01021017612225158, 0.0)","(0.0, 0.0, -14.684, 10.852, 0.248, 5.068, 0.096, -2.648, 0.316, 3.556, -16.584, -0.528, -33.688, 0.0, 0.8, 0.12, -20.48)",1345855,1522663356,742840412,robotiq_force_torque_frame_id,-0.950000047684,-0.48199994564099996,2.79800109863,0.0040000001899899995,-0.0489999987185,-0.12800000607999998,378.0,469.0,622.0,644.0,998.0,70.0,78.0,110.0,438.0,611.0,7,"(0.7566865575765042, -0.16604371150179909, 0.03352683399740461, -0.2661414398864426, 0.9635944117439632, 0.025027133860825803, -0.005309067873824912)",0.0,0.0,0.0,0.0,0.0,0.0
1522692156.76,14993,1522663356,755604028,,1363118,1522663354,217426528,,0.7578367793649999,-0.159040583815,0.027204119512400003,0.819136260551,0.5724465119600001,-0.030703233826200004,-0.0194445115009,0.00329698790315,-0.0098178201864,0.018126333042299998,0.00362240746767,-0.0180192965022,-0.012998936087,4.29602003098,0.21455328166499998,10.049290657,-0.140385359526,1.85536062717,0.0330101400614,539084,1522663354,228000000,,['l_gripper_l_finger_joint'],"(0.0032494800670444966,)","(0.0,)","(0.0,)",1345856,1522663356,755201710,robotiq_force_torque_frame_id,-1.4500000476800001,-0.51199991703,3.13800125122,-0.0120000001043,-0.0399999991059,-0.125,376.0,469.0,623.0,644.0,1018.0,62.0,91.0,110.0,438.0,612.0,7,"(0.7566865575765042, -0.16604371150179909, 0.03352683399740461, -0.2661414398864426, 0.9635944117439632, 0.025027133860825803, -0.005309067873824912)",-0.4999999999960001,-0.02999997138900007,0.34000015259000005,-0.01600000029429,0.0089999996126,0.0030000060799999784
1522692156.77,14994,1522663356,770263910,,1363119,1522663354,227440737,,0.75824423347,-0.160332944804,0.0276142678197,0.819665209102,0.571708360645,-0.0304739500339,-0.019231061487,-0.0021549679805300003,-0.005531896465060001,0.00852510542857,0.00417248551252,0.0107529922876,-0.0176096357365,4.6585822105400005,0.413164436817,9.77893543243,-0.270527869463,1.9703897237799999,0.017468385398400003,539085,1522663354,236000000,,['r_gripper_l_finger_joint'],"(0.0013886665838956833,)","(0.0,)","(0.2946236729621887,)",1345857,1522663356,763352347,robotiq_force_torque_frame_id,-1.42000007629,-1.4120000124,2.9580009460400003,0.00499999988824,-0.0500000007451,-0.12099999934399999,378.0,468.0,623.0,645.0,998.0,60.0,91.0,108.0,434.0,624.0,7,"(0.7566865575765042, -0.16604371150179909, 0.03352683399740461, -0.2661414398864426, 0.9635944117439632, 0.025027133860825803, -0.005309067873824912)",0.029999971390000102,-0.90000009537,-0.18000030517999965,0.01699999999254,-0.0100000016392,0.004000000656000008
1522692156.78,14995,1522663356,775638103,,1363120,1522663354,237417782,,0.7580076760009999,-0.158764208096,0.027918458517200002,0.819596465804,0.571803190788,-0.030224079855200002,-0.019729400497599997,0.0073994788896,-0.0194438772397,0.029997138009799997,0.006459534524180001,-0.014226588623600002,-0.0528466688312,3.7157027721399998,0.411089032888,9.63393115997,-0.286996513605,1.5550391674000001,0.014223061502000001,539085,1522663354,236000000,,['r_gripper_l_finger_joint'],"(0.0013886665838956833,)","(0.0,)","(0.2946236729621887,)",1345857,1522663356,763352347,robotiq_force_torque_frame_id,-1.42000007629,-1.4120000124,2.9580009460400003,0.00499999988824,-0.0500000007451,-0.12099999934399999,378.0,468.0,611.0,623.0,998.0,60.0,93.0,102.0,434.0,624.0,7,"(0.7566865575765042, -0.16604371150179909, 0.03352683399740461, -0.2661414398864426, 0.9635944117439632, 0.025027133860825803, -0.005309067873824912)",0.0,0.0,0.0,0.0,0.0,0.0
1522692156.79,14996,1522663356,785559892,,1363122,1522663354,257420601,,0.7579548778440001,-0.159493962305,0.0281531097994,0.8194043678740001,0.572068776178,-0.0305502885489,-0.0195058222285,0.008737364655350001,-0.0206204925079,0.030140860189299998,-0.0197007836275,-0.0172030806341,-0.011150210685100002,3.44467043877,0.450298368931,9.32913303375,-0.265579462051,1.4010438919100001,0.0333027020097,1363471,1522663354,245514584,,"['head_nod', 'head_pan', 'left_e0', 'left_e1', 'left_s0', 'left_s1', 'left_w0', 'left_w1', 'left_w2', 'right_e0', 'right_e1', 'right_s0', 'right_s1', 'right_w0', 'right_w1', 'right_w2', 'torso_t0']","(0.0, -0.10085923680346595, -0.9069661408372509, 1.5013836961428486, 0.27803401780423126, 0.6450389213058165, 2.3412381775101125, -0.48780589054756157, -0.03298058693953639, 0.21437381510698658, 1.1224904415351515, 0.8015049616701286, -0.6945098017151211, -0.16375244910676792, 1.23255356306593, 2.1479565982365507, -12.565987119160338)","(0.0, 0.009424777959001457, -0.005497787142750851, 0.011388273367126762, -0.009424777959001457, 0.005890486224375911, 0.004319689897875668, 0.024347343060753767, 0.004319689897875668, -0.0070685834692510935, -0.0035342917346255468, -0.018849555918002914, -0.028667032958629435, 0.009817477040626518, 0.005890486224375911, -0.005497787142750851, 0.0)","(0.0, 0.0, -14.752, 10.916, 0.28, 5.036, 0.104, -2.716, 0.316, 3.648, -16.432, -0.308, -33.452, -0.024, 0.68, 0.128, -20.48)",1345859,1522663356,783679130,robotiq_force_torque_frame_id,-1.0299999713899999,-1.3720000505399998,3.4980018615699993,0.032999999821200006,-0.0799999982119,-0.136000007391,376.0,482.0,611.0,616.0,1010.0,60.0,93.0,102.0,427.0,614.0,7,"(0.7566865575765042, -0.16604371150179909, 0.03352683399740461, -0.2661414398864426, 0.9635944117439632, 0.025027133860825803, -0.005309067873824912)",0.39000010490000014,0.03999996186000021,0.540000915529999,0.027999999932960005,-0.029999997466800002,-0.015000008046999996
1522692156.8,14997,1522663356,795588016,,1363122,1522663354,257420601,,0.7579548778440001,-0.159493962305,0.0281531097994,0.8194043678740001,0.572068776178,-0.0305502885489,-0.0195058222285,0.008737364655350001,-0.0206204925079,0.030140860189299998,-0.0197007836275,-0.0172030806341,-0.011150210685100002,3.44467043877,0.450298368931,9.32913303375,-0.265579462051,1.4010438919100001,0.0333027020097,1363473,1522663354,265523126,,"['head_nod', 'head_pan', 'left_e0', 'left_e1', 'left_s0', 'left_s1', 'left_w0', 'left_w1', 'left_w2', 'right_e0', 'right_e1', 'right_s0', 'right_s1', 'right_w0', 'right_w1', 'right_w2', 'torso_t0']","(0.0, -0.10085923680346595, -0.9065826456402796, 1.50176719133982, 0.27880100819817394, 0.6446554261088451, 2.3408546823131413, -0.48742239535059023, -0.03298058693953639, 0.21360682471304387, 1.12210694633818, 0.8018884568671001, -0.6948932969120925, -0.16336895390979655, 1.2329370582629013, 2.148340093433522, -12.565987119160338)","(0.0, 0.0, 0.009032078877376396, -0.0023561944897503642, 0.003926990816250607, 0.004319689897875668, -0.001570796326500243, 0.014137166938502187, -0.0035342917346255468, 0.009424777959001457, -0.0070685834692510935, -0.01060287520387664, -0.0420188017338815, 0.02042035224450316, 0.024740042142378828, -0.013744467856877126, 0.0)","(0.0, 0.0, -14.588, 10.916, 0.216, 5.036, 0.104, -2.676, 0.316, 3.46, -16.372, -0.372, -32.984, -0.04, 0.632, 0.128, -20.48)",1345860,1522663356,791872219,robotiq_force_torque_frame_id,-1.4700000286100001,-0.681999993324,3.8579986572300005,0.0560000017285,-0.108999997377,-0.136000007391,376.0,477.0,616.0,632.0,1010.0,46.0,95.0,98.0,429.0,614.0,7,"(0.7566865575765042, -0.16604371150179909, 0.03352683399740461, -0.2661414398864426, 0.9635944117439632, 0.025027133860825803, -0.005309067873824912)",-0.44000005722000024,0.6900000572159999,0.3599967956600012,0.02300000190729999,-0.0289999991651,0.0
1522692156.83,14998,1522663356,805773973,,1363123,1522663354,267451078,,0.758441733811,-0.160028431508,0.0286396423446,0.819778466323,0.5715564649830001,-0.0302226689498,-0.019314858787599996,0.00842699684495,0.004952656291649999,0.0299129274307,0.0229340217583,-0.0203271703359,0.000239219223604,3.8802232742300005,0.27120745181999995,8.93590068817,-0.261809587479,1.56604266167,-0.0159081444144,539086,1522663354,279000064,,['l_gripper_l_finger_joint'],"(0.0032494800670444966,)","(0.0,)","(0.0,)",1345861,1522663356,804075841,robotiq_force_torque_frame_id,-1.29999995232,-0.971999955177,4.1079986572300005,0.054999999702,-0.10800000280099999,-0.12800000607999998,375.0,477.0,618.0,632.0,996.0,59.0,96.0,98.0,429.0,618.0,7,"(0.7566865575765042, -0.16604371150179909, 0.03352683399740461, -0.2661414398864426, 0.9635944117439632, 0.025027133860825803, -0.005309067873824912)",0.17000007629000002,-0.28999996185300003,0.25,-0.0010000020264999965,0.0009999945760000156,0.00800000131100001
1522692156.83,14999,1522663356,815685033,,1363124,1522663354,277445510,,0.758395607616,-0.16000321272600002,0.0287716009436,0.8197700861470001,0.571580959926,-0.0299780357913,-0.0193269107243,0.020090128822,0.00225204695814,0.029032945836200003,0.00378794113017,-0.0463270206283,-0.0114376065915,4.59480047226,0.42573899030699996,8.721271514889999,-0.243375360966,1.8639508485799998,0.041937999427300005,1363474,1522663354,275526417,,"['head_nod', 'head_pan', 'left_e0', 'left_e1', 'left_s0', 'left_s1', 'left_w0', 'left_w1', 'left_w2', 'right_e0', 'right_e1', 'right_s0', 'right_s1', 'right_w0', 'right_w1', 'right_w2', 'torso_t0']","(0.0, -0.1012427320004373, -0.9065826456402796, 1.5021506865367915, 0.27880100819817394, 0.6442719309118737, 2.341621672707084, -0.48703890015361884, -0.032213596545593685, 0.21399031991001521, 1.1232574319290942, 0.8015049616701286, -0.6956602873060351, -0.16336895390979655, 1.2321700678689587, 2.148340093433522, -12.565987119160338)","(0.0, 0.009424777959001457, 0.005890486224375911, -0.0027488935713754254, -0.0070685834692510935, 0.003141592653000486, -0.023561944897503646, -0.029059732040254495, 0.005497787142750851, 0.005497787142750851, -0.019634954081253035, -0.001570796326500243, -0.03573561642788053, -0.001570796326500243, 0.009032078877376396, 0.010995574285501701, 0.0)","(0.0, 0.0, -14.556, 10.916, 0.216, 5.132, 0.076, -2.656, 0.308, 3.62, -16.404, -0.308, -32.776, -0.032, 0.632, 0.092, -20.48)",1345862,1522663356,812269622,robotiq_force_torque_frame_id,-0.6099998950959999,-1.31200010777,3.8579986572300005,0.059000000357599995,-0.101000003517,-0.126000002027,375.0,474.0,618.0,656.0,982.0,59.0,96.0,98.0,430.0,618.0,7,"(0.7566865575765042, -0.16604371150179909, 0.03352683399740461, -0.2661414398864426, 0.9635944117439632, 0.025027133860825803, -0.005309067873824912)",0.6900000572240002,-0.3400001525930001,-0.25,0.0040000006555999945,0.006999999283999983,0.002000004052999965
1522692156.83,15000,1522663356,825613975,,1363125,1522663354,287420019,,0.758496940185,-0.16013272784000002,0.0286469863485,0.819638607634,0.5717713271729999,-0.0300294074653,-0.0191921073852,0.0166722648481,-0.00607010109054,0.028751034955700003,-0.0019834499621,-0.0493952829851,0.0060380108132899995,5.41784095764,0.760307133198,8.23782539368,-0.402907788754,2.18982219696,0.0361071154475,1363475,1522663354,285513806,,"['head_nod', 'head_pan', 'left_e0', 'left_e1', 'left_s0', 'left_s1', 'left_w0', 'left_w1', 'left_w2', 'right_e0', 'right_e1', 'right_s0', 'right_s1', 'right_w0', 'right_w1', 'right_w2', 'torso_t0']","(0.0, -0.1012427320004373, -0.9065826456402796, 1.5013836961428486, 0.2791845033951453, 0.6454224165027879, 2.3420051679040554, -0.48780589054756157, -0.03298058693953639, 0.21399031991001521, 1.1228739367321228, 0.8015049616701286, -0.6952767921090638, -0.16375244910676792, 1.2321700678689587, 2.1479565982365507, -12.565987119160338)","(0.0, 0.0035342917346255468, 0.0007853981632501215, -0.005890486224375911, 0.005890486224375911, -0.00510508806112579, 0.009424777959001457, -0.01649336142825255, 0.014529866020127248, 0.0035342917346255468, 0.011388273367126762, -0.009424777959001457, -0.051443579692882956, -0.0070685834692510935, -0.007853981632501214, -0.008639379795751335, 0.0)","(0.0, 0.0, -14.588, 10.884, 0.152, 5.004, 0.076, -2.664, 0.316, 3.62, -16.372, -0.152, -32.456, -0.04, 0.632, 0.1, -20.48)",1345863,1522663356,824487695,robotiq_force_torque_frame_id,-0.380000114441,-0.582000088692,3.58799819946,0.0419999994338,-0.09499999880789999,-0.134000003338,377.0,474.0,624.0,656.0,982.0,61.0,90.0,98.0,430.0,618.0,7,"(0.7566865575765042, -0.16604371150179909, 0.03352683399740461, -0.2661414398864426, 0.9635944117439632, 0.025027133860825803, -0.005309067873824912)",0.22999978065499993,0.730000019078,-0.2700004577700006,-0.017000000923799996,0.006000004709100018,-0.008000001310999982
1522692156.87,15001,1522663356,835681915,,1363127,1522663354,307423292,,0.759637179016,-0.16023166813,0.0300848683563,0.819563105882,0.5719630488440001,-0.0289543597188,-0.0183366106022,0.029846198289900004,-0.010883987992,0.0322528605234,-0.0011247202089000002,-0.0687595535408,-0.0195429737009,5.8248343467699994,0.630521714687,7.6774063110399995,-0.302509427071,2.40653014183,0.0350033640862,1363475,1522663354,285513806,,"['head_nod', 'head_pan', 'left_e0', 'left_e1', 'left_s0', 'left_s1', 'left_w0', 'left_w1', 'left_w2', 'right_e0', 'right_e1', 'right_s0', 'right_s1', 'right_w0', 'right_w1', 'right_w2', 'torso_t0']","(0.0, -0.1012427320004373, -0.9065826456402796, 1.5013836961428486, 0.2791845033951453, 0.6454224165027879, 2.3420051679040554, -0.48780589054756157, -0.03298058693953639, 0.21399031991001521, 1.1228739367321228, 0.8015049616701286, -0.6952767921090638, -0.16375244910676792, 1.2321700678689587, 2.1479565982365507, -12.565987119160338)","(0.0, 0.0035342917346255468, 0.0007853981632501215, -0.005890486224375911, 0.005890486224375911, -0.00510508806112579, 0.009424777959001457, -0.01649336142825255, 0.014529866020127248, 0.0035342917346255468, 0.011388273367126762, -0.009424777959001457, -0.051443579692882956, -0.0070685834692510935, -0.007853981632501214, -0.008639379795751335, 0.0)","(0.0, 0.0, -14.588, 10.884, 0.152, 5.004, 0.076, -2.664, 0.316, 3.62, -16.372, -0.152, -32.456, -0.04, 0.632, 0.1, -20.48)",1345864,1522663356,832634236,robotiq_force_torque_frame_id,-0.670000076294,-0.162000012398,3.14799957275,0.0340000018477,-0.08900000154969999,-0.141000002623,379.0,479.0,621.0,662.0,994.0,61.0,90.0,95.0,428.0,621.0,7,"(0.7566865575765042, -0.16604371150179909, 0.03352683399740461, -0.2661414398864426, 0.9635944117439632, 0.025027133860825803, -0.005309067873824912)",-0.28999996185300003,0.42000007629400005,-0.43999862671,-0.007999997586099997,0.005999997258199996,-0.006999999285000003
1522692156.87,15002,1522663356,845567941,,1363128,1522663354,317418334,,0.7594990417899999,-0.160480687333,0.0298228407393,0.819818599691,0.571581108196,-0.029055710720799998,-0.018661887069200002,0.017646641951599998,-0.034176365154,0.0246224022383,-0.028330359446099997,-0.0328099191279,-0.0388775864143,5.8055367469800006,0.889682412148,7.381143093110001,-0.467073500156,2.4025464057900003,0.0340028479695,1363477,1522663354,305501683,,"['head_nod', 'head_pan', 'left_e0', 'left_e1', 'left_s0', 'left_s1', 'left_w0', 'left_w1', 'left_w2', 'right_e0', 'right_e1', 'right_s0', 'right_s1', 'right_w0', 'right_w1', 'right_w2', 'torso_t0']","(0.0, -0.10085923680346595, -0.9065826456402796, 1.5021506865367915, 0.2791845033951453, 0.6450389213058165, 2.3431556534949696, -0.48742239535059023, -0.03259709174256504, 0.21399031991001521, 1.12210694633818, 0.8015049616701286, -0.6971942680939206, -0.16413594430373926, 1.2321700678689587, 2.147573103039579, -12.565987119160338)","(0.0, -0.0027488935713754254, 0.006675884387626033, 0.007461282550876154, 0.006283185306000972, -0.01021017612225158, 0.0035342917346255468, 0.02042035224450316, -0.003141592653000486, -0.009817477040626518, -0.01767145867312773, -0.009032078877376396, -0.043982297142006806, 0.0011780972448751821, -0.007853981632501214, 0.0007853981632501215, 0.0)","(0.0, 0.0, -14.62, 10.916, 0.216, 4.968, 0.084, -2.676, 0.296, 3.588, -16.252, -0.308, -32.016, -0.032, 0.652, 0.112, -20.48)",1345865,1522663356,844851467,robotiq_force_torque_frame_id,-0.599999904633,-0.201999974251,2.54800109863,0.0370000004768,-0.0799999982119,-0.14499999582800002,379.0,486.0,621.0,667.0,994.0,55.0,85.0,96.0,426.0,621.0,7,"(0.7566865575765042, -0.16604371150179909, 0.03352683399740461, -0.2661414398864426, 0.9635944117439632, 0.025027133860825803, -0.005309067873824912)",0.07000017166100003,-0.039999961853000005,-0.59999847412,0.002999998629099998,0.009000003337799989,-0.003999993205000024
1522692156.87,15003,1522663356,855564117,,1363129,1522663354,327417779,,0.759705025989,-0.15997844261,0.0305803618357,0.8196458742820001,0.5718521226250001,-0.0286800328925,-0.0185269084182,0.026740499010799997,-0.0095070368385,0.0260027454472,-0.0181479904577,-0.0671211492131,0.0342318487387,4.74183654785,0.597528100014,7.536222457889999,-0.331233233213,2.0080192089099995,0.0232668593526,1363479,1522663354,325486458,,"['head_nod', 'head_pan', 'left_e0', 'left_e1', 'left_s0', 'left_s1', 'left_w0', 'left_w1', 'left_w2', 'right_e0', 'right_e1', 'right_s0', 'right_s1', 'right_w0', 'right_w1', 'right_w2', 'torso_t0']","(0.0, -0.1012427320004373, -0.9065826456402796, 1.5013836961428486, 0.2784175130012026, 0.6446554261088451, 2.341621672707084, -0.48857288094150425, -0.03298058693953639, 0.21399031991001521, 1.12210694633818, 0.8015049616701286, -0.6979612584878633, -0.16336895390979655, 1.23255356306593, 2.147573103039579, -12.565987119160338)","(0.0, 0.003926990816250607, -0.011780972448751823, -0.0035342917346255468, -0.01531526418337737, -0.0019634954081253035, -0.01021017612225158, -0.001570796326500243, -0.0019634954081253035, -0.0011780972448751821, -0.009424777959001457, -0.0007853981632501215, -0.03769911183600583, -0.027488935713754253, -0.014922565101752308, -0.02670353755050413, 0.0)","(0.0, 0.0, -14.588, 10.916, 0.248, 4.968, 0.112, -2.656, 0.296, 3.556, -16.012, -0.216, -31.928, -0.024, 0.672, 0.112, -20.48)",1345866,1522663356,852989356,robotiq_force_torque_frame_id,-0.910000085831,-0.721999955177,2.40800170898,0.0280000008643,-0.0689999982715,-0.131999999285,377.0,486.0,619.0,667.0,988.0,47.0,85.0,96.0,426.0,620.0,7,"(0.7566865575765042, -0.16604371150179909, 0.03352683399740461, -0.2661414398864426, 0.9635944117439632, 0.025027133860825803, -0.005309067873824912)",-0.310000181198,-0.519999980926,-0.1399993896499998,-0.0089999996125,0.010999999940400004,0.01299999654300002
1522692156.87,15004,1522663356,869329929,,1363130,1522663354,337419228,,0.760015257621,-0.15910825511,0.0308556328279,0.819703579964,0.571798882745,-0.0278775091455,-0.018839404723099997,0.027961239186999998,0.013341090534700001,0.028309869165599997,0.0222641227458,-0.06665144847780001,0.00477614731657,3.2067792415599996,0.312963724136,8.164227485660001,-0.223717004061,1.4322878122299998,0.021098591387299998,1363480,1522663354,335536721,,"['head_nod', 'head_pan', 'left_e0', 'left_e1', 'left_s0', 'left_s1', 'left_w0', 'left_w1', 'left_w2', 'right_e0', 'right_e1', 'right_s0', 'right_s1', 'right_w0', 'right_w1', 'right_w2', 'torso_t0']","(0.0, -0.10162622719740866, -0.9069661408372509, 1.50176719133982, 0.27880100819817394, 0.6454224165027879, 2.3408546823131413, -0.48742239535059023, -0.033364082136507746, 0.21475731030395792, 1.12210694633818, 0.8015049616701286, -0.6983447536848346, -0.16260196351585385, 1.2317865726719872, 2.1479565982365507, -12.565987119160338)","(0.0, 0.007461282550876154, 0.0007853981632501215, -0.018064157754752792, -0.014922565101752308, -0.009424777959001457, 0.01021017612225158, -0.01060287520387664, -0.006675884387626033, 0.014529866020127248, -0.023954643979128706, -0.00039269908162506076, -0.03220132469325498, 0.004319689897875668, -0.012566370612001944, -0.001570796326500243, 0.0)","(0.0, 0.0, -14.652, 10.916, 0.124, 5.1, 0.084, -2.628, 0.316, 3.62, -15.952, -0.28, -32.336, -0.032, 0.7, 0.12, -20.48)",1345867,1522663356,865208376,robotiq_force_torque_frame_id,-1.7400000095400003,-0.981999945641,2.34800033569,0.0189999993891,-0.0780000016093,-0.123000003397,376.0,484.0,617.0,667.0,988.0,47.0,89.0,101.0,436.0,620.0,7,"(0.7566865575765042, -0.16604371150179909, 0.03352683399740461, -0.2661414398864426, 0.9635944117439632, 0.025027133860825803, -0.005309067873824912)",-0.8299999237090003,-0.259999990464,-0.06000137328999999,-0.009000001475200001,-0.009000003337800003,0.008999995888000004
1522692156.91,15005,1522663356,875592947,,1363131,1522663354,347431137,,0.759930828671,-0.16031050445,0.030553073826900003,0.819913847793,0.571492469018,-0.0283994150861,-0.0181965182541,0.0130842558491,0.0120240824276,0.0287375651791,0.024486636976999997,-0.038440552999199996,-0.00458213690447,2.67154932022,0.33936664462099997,8.844653129580001,-0.240095585585,1.27798104286,0.0339116230607,1363480,1522663354,335536721,,"['head_nod', 'head_pan', 'left_e0', 'left_e1', 'left_s0', 'left_s1', 'left_w0', 'left_w1', 'left_w2', 'right_e0', 'right_e1', 'right_s0', 'right_s1', 'right_w0', 'right_w1', 'right_w2', 'torso_t0']","(0.0, -0.10162622719740866, -0.9069661408372509, 1.50176719133982, 0.27880100819817394, 0.6454224165027879, 2.3408546823131413, -0.48742239535059023, -0.033364082136507746, 0.21475731030395792, 1.12210694633818, 0.8015049616701286, -0.6983447536848346, -0.16260196351585385, 1.2317865726719872, 2.1479565982365507, -12.565987119160338)","(0.0, 0.007461282550876154, 0.0007853981632501215, -0.018064157754752792, -0.014922565101752308, -0.009424777959001457, 0.01021017612225158, -0.01060287520387664, -0.006675884387626033, 0.014529866020127248, -0.023954643979128706, -0.00039269908162506076, -0.03220132469325498, 0.004319689897875668, -0.012566370612001944, -0.001570796326500243, 0.0)","(0.0, 0.0, -14.652, 10.916, 0.124, 5.1, 0.084, -2.628, 0.316, 3.62, -15.952, -0.28, -32.336, -0.032, 0.7, 0.12, -20.48)",1345868,1522663356,873366401,robotiq_force_torque_frame_id,-1.92999994755,-0.622000050545,2.17799835205,0.0309999994934,-0.0790000036359,-0.131999999285,376.0,484.0,617.0,667.0,988.0,41.0,84.0,101.0,436.0,615.0,7,"(0.7566865575765042, -0.16604371150179909, 0.03352683399740461, -0.2661414398864426, 0.9635944117439632, 0.025027133860825803, -0.005309067873824912)",-0.1899999380099997,0.35999989509600006,-0.1700019836400002,0.012000000104300003,-0.0010000020265999998,-0.008999995888000004
1522692156.91,15006,1522663356,885596036,,1363132,1522663354,357429451,,0.76002559858,-0.160004735638,0.0305180674929,0.819664241829,0.5718613041399999,-0.028304895825200002,-0.0180003435175,0.0229200605754,0.006315940467109999,0.033631112933,-0.009841676001629999,-0.0731813353334,0.00974349523833,2.6775560379,0.213322296739,9.18363189697,-0.130755633116,1.3121535778,0.0289031937718,1363480,1522663354,335536721,,"['head_nod', 'head_pan', 'left_e0', 'left_e1', 'left_s0', 'left_s1', 'left_w0', 'left_w1', 'left_w2', 'right_e0', 'right_e1', 'right_s0', 'right_s1', 'right_w0', 'right_w1', 'right_w2', 'torso_t0']","(0.0, -0.10162622719740866, -0.9069661408372509, 1.50176719133982, 0.27880100819817394, 0.6454224165027879, 2.3408546823131413, -0.48742239535059023, -0.033364082136507746, 0.21475731030395792, 1.12210694633818, 0.8015049616701286, -0.6983447536848346, -0.16260196351585385, 1.2317865726719872, 2.1479565982365507, -12.565987119160338)","(0.0, 0.007461282550876154, 0.0007853981632501215, -0.018064157754752792, -0.014922565101752308, -0.009424777959001457, 0.01021017612225158, -0.01060287520387664, -0.006675884387626033, 0.014529866020127248, -0.023954643979128706, -0.00039269908162506076, -0.03220132469325498, 0.004319689897875668, -0.012566370612001944, -0.001570796326500243, 0.0)","(0.0, 0.0, -14.652, 10.916, 0.124, 5.1, 0.084, -2.628, 0.316, 3.62, -15.952, -0.28, -32.336, -0.032, 0.7, 0.12, -20.48)",1345869,1522663356,885601716,robotiq_force_torque_frame_id,-1.7000000476800001,-0.041999888420099996,2.01799850464,0.0410000011325,-0.0790000036359,-0.131999999285,375.0,479.0,608.0,674.0,991.0,41.0,84.0,101.0,448.0,615.0,7,"(0.7566865575765042, -0.16604371150179909, 0.03352683399740461, -0.2661414398864426, 0.9635944117439632, 0.025027133860825803, -0.005309067873824912)",0.2299998998699999,0.5800001621249,-0.15999984740999995,0.010000001639099997,0.0,0.0
1522692156.91,15007,1522663356,895561933,,1363133,1522663354,367429167,,0.7607438661310001,-0.160788301991,0.031100635896299998,0.8199139558480001,0.571536003394,-0.027879186288200002,-0.0176196708921,0.0234468014617,0.0033751012048499995,0.028928099046,0.00196576512922,-0.07324283742530001,0.010456281268899999,3.33198666573,0.372773528099,9.25511550903,-0.24695163965199998,1.5806058645200003,0.020998559892199998,1363483,1522663354,365482438,,"['head_nod', 'head_pan', 'left_e0', 'left_e1', 'left_s0', 'left_s1', 'left_w0', 'left_w1', 'left_w2', 'right_e0', 'right_e1', 'right_s0', 'right_s1', 'right_w0', 'right_w1', 'right_w2', 'torso_t0']","(0.0, -0.1012427320004373, -0.9069661408372509, 1.5013836961428486, 0.2784175130012026, 0.6450389213058165, 2.3420051679040554, -0.48857288094150425, -0.032213596545593685, 0.2132233295160725, 1.1217234511412089, 0.8011214664731573, -0.698728248881806, -0.16375244910676792, 1.231403077475016, 2.147573103039579, -12.565987119160338)","(0.0, -0.003141592653000486, 0.007461282550876154, -0.009424777959001457, 0.008246680714126275, 0.01610066234662749, 0.009817477040626518, 0.001570796326500243, -0.014137166938502187, -0.0047123889795007284, 0.018456856836377853, 0.005890486224375911, -0.056941366835633805, -0.0007853981632501215, -0.034950218264630406, -0.0047123889795007284, 0.0)","(0.0, 0.0, -14.556, 10.916, 0.28, 5.068, 0.084, -2.664, 0.336, 3.68, -16.224, -0.248, -32.924, -0.024, 0.82, 0.12, -20.48)",1345870,1522663356,893735070,robotiq_force_torque_frame_id,-2.16999995708,0.0879999876022,1.8680007934599998,0.0379999987781,-0.0799999982119,-0.123999997973,375.0,479.0,608.0,672.0,991.0,56.0,96.0,104.0,448.0,611.0,7,"(0.7566865575765042, -0.16604371150179909, 0.03352683399740461, -0.2661414398864426, 0.9635944117439632, 0.025027133860825803, -0.005309067873824912)",-0.4699999093999998,0.1299998760223,-0.14999771118000016,-0.003000002354399997,-0.0009999945760000017,0.008000001312000002
1522692156.91,15008,1522663356,905581951,,1363134,1522663354,377414198,,0.761022785182,-0.160195770763,0.0314988458401,0.819954164376,0.571507450228,-0.027080619262599998,-0.017917664916099998,0.0251086527636,-0.026562508221999997,0.0281939375014,-0.0156438702961,-0.059250687556099996,-0.04659343008090001,4.0147871971099995,0.437082141638,9.252536773680001,-0.2759719491,1.87246489525,0.0411757975817,1363484,1522663354,375518336,,"['head_nod', 'head_pan', 'left_e0', 'left_e1', 'left_s0', 'left_s1', 'left_w0', 'left_w1', 'left_w2', 'right_e0', 'right_e1', 'right_s0', 'right_s1', 'right_w0', 'right_w1', 'right_w2', 'torso_t0']","(0.0, -0.10200972239438001, -0.9065826456402796, 1.5021506865367915, 0.2791845033951453, 0.6454224165027879, 2.3420051679040554, -0.48780589054756157, -0.03298058693953639, 0.21399031991001521, 1.12210694633818, 0.800737971276186, -0.6994952392757486, -0.16298545871282522, 1.230636087081073, 2.147573103039579, -12.565987119160338)","(0.0, -0.008639379795751335, 0.009032078877376396, -0.006675884387626033, -0.0019634954081253035, -0.015707963265002428, -0.019242254999627974, -0.03926990816250607, 0.012566370612001944, -0.03220132469325498, -0.0019634954081253035, -0.012173671530376884, -0.04751658887663235, 0.006675884387626033, -0.010995574285501701, 0.01060287520387664, 0.0)","(0.0, 0.0, -14.62, 10.916, 0.152, 5.068, 0.06, -2.656, 0.296, 3.68, -16.312, -0.248, -32.864, -0.016, 0.84, 0.1, -20.48)",1345871,1522663356,901879937,robotiq_force_torque_frame_id,-3.0199999809299998,-0.39200003147100004,2.04800109863,0.0250000003725,-0.054999999702,-0.115999996662,381.0,482.0,605.0,672.0,1009.0,43.0,96.0,104.0,441.0,608.0,7,"(0.7566865575765042, -0.16604371150179909, 0.03352683399740461, -0.2661414398864426, 0.9635944117439632, 0.025027133860825803, -0.005309067873824912)",-0.8500000238499998,-0.48000001907320006,0.1800003051700001,-0.0129999984056,0.0249999985099,0.008000001310999996
1522692156.95,15009,1522663356,915585994,,1363135,1522663354,387422527,,0.7613809458059999,-0.160343533866,0.0320835309124,0.8200153824690001,0.5714431015879999,-0.026921702975,-0.0174004617855,0.0126449931779,0.00833982705617,0.027551295746499997,0.0250293765062,-0.042552896984,-0.011978067378,4.29403162003,0.46065515279799996,9.20617771149,-0.27186268568000005,1.9689751863499998,0.0175364911556,539091,1522663354,388999936,,['r_gripper_l_finger_joint'],"(0.0013886665838956833,)","(0.0,)","(0.2946236729621887,)",1345872,1522663356,914091398,robotiq_force_torque_frame_id,-3.4399999976199997,-0.5519998788830001,2.02800064087,0.0020000000949900003,-0.0179999992251,-0.11699999868899999,381.0,473.0,605.0,671.0,1009.0,43.0,101.0,111.0,443.0,608.0,7,"(0.7566865575765042, -0.16604371150179909, 0.03352683399740461, -0.2661414398864426, 0.9635944117439632, 0.025027133860825803, -0.005309067873824912)",-0.42000001669,-0.15999984741200002,-0.0200004577599997,-0.02300000027751,0.0370000004769,-0.0010000020269999854
1522692156.95,15010,1522663356,925609111,,1363136,1522663354,397429356,,0.761202942055,-0.160762847259,0.0324276575539,0.820076306293,0.571354305253,-0.0269616303162,-0.017383331549,0.009420049116799998,-0.00679408392299,0.034794533262300004,-0.009348424451770001,-0.0293992835504,-0.00499275624395,4.03374385834,0.514234423637,8.99786472321,-0.238178446889,1.8528211116799997,0.0457348003983,539091,1522663354,388999936,,['r_gripper_l_finger_joint'],"(0.0013886665838956833,)","(0.0,)","(0.2946236729621887,)",1345873,1522663356,922228531,robotiq_force_torque_frame_id,-3.44999998808,-0.951999974251,1.30799942017,-0.0130000002682,-0.0120000001043,-0.112000003457,379.0,473.0,606.0,671.0,999.0,52.0,101.0,111.0,443.0,598.0,7,"(0.7566865575765042, -0.16604371150179909, 0.03352683399740461, -0.2661414398864426, 0.9635944117439632, 0.025027133860825803, -0.005309067873824912)",-0.00999999046000033,-0.40000009536799996,-0.7200012207000002,-0.01500000036319,0.005999999120800001,0.004999995231999996
1522692156.95,15011,1522663356,935606002,,1363137,1522663354,407432193,,0.761226433303,-0.160425232475,0.0328300298049,0.8200895759479999,0.571337426114,-0.0269846374656,-0.0172760610296,0.00723938424021,0.0077672142610699995,0.035141934222,0.00023189100194499998,-0.023262059285,0.00856033109338,3.36026620865,0.469643563032,8.79065322876,-0.257906228304,1.53903222084,0.024379551410699998,539091,1522663354,388999936,,['r_gripper_l_finger_joint'],"(0.0013886665838956833,)","(0.0,)","(0.2946236729621887,)",1345874,1522663356,934426665,robotiq_force_torque_frame_id,-3.02999997139,-1.17200000286,0.9080017089839999,-0.0209999997169,0.0,-0.101000003517,377.0,486.0,606.0,662.0,996.0,52.0,101.0,109.0,442.0,598.0,7,"(0.7566865575765042, -0.16604371150179909, 0.03352683399740461, -0.2661414398864426, 0.9635944117439632, 0.025027133860825803, -0.005309067873824912)",0.42000001669,-0.22000002860899992,-0.39999771118600014,-0.0079999994487,0.0120000001043,0.010999999939999991
1522692156.95,15012,1522663356,945580959,,1363138,1522663354,417421835,,0.761230650592,-0.159797166467,0.033006453658,0.8194817729739999,0.572210999554,-0.0268936711953,-0.0173472246422,0.026404992985099997,0.020472325499900003,0.052360511782200005,0.0117189379162,-0.067791685687,0.0366115902925,2.5177531242400004,0.317644834518,8.71470069885,-0.233214437962,1.16988956928,0.027121461927900003,1363488,1522663354,415475622,,"['head_nod', 'head_pan', 'left_e0', 'left_e1', 'left_s0', 'left_s1', 'left_w0', 'left_w1', 'left_w2', 'right_e0', 'right_e1', 'right_s0', 'right_s1', 'right_w0', 'right_w1', 'right_w2', 'torso_t0']","(0.0, -0.10162622719740866, -0.9065826456402796, 1.50176719133982, 0.2784175130012026, 0.6450389213058165, 2.341621672707084, -0.48703890015361884, -0.03298058693953639, 0.21437381510698658, 1.12210694633818, 0.8015049616701286, -0.7017962104575768, -0.16375244910676792, 1.2321700678689587, 2.147189607842608, -12.565987119160338)","(0.0, -0.0023561944897503642, 0.010995574285501701, -0.006675884387626033, 0.0, 0.007461282550876154, -0.022776546734253524, 0.019634954081253035, -0.0007853981632501215, 0.023169245815878585, -0.028667032958629435, 0.011780972448751823, -0.06558074663138515, -0.0070685834692510935, 0.027488935713754253, -0.011388273367126762, 0.0)","(0.0, 0.0, -14.556, 11.012, 0.248, 5.004, 0.112, -2.724, 0.316, 3.648, -16.044, -0.184, -32.66, -0.024, 0.7, 0.1, -20.48)",1345875,1522663356,942577340,robotiq_force_torque_frame_id,-3.0500000119200004,-1.2320001840600001,0.36800079345700004,-0.008000000379979999,-0.0040000001899899995,-0.108999997377,377.0,486.0,607.0,662.0,996.0,55.0,93.0,109.0,442.0,606.0,7,"(0.7566865575765042, -0.16604371150179909, 0.03352683399740461, -0.2661414398864426, 0.9635944117439632, 0.025027133860825803, -0.005309067873824912)",-0.020000040530000263,-0.06000018120000017,-0.5400009155269998,0.01299999933692,-0.0040000001899899995,-0.007999993859999999
1522692156.96,15013,1522663356,955570936,,1363139,1522663354,427416344,,0.762224030503,-0.16050906447799998,0.0335479020912,0.819815509596,0.571784468469,-0.026198960330000003,-0.016693301655700002,0.011816246398799999,0.000949561410225,0.024090653540000003,-0.018888179169999998,-0.0300993365162,0.020511194186,2.4541704654700003,0.37239956855800005,8.58768367767,-0.277333796024,1.1481313705399998,-0.00166860967875,539092,1522663354,430000128,,['l_gripper_l_finger_joint'],"(0.0032494800670444966,)","(0.0,)","(0.0,)",1345876,1522663356,954780433,robotiq_force_torque_frame_id,-2.9800000190700002,-1.4919999361,0.5480010986330001,0.0,-0.0179999992251,-0.123000003397,383.0,484.0,615.0,643.0,994.0,55.0,93.0,122.0,464.0,597.0,7,"(0.7566865575765042, -0.16604371150179909, 0.03352683399740461, -0.2661414398864426, 0.9635944117439632, 0.025027133860825803, -0.005309067873824912)",0.06999999285000014,-0.2599997520399999,0.18000030517600002,0.008000000379979999,-0.01399999903511,-0.014000006019999997
1522692156.97,15014,1522663356,969039916,,1363140,1522663354,437431577,,0.761838969138,-0.160523636137,0.0336513106883,0.820019872071,0.571477744677,-0.0263413915711,-0.0169330398191,0.025425917858099997,-0.019329241906,0.0225077851682,-0.00663082294058,-0.05236961492119999,-0.0549320515311,2.19396018982,0.12081053107999999,8.71891307831,-0.130180582404,1.0495438575700002,0.043595485389199995,539093,1522663354,439000064,,['r_gripper_l_finger_joint'],"(0.0013886665838956833,)","(0.0,)","(0.30215054750442505,)",1345877,1522663356,962921031,robotiq_force_torque_frame_id,-2.67999994755,-1.5820000886899999,2.16800003052,0.016000000759999997,-0.052999999374199996,-0.134000003338,383.0,459.0,615.0,641.0,976.0,55.0,87.0,117.0,473.0,597.0,7,"(0.7566865575765042, -0.16604371150179909, 0.03352683399740461, -0.2661414398864426, 0.9635944117439632, 0.025027133860825803, -0.005309067873824912)",0.3000000715200004,-0.09000015258999983,1.6199989318869998,0.016000000759999997,-0.0350000001491,-0.010999999940999997
1522692156.98,15015,1522663356,975608110,,1363141,1522663354,447421203,,0.762267346655,-0.159565377142,0.034183751431299994,0.819960320648,0.571592224108,-0.025622297648099996,-0.017055783902,0.011049620071700001,-0.00931994601649,0.0130957322995,0.018468814221900002,-0.0317240485494,-0.0248430274767,2.90640687943,0.309471309185,8.60861587524,-0.249582618475,1.3545064926100001,0.011081755161299998,539093,1522663354,439000064,,['r_gripper_l_finger_joint'],"(0.0013886665838956833,)","(0.0,)","(0.30215054750442505,)",1345878,1522663356,975133642,robotiq_force_torque_frame_id,-2.46000003815,-1.79200012684,3.19799880981,0.0560000017285,-0.10000000149,-0.136000007391,380.0,459.0,614.0,641.0,976.0,39.0,83.0,117.0,473.0,609.0,7,"(0.7566865575765042, -0.16604371150179909, 0.03352683399740461, -0.2661414398864426, 0.9635944117439632, 0.025027133860825803, -0.005309067873824912)",0.2199999093999998,-0.21000003815000023,1.02999877929,0.040000000968499996,-0.04700000211580001,-0.002000004052999993
1522692156.99,15016,1522663356,985601902,,1363142,1522663354,457428362,,0.7618100169750001,-0.160591629487,0.0340707441981,0.819887173696,0.571672433003,-0.026343448295499998,-0.016783160770100003,0.0255398386936,-0.015264572739600002,0.040839036861,0.00353978090991,-0.06890808529010001,-0.017753306134,3.9480118751499997,0.537743270397,8.493148803710001,-0.334100008011,1.7545683383900001,0.00873892754316,539093,1522663354,439000064,,['r_gripper_l_finger_joint'],"(0.0013886665838956833,)","(0.0,)","(0.30215054750442505,)",1345879,1522663356,983272051,robotiq_force_torque_frame_id,-2.8299999833099996,-2.0319998979599996,3.43800048828,0.0480000004172,-0.10599999874800001,-0.131999999285,380.0,475.0,614.0,620.0,971.0,39.0,83.0,117.0,460.0,609.0,7,"(0.7566865575765042, -0.16604371150179909, 0.03352683399740461, -0.2661414398864426, 0.9635944117439632, 0.025027133860825803, -0.005309067873824912)",-0.36999994515999957,-0.23999977111999948,0.2400016784700001,-0.0080000013113,-0.005999997258000003,0.004000008105999986
1522692157.0,15017,1522663356,995767116,,1363143,1522663354,467420968,,0.762139072501,-0.159607564946,0.03434222737,0.819607199728,0.5721065902100001,-0.0257476955848,-0.0165874580454,-0.007111624318779999,-0.0151580455192,0.014633526481000001,-0.0322853954194,0.0012508746071700002,-0.005051092372109999,5.387843608860001,0.59489095211,8.13827133179,-0.308757334948,2.35440278053,0.047575466334800004,1363493,1522663354,465483091,,"['head_nod', 'head_pan', 'left_e0', 'left_e1', 'left_s0', 'left_s1', 'left_w0', 'left_w1', 'left_w2', 'right_e0', 'right_e1', 'right_s0', 'right_s1', 'right_w0', 'right_w1', 'right_w2', 'torso_t0']","(0.0, -0.10085923680346595, -0.9061991504433081, 1.50176719133982, 0.2784175130012026, 0.6450389213058165, 2.3423886631010267, -0.48742239535059023, -0.03298058693953639, 0.21475731030395792, 1.1224904415351515, 0.8015049616701286, -0.7040971816394049, -0.16413594430373926, 1.231403077475016, 2.1479565982365507, -12.565987119160338)","(0.0, -0.010995574285501701, 0.013744467856877126, 0.01531526418337737, 0.008246680714126275, 0.006283185306000972, 0.0200276531628781, -0.011388273367126762, 0.0007853981632501215, -0.006283185306000972, 0.03652101459113065, -0.001570796326500243, -0.04162610265225644, -0.02120575040775328, 0.012173671530376884, 0.013744467856877126, 0.0)","(0.0, 0.0, -14.652, 10.916, 0.308, 5.004, 0.076, -2.648, 0.324, 3.62, -16.284, -0.28, -32.104, -0.032, 0.74, 0.1, -20.48)",1345880,1522663356,995483768,robotiq_force_torque_frame_id,-2.8899999856900003,-1.85200006962,3.02800064087,0.0260000005364,-0.0710000023246,-0.136999994516,385.0,475.0,613.0,620.0,971.0,46.0,87.0,117.0,460.0,607.0,7,"(0.7566865575765042, -0.16604371150179909, 0.03352683399740461, -0.2661414398864426, 0.9635944117439632, 0.025027133860825803, -0.005309067873824912)",-0.060000002380000694,0.1799998283399995,-0.40999984740999995,-0.021999999880799998,0.0349999964234,-0.004999995231000004
1522692157.01,15018,1522663357,5569934,,1363144,1522663354,477425046,,0.7620849740600001,-0.159491563629,0.0346235599866,0.8199779668899999,0.5715695856090001,-0.025483301034,-0.0171739334298,0.0007191725927869998,0.0182815778365,0.0268956082215,-0.00205613833897,-0.0175313301638,0.027991809005200003,5.96975469589,0.807837545872,7.9189286232,-0.36453953385399995,2.58046913147,0.0407368019223,1363494,1522663354,475534121,,"['head_nod', 'head_pan', 'left_e0', 'left_e1', 'left_s0', 'left_s1', 'left_w0', 'left_w1', 'left_w2', 'right_e0', 'right_e1', 'right_s0', 'right_s1', 'right_w0', 'right_w1', 'right_w2', 'torso_t0']","(0.0, -0.1012427320004373, -0.9061991504433081, 1.50176719133982, 0.2795679985921167, 0.6446554261088451, 2.3423886631010267, -0.48857288094150425, -0.03298058693953639, 0.2151408055009293, 1.1224904415351515, 0.800737971276186, -0.7044806768363763, -0.16298545871282522, 1.2317865726719872, 2.148340093433522, -12.565987119160338)","(0.0, 0.005497787142750851, 0.01688606050987761, 0.021598449489378342, 0.009424777959001457, 0.023954643979128706, 0.0019634954081253035, 0.003141592653000486, -0.0047123889795007284, -0.0011780972448751821, 0.011780972448751823, 0.027488935713754253, -0.04790928795825741, 0.004319689897875668, 0.018456856836377853, -0.0007853981632501215, 0.0)","(0.0, 0.0, -14.62, 10.852, 0.216, 5.004, 0.084, -2.648, 0.316, 3.712, -16.312, -0.216, -31.928, -0.024, 0.732, 0.128, -20.48)",1345881,1522663357,3629795,robotiq_force_torque_frame_id,-2.60000002384,-1.28199989796,2.3079994201700003,0.0189999993891,-0.0560000017285,-0.146999999881,382.0,483.0,613.0,616.0,974.0,46.0,87.0,128.0,450.0,601.0,7,"(0.7566865575765042, -0.16604371150179909, 0.03352683399740461, -0.2661414398864426, 0.9635944117439632, 0.025027133860825803, -0.005309067873824912)",0.28999996185000043,0.57000017166,-0.7200012206999999,-0.007000001147300001,0.015000000596100009,-0.010000005364999981
1522692157.05,15019,1522663357,15680074,,1363144,1522663354,477425046,,0.7620849740600001,-0.159491563629,0.0346235599866,0.8199779668899999,0.5715695856090001,-0.025483301034,-0.0171739334298,0.0007191725927869998,0.0182815778365,0.0268956082215,-0.00205613833897,-0.0175313301638,0.027991809005200003,5.96975469589,0.807837545872,7.9189286232,-0.36453953385399995,2.58046913147,0.0407368019223,539094,1522663354,480000000,,['l_gripper_l_finger_joint'],"(0.0032494800670444966,)","(0.0,)","(0.0,)",1345882,1522663357,11770287,robotiq_force_torque_frame_id,-2.5,-1.1620000123999998,2.61800079346,0.008000000379979999,-0.0399999991059,-0.148000001907,382.0,470.0,609.0,613.0,974.0,50.0,90.0,121.0,450.0,601.0,7,"(0.38829058205682443, -0.8161681509245794, 0.13683103169809008, 0.9999377972961766, -0.004352227397900865, -0.009388168303921657, 0.004161964805750738)",0.10000002383999984,0.11999988556000019,0.31000137328999955,-0.01099999900912,0.0160000026226,-0.0010000020260000075
1522692157.05,15020,1522663357,25605916,,1363145,1522663354,487415306,,0.761716720326,-0.160521473681,0.0348035281025,0.8202942947190001,0.571082996007,-0.026283255649299998,-0.017049111268,0.014821657113600001,-0.000881263163322,0.0251580706926,0.0151760388341,-0.0325571598865,-0.00886031140651,5.56568336487,0.69133746624,7.679708004,-0.318586170673,2.3690769672400003,0.042199909687,539095,1522663354,488999936,,['r_gripper_l_finger_joint'],"(0.0013886665838956833,)","(0.0,)","(0.2946236729621887,)",1345883,1522663357,23972661,robotiq_force_torque_frame_id,-2.29999995232,-0.9919999361040001,2.5680015564,0.0040000001899899995,-0.046999998390699994,-0.145999997854,379.0,470.0,609.0,609.0,980.0,57.0,90.0,121.0,450.0,604.0,7,"(0.38829058205682443, -0.8161681509245794, 0.13683103169809008, 0.9999377972961766, -0.004352227397900865, -0.009388168303921657, 0.004161964805750738)",0.20000004768000013,0.17000007629599978,-0.04999923705999976,-0.0040000001899899995,-0.006999999284799996,0.002000004052999993
1522692157.05,15021,1522663357,35577058,,1363146,1522663354,497428668,,0.762493601637,-0.160315706424,0.0353591855936,0.819856272197,0.57176780724,-0.0257247783443,-0.015984471263,0.0182800979106,0.0030888668449200003,0.037430401117199995,-0.0119830955211,-0.05088205084340001,0.0116570871577,5.06804895401,0.532529115677,7.536205291749999,-0.235430955887,2.16829109192,0.0346073508263,539095,1522663354,488999936,,['r_gripper_l_finger_joint'],"(0.0013886665838956833,)","(0.0,)","(0.2946236729621887,)",1345884,1522663357,32116011,robotiq_force_torque_frame_id,-2.46000003815,-0.662000012398,2.4479988098099996,0.0140000004321,-0.057000000029800005,-0.146999999881,379.0,484.0,576.0,609.0,980.0,57.0,89.0,120.0,447.0,604.0,7,"(0.38829058205682443, -0.8161681509245794, 0.13683103169809008, 0.9999377972961766, -0.004352227397900865, -0.009388168303921657, 0.004161964805750738)",-0.16000008583000014,0.32999992370600006,-0.12000274659000043,0.01000000024211,-0.01000000163910001,-0.0010000020269999854
1522692157.09,15022,1522663357,45634031,,1363146,1522663354,497428668,,0.762493601637,-0.160315706424,0.0353591855936,0.819856272197,0.57176780724,-0.0257247783443,-0.015984471263,0.0182800979106,0.0030888668449200003,0.037430401117199995,-0.0119830955211,-0.05088205084340001,0.0116570871577,5.06804895401,0.532529115677,7.536205291749999,-0.235430955887,2.16829109192,0.0346073508263,539095,1522663354,488999936,,['r_gripper_l_finger_joint'],"(0.0013886665838956833,)","(0.0,)","(0.2946236729621887,)",1345885,1522663357,44331377,robotiq_force_torque_frame_id,-2.25999999046,-0.582000088692,3.07799987793,0.0170000009239,-0.07199999690060001,-0.165000006557,377.0,484.0,576.0,602.0,989.0,71.0,96.0,120.0,447.0,606.0,7,"(0.38829058205682443, -0.8161681509245794, 0.13683103169809008, 0.9999377972961766, -0.004352227397900865, -0.009388168303921657, 0.004161964805750738)",0.20000004769000013,0.07999992370599995,0.6300010681200003,0.0030000004917999992,-0.014999996870800003,-0.01800000667600002
1522692157.09,15023,1522663357,55584907,,1363147,1522663354,507421021,,0.762306587098,-0.160306243643,0.03501311588869999,0.820089957658,0.571422670501,-0.0258013959485,-0.0162136039333,0.028143999479,0.009705850287639999,0.0429438597516,-0.0159959561013,-0.07528016012699999,0.0265577743212,3.8492207527199995,0.465448915958,7.65834236145,-0.18187624216099998,1.6554017067,0.0395738556981,539095,1522663354,488999936,,['r_gripper_l_finger_joint'],"(0.0013886665838956833,)","(0.0,)","(0.2946236729621887,)",1345886,1522663357,52483528,robotiq_force_torque_frame_id,-1.20000004768,-1.4319999933200003,3.35799865723,0.0480000004172,-0.097999997437,-0.170000001788,376.0,498.0,600.0,606.0,1000.0,71.0,96.0,115.0,456.0,606.0,7,"(0.38829058205682443, -0.8161681509245794, 0.13683103169809008, 0.9999377972961766, -0.004352227397900865, -0.009388168303921657, 0.004161964805750738)",1.05999994278,-0.8499999046280002,0.27999877930000006,0.0309999994933,-0.02600000053639999,-0.004999995231000004
1522692157.09,15024,1522663357,65572977,,1363148,1522663354,517421503,,0.76201708515,-0.159591357988,0.035551504613900005,0.819758350753,0.571885185282,-0.0258004111246,-0.0166709331171,0.009011249472379999,0.0148940527706,0.0153986186676,0.0166813581895,-0.0175390707873,-0.00699963193439,3.3541033268000002,0.28249549865699997,7.88780403137,-0.21040627360300002,1.44793212414,0.0179255306721,1363497,1522663354,505527839,,"['head_nod', 'head_pan', 'left_e0', 'left_e1', 'left_s0', 'left_s1', 'left_w0', 'left_w1', 'left_w2', 'right_e0', 'right_e1', 'right_s0', 'right_s1', 'right_w0', 'right_w1', 'right_w2', 'torso_t0']","(0.0, -0.10162622719740866, -0.9069661408372509, 1.5021506865367915, 0.27880100819817394, 0.6442719309118737, 2.3420051679040554, -0.48857288094150425, -0.03298058693953639, 0.21360682471304387, 1.1224904415351515, 0.8015049616701286, -0.705247667230319, -0.16375244910676792, 1.2321700678689587, 2.148723588630493, -12.565987119160338)","(0.0, 0.007853981632501214, -0.005497787142750851, -0.018849555918002914, 0.0011780972448751821, 0.004319689897875668, -0.0007853981632501215, 0.007461282550876154, 0.023169245815878585, -0.008639379795751335, -0.019242254999627974, 0.028667032958629435, -0.05929756132538417, -0.013744467856877126, 0.005890486224375911, -0.0011780972448751821, 0.0)","(0.0, 0.0, -14.62, 10.884, 0.34, 5.068, 0.076, -2.656, 0.316, 3.712, -16.012, -0.248, -31.928, -0.024, 0.612, 0.12, -20.48)",1345887,1522663357,64683658,robotiq_force_torque_frame_id,-0.5599999427800001,-0.771999907494,3.58799819946,0.04500000178809999,-0.10599999874800001,-0.173999994993,376.0,498.0,600.0,625.0,1000.0,77.0,90.0,127.0,456.0,601.0,7,"(0.38829058205682443, -0.8161681509245794, 0.13683103169809008, 0.9999377972961766, -0.004352227397900865, -0.009388168303921657, 0.004161964805750738)",0.6400001048999998,0.6600000858260002,0.22999954222999985,-0.002999998629100005,-0.00800000131100001,-0.0039999932049999964
1522692157.09,15025,1522663357,75651884,,1363148,1522663354,517421503,,0.76201708515,-0.159591357988,0.035551504613900005,0.819758350753,0.571885185282,-0.0258004111246,-0.0166709331171,0.009011249472379999,0.0148940527706,0.0153986186676,0.0166813581895,-0.0175390707873,-0.00699963193439,3.3541033268000002,0.28249549865699997,7.88780403137,-0.21040627360300002,1.44793212414,0.0179255306721,1363499,1522663354,525512515,,"['head_nod', 'head_pan', 'left_e0', 'left_e1', 'left_s0', 'left_s1', 'left_w0', 'left_w1', 'left_w2', 'right_e0', 'right_e1', 'right_s0', 'right_s1', 'right_w0', 'right_w1', 'right_w2', 'torso_t0']","(0.0, -0.10085923680346595, -0.9069661408372509, 1.50176719133982, 0.2791845033951453, 0.6450389213058165, 2.341621672707084, -0.48742239535059023, -0.03183010134862233, 0.21437381510698658, 1.12210694633818, 0.8015049616701286, -0.7060146576242616, -0.16298545871282522, 1.2321700678689587, 2.148340093433522, -12.565987119160338)","(0.0, -0.009817477040626518, -0.011388273367126762, 0.0023561944897503642, 0.0019634954081253035, -0.004319689897875668, 0.014922565101752308, 0.028274333877004374, -0.005497787142750851, 0.003141592653000486, 0.014137166938502187, 0.003141592653000486, -0.0530143760193832, -0.009424777959001457, -0.007853981632501214, 0.005497787142750851, 0.0)","(0.0, 0.0, -14.62, 10.852, 0.152, 5.068, 0.076, -2.696, 0.336, 3.588, -16.012, -0.216, -32.192, -0.008, 0.652, 0.1, -20.48)",1345888,1522663357,72829107,robotiq_force_torque_frame_id,-0.619999885559,0.0380000352859,3.39799957275,0.035999998450300004,-0.11500000208599999,-0.17700000107299999,381.0,493.0,614.0,625.0,997.0,78.0,90.0,127.0,455.0,608.0,7,"(0.38829058205682443, -0.8161681509245794, 0.13683103169809008, 0.9999377972961766, -0.004352227397900865, -0.009388168303921657, 0.004161964805750738)",-0.05999994277899989,0.8099999427799001,-0.18999862671,-0.009000003337799989,-0.009000003337999982,-0.0030000060799999784
1522692157.13,15026,1522663357,85589885,,1363150,1522663354,537415706,,0.762986999463,-0.160292296511,0.036223578789999995,0.819894588624,0.57175321109,-0.0249984268762,-0.0156910103592,0.0217451356519,-0.00485227667232,0.024112865013900003,0.013245942932,-0.0540282627356,-0.013867223774899998,4.26333475113,0.46864962577799996,7.92020082474,-0.21880081296,1.86440503597,0.023469433188400002,1363499,1522663354,525512515,,"['head_nod', 'head_pan', 'left_e0', 'left_e1', 'left_s0', 'left_s1', 'left_w0', 'left_w1', 'left_w2', 'right_e0', 'right_e1', 'right_s0', 'right_s1', 'right_w0', 'right_w1', 'right_w2', 'torso_t0']","(0.0, -0.10085923680346595, -0.9069661408372509, 1.50176719133982, 0.2791845033951453, 0.6450389213058165, 2.341621672707084, -0.48742239535059023, -0.03183010134862233, 0.21437381510698658, 1.12210694633818, 0.8015049616701286, -0.7060146576242616, -0.16298545871282522, 1.2321700678689587, 2.148340093433522, -12.565987119160338)","(0.0, -0.009817477040626518, -0.011388273367126762, 0.0023561944897503642, 0.0019634954081253035, -0.004319689897875668, 0.014922565101752308, 0.028274333877004374, -0.005497787142750851, 0.003141592653000486, 0.014137166938502187, 0.003141592653000486, -0.0530143760193832, -0.009424777959001457, -0.007853981632501214, 0.005497787142750851, 0.0)","(0.0, 0.0, -14.62, 10.852, 0.152, 5.068, 0.076, -2.696, 0.336, 3.588, -16.012, -0.216, -32.192, -0.008, 0.652, 0.1, -20.48)",1345889,1522663357,85033915,robotiq_force_torque_frame_id,-0.210000038147,0.827999997139,2.58799819946,0.04500000178809999,-0.10000000149,-0.17700000107299999,375.0,493.0,614.0,631.0,997.0,78.0,89.0,125.0,458.0,608.0,7,"(0.38829058205682443, -0.8161681509245794, 0.13683103169809008, 0.9999377972961766, -0.004352227397900865, -0.009388168303921657, 0.004161964805750738)",0.409999847412,0.7899999618531,-0.81000137329,0.009000003337799989,0.015000000595999985,0.0
1522692157.13,15027,1522663357,95659017,,1363151,1522663354,547420468,,0.762874661562,-0.160713013822,0.0362092865741,0.820111384235,0.5714305692580001,-0.0251847545027,-0.0158161343571,0.010030554275299999,-0.012566196263299998,0.0226634870427,-0.0139932600086,-0.035584799906000004,-0.0025466544285300003,4.8170752525300005,0.72629660368,7.688374996189999,-0.429609745741,2.0733227729799997,-0.0117709338665,1363500,1522663354,535491844,,"['head_nod', 'head_pan', 'left_e0', 'left_e1', 'left_s0', 'left_s1', 'left_w0', 'left_w1', 'left_w2', 'right_e0', 'right_e1', 'right_s0', 'right_s1', 'right_w0', 'right_w1', 'right_w2', 'torso_t0']","(0.0, -0.1012427320004373, -0.9073496360342223, 1.5025341817337627, 0.2784175130012026, 0.6446554261088451, 2.3423886631010267, -0.48742239535059023, -0.03298058693953639, 0.21360682471304387, 1.1224904415351515, 0.8015049616701286, -0.7071651432151758, -0.16375244910676792, 1.2321700678689587, 2.1479565982365507, -12.565987119160338)","(0.0, 0.0070685834692510935, 0.0070685834692510935, -0.00039269908162506076, -0.00039269908162506076, 0.0, 0.021991148571003403, 0.013351768775252066, -0.009032078877376396, -0.005890486224375911, -0.003926990816250607, -0.010995574285501701, -0.03730641275438077, 0.013744467856877126, -0.01610066234662749, -0.0070685834692510935, 0.0)","(0.0, 0.0, -14.652, 10.916, 0.248, 5.068, 0.068, -2.676, 0.296, 3.62, -16.132, -0.28, -32.016, -0.008, 0.66, 0.12, -20.48)",1345890,1522663357,93174800,robotiq_force_torque_frame_id,-1.4100000858300001,1.42800002098,1.7379997253400001,0.0340000018477,-0.0839999988675,-0.17499999702,377.0,493.0,621.0,631.0,998.0,71.0,92.0,125.0,458.0,617.0,7,"(0.38829058205682443, -0.8161681509245794, 0.13683103169809008, 0.9999377972961766, -0.004352227397900865, -0.009388168303921657, 0.004161964805750738)",-1.2000000476830002,0.6000000238409999,-0.8499984741199997,-0.01099999994039999,0.01600000262250001,0.002000004052999993
1522692157.13,15028,1522663357,106292963,,1363151,1522663354,547420468,,0.762874661562,-0.160713013822,0.0362092865741,0.820111384235,0.5714305692580001,-0.0251847545027,-0.0158161343571,0.010030554275299999,-0.012566196263299998,0.0226634870427,-0.0139932600086,-0.035584799906000004,-0.0025466544285300003,4.8170752525300005,0.72629660368,7.688374996189999,-0.429609745741,2.0733227729799997,-0.0117709338665,1363502,1522663354,555489960,,"['head_nod', 'head_pan', 'left_e0', 'left_e1', 'left_s0', 'left_s1', 'left_w0', 'left_w1', 'left_w2', 'right_e0', 'right_e1', 'right_s0', 'right_s1', 'right_w0', 'right_w1', 'right_w2', 'torso_t0']","(0.0, -0.10162622719740866, -0.9065826456402796, 1.5021506865367915, 0.27880100819817394, 0.6446554261088451, 2.3420051679040554, -0.4881893857445329, -0.03298058693953639, 0.21360682471304387, 1.12210694633818, 0.8018884568671001, -0.7075486384121471, -0.16298545871282522, 1.231403077475016, 2.148340093433522, -12.565987119160338)","(0.0, -0.004319689897875668, 0.003141592653000486, -0.005890486224375911, 0.0, 0.014922565101752308, -0.009032078877376396, -0.009424777959001457, 0.0007853981632501215, 0.009424777959001457, -0.0011780972448751821, -0.01649336142825255, -0.014922565101752308, 0.00039269908162506076, -0.006283185306000972, 0.0027488935713754254, 0.0)","(0.0, 0.0, -14.62, 10.98, 0.152, 5.1, 0.084, -2.648, 0.308, 3.556, -16.132, -0.308, -31.724, -0.048, 0.68, 0.12, -20.48)",1345891,1522663357,105409121,robotiq_force_torque_frame_id,-2.72000002861,-0.0319998979568,1.4780014038100002,0.0219999998808,-0.082999996841,-0.148000001907,376.0,482.0,600.0,621.0,991.0,71.0,92.0,126.0,453.0,617.0,7,"(0.38829058205682443, -0.8161681509245794, 0.13683103169809008, 0.9999377972961766, -0.004352227397900865, -0.009388168303921657, 0.004161964805750738)",-1.3099999427799998,-1.4599999189367998,-0.2599983215299999,-0.0120000019669,0.0010000020264999965,0.026999995112999997
