time,.header.seq,.header.stamp.secs,.header.stamp.nsecs,.header.frame_id,.endpoint_state.header.seq,.endpoint_state.header.stamp.secs,.endpoint_state.header.stamp.nsecs,.endpoint_state.header.frame_id,.endpoint_state.pose.position.x,.endpoint_state.pose.position.y,.endpoint_state.pose.position.z,.endpoint_state.pose.orientation.x,.endpoint_state.pose.orientation.y,.endpoint_state.pose.orientation.z,.endpoint_state.pose.orientation.w,.endpoint_state.twist.linear.x,.endpoint_state.twist.linear.y,.endpoint_state.twist.linear.z,.endpoint_state.twist.angular.x,.endpoint_state.twist.angular.y,.endpoint_state.twist.angular.z,.endpoint_state.wrench.force.x,.endpoint_state.wrench.force.y,.endpoint_state.wrench.force.z,.endpoint_state.wrench.torque.x,.endpoint_state.wrench.torque.y,.endpoint_state.wrench.torque.z,.joint_state.header.seq,.joint_state.header.stamp.secs,.joint_state.header.stamp.nsecs,.joint_state.header.frame_id,.joint_state.name,.joint_state.position,.joint_state.velocity,.joint_state.effort,.wrench_stamped.header.seq,.wrench_stamped.header.stamp.secs,.wrench_stamped.header.stamp.nsecs,.wrench_stamped.header.frame_id,.wrench_stamped.wrench.force.x,.wrench_stamped.wrench.force.y,.wrench_stamped.wrench.force.z,.wrench_stamped.wrench.torque.x,.wrench_stamped.wrench.torque.y,.wrench_stamped.wrench.torque.z,.tactile_values.tactile_values_0,.tactile_values.tactile_values_1,.tactile_values.tactile_values_2,.tactile_values.tactile_values_3,.tactile_values.tactile_values_4,.tactile_values.tactile_values_5,.tactile_values.tactile_values_6,.tactile_values.tactile_values_7,.tactile_values.tactile_values_8,.tactile_values.tactile_values_9,.tag,.goal_vector,.delta_wrench.force.x,.delta_wrench.force.y,.delta_wrench.force.z,.delta_wrench.torque.x,.delta_wrench.torque.y,.delta_wrench.torque.z
1522690846.34,14087,1522662046,338730096,,1232080,1522662043,836496494,,0.604869286407,-0.161371527006,0.10532420032199999,0.163713511936,0.9859897901729999,0.00667777701051,0.031263828605900004,0.018656912136400004,0.0166896465766,-0.0204257215615,0.024015250670599998,-0.0416256706462,0.037152955319,3.0282669067400003,2.27930951118,16.190168380699998,-0.682311713696,1.76045608521,0.111165761948,487244,1522662043,823000064,,['r_gripper_l_finger_joint'],"(0.003928910546898842,)","(0.0,)","(0.28602150082588196,)",1214956,1522662046,336513626,robotiq_force_torque_frame_id,-2.44599995613,2.29400000572,12.551001357999999,-0.143000006676,-0.36599999666199995,-0.151999995112,363.0,625.0,714.0,725.0,867.0,387.0,450.0,525.0,596.0,1075.0,7,"(0.6384038335966784, -0.16811023108561757, 0.06886409163725726, 0.9852899371366758, -0.16574324661693846, 0.0405971962426922, -0.009207802958060656)",0.0,0.0,0.0,0.0,0.0,0.0
1522690846.35,14088,1522662046,348794937,,1232081,1522662043,846497653,,0.6054535877030001,-0.161506186719,0.10522740806700001,0.16420503052100002,0.9859016298090001,0.007125590076359999,0.0313673438079,0.0114169788506,0.014442367557700002,-0.0204760569252,0.016213144765,-0.050465131617,0.035403553026,3.1540637016299997,2.02549982071,16.7282752991,-0.454668164253,1.9247812032700002,0.193883895874,1232431,1522662043,844554404,,"['head_nod', 'head_pan', 'left_e0', 'left_e1', 'left_s0', 'left_s1', 'left_w0', 'left_w1', 'left_w2', 'right_e0', 'right_e1', 'right_s0', 'right_s1', 'right_w0', 'right_w1', 'right_w2', 'torso_t0']","(0.0, -0.1012427320004373, -0.9065826456402796, 1.50176719133982, 0.27880100819817394, 0.6446554261088451, 2.3412381775101125, -0.48780589054756157, -0.03259709174256504, 0.5572185211993765, 1.9232284128113375, 0.5365097805629234, -1.244441914172042, -0.2373835269252678, 0.8904758473674826, 0.7581700044123657, -12.565987119160338)","(0.0, 0.004319689897875668, 0.0070685834692510935, 0.0, -0.004319689897875668, -0.0023561944897503642, 0.005497787142750851, -0.013744467856877126, 0.0027488935713754254, -0.012173671530376884, 0.039662607244131134, 0.02631083846887907, 0.022776546734253524, -0.028274333877004374, -0.1119192382631423, 0.00510508806112579, 0.0)","(0.0, 0.0, -14.524, 10.884, 0.152, 5.068, 0.076, -2.656, 0.392, 5.54, -17.212, 0.56, -26.912, 0.072, 0.14, 0.044, -20.48)",1214957,1522662046,344792335,robotiq_force_torque_frame_id,-2.23600003719,1.99400005341,12.9909999847,-0.193000003695,-0.41999998688699997,-0.146999999881,363.0,645.0,714.0,725.0,867.0,393.0,460.0,507.0,596.0,1065.0,7,"(0.6384038335966784, -0.16811023108561757, 0.06886409163725726, 0.9852899371366758, -0.16574324661693846, 0.0405971962426922, -0.009207802958060656)",0.20999991893999992,-0.2999999523100001,0.43999862670000134,-0.049999997019000014,-0.053999990225000016,0.004999995231000004
1522690846.36,14089,1522662046,358694076,,1232082,1522662043,856495128,,0.605432930452,-0.161538207395,0.104987123553,0.16366236310499999,0.985969991018,0.00689893117342,0.0320969229627,0.03138454417,0.00972751330374,-0.00932165990824,0.0175874466172,-0.09330404153889998,0.0421773324005,2.80484962463,1.83667373657,17.001062393199998,-0.440395653248,1.77335655689,0.148773550987,1232431,1522662043,844554404,,"['head_nod', 'head_pan', 'left_e0', 'left_e1', 'left_s0', 'left_s1', 'left_w0', 'left_w1', 'left_w2', 'right_e0', 'right_e1', 'right_s0', 'right_s1', 'right_w0', 'right_w1', 'right_w2', 'torso_t0']","(0.0, -0.1012427320004373, -0.9065826456402796, 1.50176719133982, 0.27880100819817394, 0.6446554261088451, 2.3412381775101125, -0.48780589054756157, -0.03259709174256504, 0.5572185211993765, 1.9232284128113375, 0.5365097805629234, -1.244441914172042, -0.2373835269252678, 0.8904758473674826, 0.7581700044123657, -12.565987119160338)","(0.0, 0.004319689897875668, 0.0070685834692510935, 0.0, -0.004319689897875668, -0.0023561944897503642, 0.005497787142750851, -0.013744467856877126, 0.0027488935713754254, -0.012173671530376884, 0.039662607244131134, 0.02631083846887907, 0.022776546734253524, -0.028274333877004374, -0.1119192382631423, 0.00510508806112579, 0.0)","(0.0, 0.0, -14.524, 10.884, 0.152, 5.068, 0.076, -2.656, 0.392, 5.54, -17.212, 0.56, -26.912, 0.072, 0.14, 0.044, -20.48)",1214958,1522662046,357003224,robotiq_force_torque_frame_id,-2.18599984646,1.9840000629400003,13.0110004425,-0.152999997139,-0.46299999952299997,-0.14000000059599998,382.0,645.0,698.0,726.0,867.0,405.0,460.0,473.0,623.0,1065.0,7,"(0.6384038335966784, -0.16811023108561757, 0.06886409163725726, 0.9852899371366758, -0.16574324661693846, 0.0405971962426922, -0.009207802958060656)",0.05000019073000006,-0.009999990469999664,0.02000045780000015,0.040000006556,-0.04300001263600001,0.006999999285000003
1522690846.4,14090,1522662046,369419097,,1232084,1522662043,876493200,,0.60595521147,-0.16129413703099998,0.10451642242499999,0.164206777164,0.9858625939810001,0.007534019907109999,0.032470273574900003,0.056557962532,0.0180999488996,-0.004910874608979999,0.0511612433179,-0.12874701447,-0.00379024259179,2.29588222504,1.7383483648299998,17.6765956879,-0.39736962318400004,1.6335735321,0.176591172814,1232433,1522662043,864607597,,"['head_nod', 'head_pan', 'left_e0', 'left_e1', 'left_s0', 'left_s1', 'left_w0', 'left_w1', 'left_w2', 'right_e0', 'right_e1', 'right_s0', 'right_s1', 'right_w0', 'right_w1', 'right_w2', 'torso_t0']","(0.0, -0.1012427320004373, -0.9065826456402796, 1.50176719133982, 0.2795679985921167, 0.6450389213058165, 2.3412381775101125, -0.48742239535059023, -0.03298058693953639, 0.5568350260024052, 1.9243788984022516, 0.5372767709568662, -1.2440584189750705, -0.2381505173192105, 0.8870243905947405, 0.758553499609337, -12.565987119160338)","(0.0, -0.012959069693627005, 0.0007853981632501215, 0.01688606050987761, -0.005497787142750851, 0.0, -0.001570796326500243, -0.0019634954081253035, 0.003141592653000486, 0.006675884387626033, 0.0047123889795007284, -0.0047123889795007284, 0.009424777959001457, -0.0329867228565051, -0.13823007673202137, -0.008639379795751335, 0.0)","(0.0, 0.0, -14.652, 10.852, 0.34, 5.036, 0.084, -2.648, 0.4, 5.412, -17.212, 0.56, -27.148, 0.092, 0.108, 0.056, -20.48)",1214959,1522662046,365193449,robotiq_force_torque_frame_id,-2.58599994183,1.48400006294,13.0810001373,-0.143999993801,-0.465000003576,-0.137999996543,377.0,625.0,701.0,726.0,848.0,405.0,473.0,483.0,623.0,1049.0,7,"(0.6384038335966784, -0.16811023108561757, 0.06886409163725726, 0.9852899371366758, -0.16574324661693846, 0.0405971962426922, -0.009207802958060656)",-0.4000000953699998,-0.5000000000000002,0.0699996947999999,0.009000003337999996,-0.0020000040530000485,0.002000004052999993
1522690846.4,14091,1522662046,378715991,,1232085,1522662043,886492634,,0.6063803200150001,-0.160018528224,0.104400917829,0.16262764857,0.9861029236679999,0.00808162964127,0.0329842252524,0.0533635897149,0.00766937684395,-0.0094626974955,0.034003788435900004,-0.125147810871,-0.00343161102481,1.9123495817200002,1.6336957216299999,17.8051185608,-0.315164983273,1.4894541502,0.192741066217,1232435,1522662043,884604448,,"['head_nod', 'head_pan', 'left_e0', 'left_e1', 'left_s0', 'left_s1', 'left_w0', 'left_w1', 'left_w2', 'right_e0', 'right_e1', 'right_s0', 'right_s1', 'right_w0', 'right_w1', 'right_w2', 'torso_t0']","(0.0, -0.10085923680346595, -0.9065826456402796, 1.5021506865367915, 0.27880100819817394, 0.6446554261088451, 2.3423886631010267, -0.48742239535059023, -0.03259709174256504, 0.5572185211993765, 1.9247623935992229, 0.5384272565477802, -1.2432914285811278, -0.2389175077131532, 0.884339924215941, 0.7581700044123657, -12.565987119160338)","(0.0, -0.003926990816250607, -0.0019634954081253035, -0.01649336142825255, -0.006283185306000972, -0.005497787142750851, -0.014137166938502187, -0.0007853981632501215, -0.0035342917346255468, -0.014922565101752308, -0.0019634954081253035, 0.003141592653000486, 0.030237829285129678, -0.04633849163175717, -0.15275994275214863, 0.022776546734253524, 0.0)","(0.0, 0.0, -14.588, 10.948, 0.216, 5.1, 0.084, -2.664, 0.38, 5.568, -17.212, 0.496, -27.5, 0.092, 0.12, 0.036, -20.48)",1214960,1522662046,373335321,robotiq_force_torque_frame_id,-1.28599998951,0.454000091553,14.970999527,-0.04500000178809999,-0.554000020027,-0.108999997377,377.0,610.0,701.0,723.0,848.0,391.0,420.0,483.0,623.0,1049.0,7,"(0.6384038335966784, -0.16811023108561757, 0.06886409163725726, 0.9852899371366758, -0.16574324661693846, 0.0405971962426922, -0.009207802958060656)",1.2999999523199999,-1.029999971387,1.8899993896999998,0.09899999201290002,-0.08900001645099997,0.02899999916599999
1522690846.4,14092,1522662046,388704061,,1232085,1522662043,886492634,,0.6063803200150001,-0.160018528224,0.104400917829,0.16262764857,0.9861029236679999,0.00808162964127,0.0329842252524,0.0533635897149,0.00766937684395,-0.0094626974955,0.034003788435900004,-0.125147810871,-0.00343161102481,1.9123495817200002,1.6336957216299999,17.8051185608,-0.315164983273,1.4894541502,0.192741066217,1232436,1522662043,894592615,,"['head_nod', 'head_pan', 'left_e0', 'left_e1', 'left_s0', 'left_s1', 'left_w0', 'left_w1', 'left_w2', 'right_e0', 'right_e1', 'right_s0', 'right_s1', 'right_w0', 'right_w1', 'right_w2', 'torso_t0']","(0.0, -0.10085923680346595, -0.9065826456402796, 1.5021506865367915, 0.27880100819817394, 0.6442719309118737, 2.3420051679040554, -0.48742239535059023, -0.032213596545593685, 0.5564515308054339, 1.9247623935992229, 0.5372767709568662, -1.2440584189750705, -0.2396844981070959, 0.8828059434280556, 0.758553499609337, -12.565987119160338)","(0.0, 0.0019634954081253035, 0.005497787142750851, 0.0011780972448751821, -0.0047123889795007284, 0.0, 0.023954643979128706, 0.018456856836377853, 0.008639379795751335, 0.001570796326500243, -0.012173671530376884, 0.003926990816250607, 0.027096236632129192, -0.04712388979500729, -0.16257741979277515, 0.0011780972448751821, 0.0)","(0.0, 0.0, -14.588, 10.916, 0.248, 5.068, 0.096, -2.696, 0.392, 5.728, -17.152, 0.464, -27.648, 0.116, 0.128, 0.044, -20.48)",1214961,1522662046,385544239,robotiq_force_torque_frame_id,-2.2859999895099996,-0.48600020408600003,15.750998306300001,-0.0280000008643,-0.54699999094,-0.09399999678130001,384.0,610.0,696.0,721.0,873.0,391.0,420.0,484.0,620.0,1029.0,7,"(0.6384038335966784, -0.16811023108561757, 0.06886409163725726, 0.9852899371366758, -0.16574324661693846, 0.0405971962426922, -0.009207802958060656)",-0.9999999999999996,-0.940000295639,0.7799987793000014,0.017000000923799993,0.007000029087000037,0.015000000595699989
1522690846.44,14093,1522662046,398701906,,1232086,1522662043,896497221,,0.6074105059889999,-0.16107688744100002,0.104722714088,0.16348817884000003,0.985920403363,0.008080571646600001,0.034165450014,0.0623981388513,0.019311199881,-0.0032933505552600003,0.04304414148440001,-0.148431014366,0.033689315955699996,1.16157388687,1.4665604829799999,18.235158920299998,-0.16149225831,1.27366411686,0.22658932209000002,1232437,1522662043,904547568,,"['head_nod', 'head_pan', 'left_e0', 'left_e1', 'left_s0', 'left_s1', 'left_w0', 'left_w1', 'left_w2', 'right_e0', 'right_e1', 'right_s0', 'right_s1', 'right_w0', 'right_w1', 'right_w2', 'torso_t0']","(0.0, -0.10085923680346595, -0.9065826456402796, 1.5021506865367915, 0.27803401780423126, 0.6450389213058165, 2.3423886631010267, -0.48780589054756157, -0.03259709174256504, 0.5568350260024052, 1.9251458887961943, 0.5384272565477802, -1.2436749237780993, -0.24045148850103862, 0.8805049722462275, 0.7593204900032798, -12.565987119160338)","(0.0, -0.004319689897875668, 0.0023561944897503642, -0.00039269908162506076, 0.004319689897875668, -0.006283185306000972, 0.014137166938502187, -0.003141592653000486, -0.005497787142750851, -0.019242254999627974, -0.02120575040775328, -0.0047123889795007284, 0.019242254999627974, -0.04790928795825741, -0.19163715183302965, -0.009424777959001457, 0.0)","(0.0, 0.0, -14.62, 10.98, 0.184, 5.1, 0.096, -2.696, 0.4, 5.664, -17.152, 0.496, -27.764, 0.108, 0.128, 0.028, -20.48)",1214962,1522662046,393680301,robotiq_force_torque_frame_id,-2.16599986553,-0.67599978447,15.4509990692,-0.0410000011325,-0.541999995708,-0.0930000022054,384.0,595.0,696.0,721.0,872.0,376.0,404.0,493.0,620.0,1010.0,7,"(0.6384038335966784, -0.16811023108561757, 0.06886409163725726, 0.9852899371366758, -0.16574324661693846, 0.0405971962426922, -0.009207802958060656)",0.1200001239799997,-0.18999958038399994,-0.29999923710000154,-0.013000000268199998,0.00499999523200001,0.0009999945759000123
1522690846.44,14094,1522662046,408704996,,1232088,1522662043,916493714,,0.60803493114,-0.161073581421,0.10410328897299999,0.163004321697,0.98596392331,0.00848605670789,0.0351101107999,0.0755876520488,-0.00400322651181,-0.00235582401852,0.0209391791257,-0.18710150181899998,0.022337602274599997,1.08989095688,1.6902931928600002,18.4491138458,-0.325445055962,1.2149153947799998,0.16521491110300002,1232437,1522662043,904547568,,"['head_nod', 'head_pan', 'left_e0', 'left_e1', 'left_s0', 'left_s1', 'left_w0', 'left_w1', 'left_w2', 'right_e0', 'right_e1', 'right_s0', 'right_s1', 'right_w0', 'right_w1', 'right_w2', 'torso_t0']","(0.0, -0.10085923680346595, -0.9065826456402796, 1.5021506865367915, 0.27803401780423126, 0.6450389213058165, 2.3423886631010267, -0.48780589054756157, -0.03259709174256504, 0.5568350260024052, 1.9251458887961943, 0.5384272565477802, -1.2436749237780993, -0.24045148850103862, 0.8805049722462275, 0.7593204900032798, -12.565987119160338)","(0.0, -0.004319689897875668, 0.0023561944897503642, -0.00039269908162506076, 0.004319689897875668, -0.006283185306000972, 0.014137166938502187, -0.003141592653000486, -0.005497787142750851, -0.019242254999627974, -0.02120575040775328, -0.0047123889795007284, 0.019242254999627974, -0.04790928795825741, -0.19163715183302965, -0.009424777959001457, 0.0)","(0.0, 0.0, -14.62, 10.98, 0.184, 5.1, 0.096, -2.696, 0.4, 5.664, -17.152, 0.496, -27.764, 0.108, 0.128, 0.028, -20.48)",1214963,1522662046,405898574,robotiq_force_torque_frame_id,-1.1059999227500001,-0.04600014686580001,15.520998764000002,-0.0790000036359,-0.5609999895100001,-0.107000000775,389.0,595.0,704.0,723.0,872.0,376.0,392.0,493.0,629.0,1010.0,7,"(0.6384038335966784, -0.16811023108561757, 0.06886409163725726, 0.9852899371366758, -0.16574324661693846, 0.0405971962426922, -0.009207802958060656)",1.0599999427799998,0.6299996376042,0.06999969480000168,-0.0380000025034,-0.018999993802000126,-0.013999998569600006
1522690846.44,14095,1522662046,418711900,,1232088,1522662043,916493714,,0.60803493114,-0.161073581421,0.10410328897299999,0.163004321697,0.98596392331,0.00848605670789,0.0351101107999,0.0755876520488,-0.00400322651181,-0.00235582401852,0.0209391791257,-0.18710150181899998,0.022337602274599997,1.08989095688,1.6902931928600002,18.4491138458,-0.325445055962,1.2149153947799998,0.16521491110300002,487247,1522662043,923000064,,['r_gripper_l_finger_joint'],"(0.003928910546898842,)","(0.0,)","(0.30215054750442505,)",1214964,1522662046,414043089,robotiq_force_torque_frame_id,-2.3059999704400003,0.944000101089,14.5409992218,-0.170000001788,-0.46599999070200004,-0.134000003338,417.0,595.0,704.0,723.0,852.0,392.0,408.0,500.0,629.0,1015.0,7,"(0.6384038335966784, -0.16811023108561757, 0.06886409163725726, 0.9852899371366758, -0.16574324661693846, 0.0405971962426922, -0.009207802958060656)",-1.2000000476900001,0.9900002479548,-0.9799995422000016,-0.09099999815210001,0.09499999880800003,-0.02700000256299999
1522690846.44,14096,1522662046,428716897,,1232089,1522662043,926498460,,0.6096014379860001,-0.161177858132,0.10437043300799999,0.163355335845,0.9858424295370001,0.00901814942883,0.0367207210912,0.0660830851979,-0.00139725464522,-0.013238131511399999,0.0385378877477,-0.173089364608,0.00236172052336,0.9077336788179999,1.57282149792,18.9463043213,-0.23905454576,1.25179076195,0.22014370560600002,487248,1522662043,924000000,,['l_gripper_l_finger_joint'],"(0.0032494800670444966,)","(0.0,)","(0.0,)",1214965,1522662046,426241691,robotiq_force_torque_frame_id,-1.9460000753400002,0.833999967575,14.1010005951,-0.146999999881,-0.430999994278,-0.14499999582800002,417.0,595.0,698.0,721.0,852.0,387.0,389.0,500.0,628.0,1015.0,7,"(0.6384038335966784, -0.16811023108561757, 0.06886409163725726, 0.9852899371366758, -0.16574324661693846, 0.0405971962426922, -0.009207802958060656)",0.3599998951000001,-0.11000013351400006,-0.43999862669999956,0.023000001907000023,0.034999996424000035,-0.010999992490000027
1522690846.44,14097,1522662046,438689947,,1232091,1522662043,946498038,,0.610954686028,-0.15996279399,0.104486934258,0.1631174705,0.985811072902,0.0104500765966,0.0382101460418,0.07191103517269999,0.026898755082400003,-0.0051756751686999995,0.0753224136983,-0.18109695572299997,0.0237108901241,0.902599394321,2.00729751587,20.1500453949,-0.641915619373,1.70835411549,0.164799258113,1232441,1522662043,944548877,,"['head_nod', 'head_pan', 'left_e0', 'left_e1', 'left_s0', 'left_s1', 'left_w0', 'left_w1', 'left_w2', 'right_e0', 'right_e1', 'right_s0', 'right_s1', 'right_w0', 'right_w1', 'right_w2', 'torso_t0']","(0.0, -0.10085923680346595, -0.9069661408372509, 1.5013836961428486, 0.2791845033951453, 0.6450389213058165, 2.3423886631010267, -0.48742239535059023, -0.03259709174256504, 0.5560680356084625, 1.9247623935992229, 0.5372767709568662, -1.2429079333841564, -0.24121847889498133, 0.872451573109829, 0.758553499609337, -12.565987119160338)","(0.0, -0.007461282550876154, 0.023561944897503646, -0.006283185306000972, -0.0011780972448751821, -0.01688606050987761, -0.003926990816250607, -0.011780972448751823, -0.0035342917346255468, 0.01688606050987761, 0.0019634954081253035, -0.01649336142825255, 0.028274333877004374, -0.036128315509505585, -0.2171625921386586, 0.0027488935713754254, 0.0)","(0.0, 0.0, -14.588, 10.948, 0.28, 5.036, 0.096, -2.656, 0.392, 5.948, -17.212, 0.748, -28.176, 0.108, 0.58, 0.064, -20.48)",1214966,1522662046,434379982,robotiq_force_torque_frame_id,-1.90599987507,0.7240000724789999,13.7610004425,-0.204999998212,-0.372999995947,-0.15000000596,418.0,587.0,690.0,716.0,852.0,387.0,389.0,513.0,628.0,1008.0,7,"(0.6384038335966784, -0.16811023108561757, 0.06886409163725726, 0.9852899371366758, -0.16574324661693846, 0.0405971962426922, -0.009207802958060656)",0.040000200270000175,-0.10999989509600006,-0.34000015260000005,-0.057999998331,0.057999998331,-0.005000010131999966
1522690846.45,14098,1522662046,448723077,,1232092,1522662043,956497989,,0.611373373525,-0.16037206824300002,0.104806009189,0.16385040819,0.985668435044,0.010466302357,0.038745792151800004,0.0637828559673,-0.0025105432993200003,0.00881099693818,0.05592085491880001,-0.133515997907,-0.0577732230906,0.19507187604899998,1.6450635194799998,20.1834583282,-0.527037739754,1.4945755004899999,0.181478068233,1232442,1522662043,954558896,,"['head_nod', 'head_pan', 'left_e0', 'left_e1', 'left_s0', 'left_s1', 'left_w0', 'left_w1', 'left_w2', 'right_e0', 'right_e1', 'right_s0', 'right_s1', 'right_w0', 'right_w1', 'right_w2', 'torso_t0']","(0.0, -0.10085923680346595, -0.9061991504433081, 1.50176719133982, 0.2791845033951453, 0.6446554261088451, 2.3420051679040554, -0.48742239535059023, -0.032213596545593685, 0.5556845404114912, 1.9247623935992229, 0.5368932757598948, -1.2436749237780993, -0.24121847889498133, 0.8720680779128577, 0.7593204900032798, -12.565987119160338)","(0.0, -0.0019634954081253035, -0.0007853981632501215, -0.0007853981632501215, 0.006283185306000972, 0.009817477040626518, -0.003141592653000486, 0.008639379795751335, 0.001570796326500243, -0.02513274122400389, -0.027488935713754253, -0.024740042142378828, 0.004319689897875668, 0.0027488935713754254, -0.1260564052016445, 0.006283185306000972, 0.0)","(0.0, 0.0, -14.556, 10.948, 0.248, 5.068, 0.104, -2.676, 0.408, 5.852, -17.004, 0.652, -28.204, 0.108, 0.632, 0.044, -20.48)",1214967,1522662046,446585341,robotiq_force_torque_frame_id,-0.895999884605,1.89399991035,13.7810009003,-0.229000002146,-0.39700001478200003,-0.148000001907,418.0,581.0,690.0,716.0,852.0,367.0,387.0,527.0,643.0,1008.0,7,"(0.6384038335966784, -0.16811023108561757, 0.06886409163725726, 0.9852899371366758, -0.16574324661693846, 0.0405971962426922, -0.009207802958060656)",1.0099999904649999,1.1699998378710001,0.02000045780000015,-0.024000003934000008,-0.024000018835000025,0.002000004052999993
1522690846.49,14099,1522662046,458698034,,1232093,1522662043,966497691,,0.6114335936399999,-0.160496962003,0.104105545003,0.16411408648700002,0.985645792895,0.0107767739565,0.038115596643500005,0.057652293162900006,0.0245804640301,0.022308362751000003,0.0686693016575,-0.113159922656,-0.047633556615500006,-0.099143370986,1.7436594963099998,20.090734481800002,-0.619653880596,1.45509088039,0.18914629519,1232443,1522662043,964576496,,"['head_nod', 'head_pan', 'left_e0', 'left_e1', 'left_s0', 'left_s1', 'left_w0', 'left_w1', 'left_w2', 'right_e0', 'right_e1', 'right_s0', 'right_s1', 'right_w0', 'right_w1', 'right_w2', 'torso_t0']","(0.0, -0.1012427320004373, -0.9073496360342223, 1.50176719133982, 0.27880100819817394, 0.6450389213058165, 2.3412381775101125, -0.48742239535059023, -0.032213596545593685, 0.5541505596236057, 1.9239954032052802, 0.5372767709568662, -1.2417574477932425, -0.24045148850103862, 0.8716845827158863, 0.7581700044123657, -12.565987119160338)","(0.0, -0.003141592653000486, -0.0070685834692510935, 0.01767145867312773, -0.015707963265002428, 0.003141592653000486, 0.007461282550876154, 0.005890486224375911, 0.003926990816250607, -0.03573561642788053, -0.05654866775400875, 0.023169245815878585, -0.011388273367126762, 0.048694686121507534, -0.07382742734551141, 0.0007853981632501215, 0.0)","(0.0, 0.0, -14.72, 10.98, 0.28, 5.036, 0.084, -2.684, 0.392, 5.916, -16.792, 0.748, -28.204, 0.1, 0.732, 0.028, -20.48)",1214968,1522662046,454729480,robotiq_force_torque_frame_id,-2.1359998941400002,3.23400000334,14.0609996796,-0.27300000190699997,-0.386999994516,-0.143000006676,427.0,581.0,656.0,716.0,837.0,367.0,387.0,527.0,658.0,974.0,7,"(0.6384038335966784, -0.16811023108561757, 0.06886409163725726, 0.9852899371366758, -0.16574324661693846, 0.0405971962426922, -0.009207802958060656)",-1.2400000095350001,1.3400000929899998,0.2799987792999996,-0.04399999976099997,0.010000020266000054,0.004999995231000004
1522690846.49,14100,1522662046,468749046,,1232094,1522662043,976496089,,0.6120021383609999,-0.159945124426,0.10479787474199999,0.164082807714,0.9856142510089999,0.0111896297429,0.038938061170300006,0.0406089061166,0.0238018786521,0.009323817196620001,0.0816589790109,-0.0634808025498,-0.05819053003980001,-0.927823245525,1.5291576385499999,20.026760101300003,-0.611434876919,1.18569302559,0.157019868493,487250,1522662043,974000128,,['l_gripper_l_finger_joint'],"(0.0032494800670444966,)","(0.0,)","(0.0,)",1214969,1522662046,466933463,robotiq_force_torque_frame_id,-2.08599994183,2.37399992943,14.5609996796,-0.356000006199,-0.470999985933,-0.112000003457,426.0,565.0,656.0,716.0,829.0,300.0,373.0,537.0,658.0,933.0,7,"(0.6384038335966784, -0.16811023108561757, 0.06886409163725726, 0.9852899371366758, -0.16574324661693846, 0.0405971962426922, -0.009207802958060656)",0.04999995231000032,-0.8600000739099998,0.5,-0.08300000429200005,-0.08399999141700004,0.031000003218999997
1522690846.49,14101,1522662046,478753089,,1232095,1522662043,986535064,,0.612041030128,-0.159753811484,0.104643907491,0.163588661389,0.9856944130130001,0.011185369544,0.038989248887699994,0.042907680493800004,0.0205177189055,0.0161311890266,0.07353639695889999,-0.0747144598787,-0.052691272527900006,-1.3962688446,1.35448849201,20.0096511841,-0.607404470444,1.07568001747,0.15829975903,487250,1522662043,974000128,,['l_gripper_l_finger_joint'],"(0.0032494800670444966,)","(0.0,)","(0.0,)",1214969,1522662046,466933463,robotiq_force_torque_frame_id,-2.08599994183,2.37399992943,14.5609996796,-0.356000006199,-0.470999985933,-0.112000003457,426.0,565.0,642.0,712.0,829.0,301.0,374.0,537.0,658.0,933.0,7,"(0.6384038335966784, -0.16811023108561757, 0.06886409163725726, 0.9852899371366758, -0.16574324661693846, 0.0405971962426922, -0.009207802958060656)",0.0,0.0,0.0,0.0,0.0,0.0
1522690846.53,14102,1522662046,488692045,,1232096,1522662043,996534294,,0.613069838709,-0.159629098256,0.105549091547,0.16509140806199998,0.98539695745,0.012065140551799998,0.0399010728736,0.0311953055125,0.0039908312453,0.012627596846399998,0.052463680915699994,-0.056668537124199996,-0.06982962281610001,-1.34783947468,1.7239947319,19.650815963699998,-0.913545191288,1.10453677177,0.050302721560000006,1232446,1522662043,994596516,,"['head_nod', 'head_pan', 'left_e0', 'left_e1', 'left_s0', 'left_s1', 'left_w0', 'left_w1', 'left_w2', 'right_e0', 'right_e1', 'right_s0', 'right_s1', 'right_w0', 'right_w1', 'right_w2', 'torso_t0']","(0.0, -0.10085923680346595, -0.9073496360342223, 1.50176719133982, 0.27880100819817394, 0.6450389213058165, 2.3423886631010267, -0.4881893857445329, -0.03298058693953639, 0.5553010452145197, 1.9224614224173948, 0.5365097805629234, -1.2436749237780993, -0.2389175077131532, 0.8705340971249723, 0.7593204900032798, -12.565987119160338)","(0.0, 0.011780972448751823, 0.01767145867312773, -0.009424777959001457, -0.004319689897875668, 0.00039269908162506076, -0.019242254999627974, -0.0035342917346255468, 0.0023561944897503642, -0.006675884387626033, -0.029059732040254495, -0.023954643979128706, -0.006283185306000972, 0.040448005407381256, -0.040448005407381256, 0.012173671530376884, 0.0)","(0.0, 0.0, -14.588, 10.916, 0.216, 5.036, 0.076, -2.648, 0.408, 5.632, -16.252, 0.84, -28.116, 0.084, 0.932, 0.064, -20.48)",1214971,1522662046,483243230,robotiq_force_torque_frame_id,-3.3059999704400003,1.6940001010899999,15.1309993744,-0.354999989271,-0.5059999823569999,-0.097999997437,414.0,568.0,636.0,712.0,815.0,301.0,374.0,553.0,658.0,898.0,7,"(0.6384038335966784, -0.16811023108561757, 0.06886409163725726, 0.9852899371366758, -0.16574324661693846, 0.0405971962426922, -0.009207802958060656)",-1.2200000286100003,-0.6799998283400002,0.5699996947999999,0.0010000169280000026,-0.034999996423999924,0.014000006019999997
1522690846.53,14103,1522662046,498724937,,1232097,1522662044,6498227,,0.612827578811,-0.159647985218,0.10497411747199999,0.163742361405,0.9856345741850001,0.0115656065988,0.039738671294300004,0.0316675843121,0.0131114626646,0.014857098421399999,0.025558618944,-0.07152648262280001,-0.00589514764007,-0.532836735249,1.7588037252400002,19.7612514496,-0.882593810558,1.41834151745,0.069486014545,1232447,1522662044,4593987,,"['head_nod', 'head_pan', 'left_e0', 'left_e1', 'left_s0', 'left_s1', 'left_w0', 'left_w1', 'left_w2', 'right_e0', 'right_e1', 'right_s0', 'right_s1', 'right_w0', 'right_w1', 'right_w2', 'torso_t0']","(0.0, -0.10085923680346595, -0.9069661408372509, 1.50176719133982, 0.2791845033951453, 0.6446554261088451, 2.3412381775101125, -0.48742239535059023, -0.03259709174256504, 0.5556845404114912, 1.922844917614366, 0.5368932757598948, -1.2425244381871852, -0.24083498369800996, 0.870150601928001, 0.758553499609337, -12.565987119160338)","(0.0, 0.013351768775252066, -0.003141592653000486, 0.0, -0.0007853981632501215, -0.012173671530376884, -0.0007853981632501215, 0.0019634954081253035, 0.0011780972448751821, -0.010995574285501701, -0.023954643979128706, 0.013351768775252066, -0.01531526418337737, 0.011388273367126762, -0.04241150081550656, -0.0007853981632501215, 0.0)","(0.0, 0.0, -14.556, 10.948, 0.28, 5.004, 0.104, -2.648, 0.4, 5.632, -16.464, 0.776, -28.088, 0.084, 0.92, 0.064, -20.48)",1214972,1522662046,495432744,robotiq_force_torque_frame_id,-3.0060000181200004,1.99400005341,14.161001968399999,-0.289999991655,-0.57800000906,-0.107000000775,414.0,570.0,636.0,712.0,815.0,291.0,368.0,573.0,654.0,898.0,7,"(0.6384038335966784, -0.16811023108561757, 0.06886409163725726, 0.9852899371366758, -0.16574324661693846, 0.0405971962426922, -0.009207802958060656)",0.2999999523199999,0.2999999523200001,-0.969997406000001,0.064999997616,-0.0720000267030001,-0.00900000333800001
1522690846.53,14104,1522662046,508708953,,1232098,1522662044,16492499,,0.612718371166,-0.15912085470999998,0.10496446574200001,0.163953320492,0.985614083816,0.011792418733299998,0.0393080824259,0.0330923443156,0.0065481502354,0.0121403545705,0.011121081542400001,-0.061312046765,-0.00711803496039,0.388748407364,1.77783608437,19.8933849335,-0.81480050087,1.8123667240099999,0.121459491551,1232448,1522662044,14581846,,"['head_nod', 'head_pan', 'left_e0', 'left_e1', 'left_s0', 'left_s1', 'left_w0', 'left_w1', 'left_w2', 'right_e0', 'right_e1', 'right_s0', 'right_s1', 'right_w0', 'right_w1', 'right_w2', 'torso_t0']","(0.0, -0.10162622719740866, -0.9073496360342223, 1.50176719133982, 0.27880100819817394, 0.6450389213058165, 2.3412381775101125, -0.4881893857445329, -0.03298058693953639, 0.5549175500175484, 1.9220779272204234, 0.5380437613508089, -1.2421409429902137, -0.2396844981070959, 0.8709175923219437, 0.758553499609337, -12.565987119160338)","(0.0, -0.004319689897875668, -0.011780972448751823, 0.0007853981632501215, 0.005890486224375911, -0.0035342917346255468, 0.013744467856877126, 0.0011780972448751821, -0.006675884387626033, -0.009424777959001457, -0.03926990816250607, 0.010995574285501701, 0.001570796326500243, -0.011388273367126762, -0.02513274122400389, 0.009817477040626518, 0.0)","(0.0, 0.0, -14.588, 10.884, 0.28, 5.068, 0.084, -2.664, 0.4, 5.696, -16.704, 0.684, -28.0, 0.084, 0.932, 0.064, -20.48)",1214973,1522662046,503572853,robotiq_force_torque_frame_id,-2.93599996567,2.42400000095,13.4509990692,-0.321999996901,-0.6179999709130001,-0.118000000715,436.0,570.0,643.0,732.0,860.0,291.0,368.0,573.0,674.0,884.0,7,"(0.6384038335966784, -0.16811023108561757, 0.06886409163725726, 0.9852899371366758, -0.16574324661693846, 0.0405971962426922, -0.009207802958060656)",0.07000005245000018,0.42999994754000004,-0.7100028991999991,-0.032000005245999996,-0.03999996185300003,-0.010999999939999991
1522690846.53,14105,1522662046,518723964,,1232099,1522662044,26498574,,0.6133585074050001,-0.159586884716,0.105678986466,0.164323747916,0.985513648747,0.0118854915057,0.0402403913377,0.022209693835200002,-0.00504375656221,0.0147765756595,0.0016502747099900001,-0.0367926567752,-0.0252470746783,0.679132640362,1.49343073368,19.940032959,-0.655517339706,1.9307324886300001,0.162200003862,487252,1522662044,24000000,,['r_gripper_l_finger_joint'],"(0.003928910546898842,)","(0.0,)","(0.28602150082588196,)",1214974,1522662046,515752466,robotiq_force_torque_frame_id,-3.8159999608999997,3.4939999938,12.500998306300001,-0.35299998521799997,-0.6179999709130001,-0.145999997854,436.0,588.0,643.0,732.0,870.0,263.0,370.0,576.0,674.0,889.0,7,"(0.6384038335966784, -0.16811023108561757, 0.06886409163725726, 0.9852899371366758, -0.16574324661693846, 0.0405971962426922, -0.009207802958060656)",-0.8799999952299995,1.0699999928500001,-0.9500007628999985,-0.03099998831699996,0.0,-0.027999997139000005
1522690846.57,14106,1522662046,528690099,,1232100,1522662044,36506402,,0.613951694521,-0.15932009044,0.10588606499299999,0.164496124033,0.985466745361,0.012040730247,0.0406366802446,0.0312188776889,0.0072143959980099995,0.0373877193867,0.0110472655424,-0.0681696213126,-0.0127825072554,0.840526223183,1.7794394493099999,19.3252410889,-0.8023900985719999,1.9358998537099998,0.125759959221,487252,1522662044,24000000,,['r_gripper_l_finger_joint'],"(0.003928910546898842,)","(0.0,)","(0.28602150082588196,)",1214975,1522662046,523892648,robotiq_force_torque_frame_id,-2.88600001335,4.22399998307,12.590998458900001,-0.444999992847,-0.694000005722,-0.158999994397,460.0,588.0,660.0,739.0,870.0,250.0,357.0,576.0,681.0,889.0,7,"(0.6384038335966784, -0.16811023108561757, 0.06886409163725726, 0.9852899371366758, -0.16574324661693846, 0.0405971962426922, -0.009207802958060656)",0.9299999475499998,0.7299999892699995,0.09000015260000005,-0.09200000762900001,-0.07600003480899997,-0.012999996542999992
1522690846.57,14107,1522662046,538702011,,1232101,1522662044,46496792,,0.614923543539,-0.159656947171,0.106569996458,0.16457121166,0.985415319337,0.012162131385999999,0.041533688353199996,0.0352224219452,0.0193495088848,0.0198399625265,0.013906227904600001,-0.058040357583599995,0.011449201795900001,0.392116606236,1.78993356228,19.2721233368,-0.806180894375,1.8024101257299998,0.128058791161,1232451,1522662044,44606482,,"['head_nod', 'head_pan', 'left_e0', 'left_e1', 'left_s0', 'left_s1', 'left_w0', 'left_w1', 'left_w2', 'right_e0', 'right_e1', 'right_s0', 'right_s1', 'right_w0', 'right_w1', 'right_w2', 'torso_t0']","(0.0, -0.1012427320004373, -0.9069661408372509, 1.50176719133982, 0.27803401780423126, 0.6446554261088451, 2.3423886631010267, -0.4881893857445329, -0.03259709174256504, 0.5549175500175484, 1.9197769560385953, 0.5368932757598948, -1.2440584189750705, -0.24006799330406725, 0.8705340971249723, 0.758553499609337, -12.565987119160338)","(0.0, -0.0047123889795007284, -0.009424777959001457, 0.003141592653000486, 0.003141592653000486, 0.01060287520387664, 0.022776546734253524, 0.014529866020127248, 0.00510508806112579, -0.0035342917346255468, -0.0640099503048849, 0.027096236632129192, 0.001570796326500243, -0.0035342917346255468, 0.0019634954081253035, 0.0035342917346255468, 0.0)","(0.0, 0.0, -14.556, 10.916, 0.216, 5.068, 0.068, -2.676, 0.42, 5.632, -16.612, 0.716, -27.764, 0.084, 0.892, 0.044, -20.48)",1214976,1522662046,536075409,robotiq_force_torque_frame_id,-2.7560000181200004,3.9539999872400005,12.6509998322,-0.45399999618500003,-0.691999971867,-0.15099999308599998,460.0,593.0,660.0,739.0,893.0,250.0,357.0,586.0,681.0,841.0,7,"(0.6384038335966784, -0.16811023108561757, 0.06886409163725726, 0.9852899371366758, -0.16574324661693846, 0.0405971962426922, -0.009207802958060656)",0.1299999952299995,-0.26999999582999923,0.06000137329999866,-0.009000003338000051,0.0020000338550000274,0.00800000131100001
1522690846.57,14108,1522662046,548705101,,1232102,1522662044,56493340,,0.615225186049,-0.159936996042,0.106186499161,0.1648575985,0.9853658125679999,0.0123000288374,0.0415318784729,0.05537655195280001,-0.00722542962053,0.029011480835599998,0.0113484237785,-0.0881911971978,-0.045227707451800006,-0.161899656057,1.1052296161700002,19.0277709961,-0.43727236986199997,1.62682986259,0.22222745418499998,1232452,1522662044,54601657,,"['head_nod', 'head_pan', 'left_e0', 'left_e1', 'left_s0', 'left_s1', 'left_w0', 'left_w1', 'left_w2', 'right_e0', 'right_e1', 'right_s0', 'right_s1', 'right_w0', 'right_w1', 'right_w2', 'torso_t0']","(0.0, -0.10162622719740866, -0.9073496360342223, 1.50176719133982, 0.2784175130012026, 0.6446554261088451, 2.3420051679040554, -0.48742239535059023, -0.03259709174256504, 0.554534054820577, 1.9193934608416239, 0.5365097805629234, -1.2429079333841564, -0.24045148850103862, 0.8697671067310296, 0.758553499609337, -12.565987119160338)","(0.0, 0.006675884387626033, 0.009817477040626518, -0.009817477040626518, -0.00510508806112579, -0.013351768775252066, 0.028274333877004374, -0.006283185306000972, 0.0019634954081253035, -0.0310232274483798, -0.08089601081476251, 0.0011780972448751821, -0.010995574285501701, -0.0007853981632501215, -0.0035342917346255468, 0.003926990816250607, 0.0)","(0.0, 0.0, -14.62, 10.916, 0.28, 5.068, 0.076, -2.676, 0.392, 5.632, -16.372, 0.404, -27.648, 0.072, 0.9, 0.036, -20.48)",1214977,1522662046,544224920,robotiq_force_torque_frame_id,-3.39599994421,2.6839999914200003,12.930998611500002,-0.432999998331,-0.6890000104899999,-0.155000001192,486.0,593.0,701.0,752.0,893.0,238.0,347.0,586.0,682.0,841.0,7,"(0.6384038335966784, -0.16811023108561757, 0.06886409163725726, 0.9852899371366758, -0.16574324661693846, 0.0405971962426922, -0.009207802958060656)",-0.6399999260899998,-1.2699999958200001,0.2799987793000014,0.02099999785400003,0.0029999613770000932,-0.004000008106000014
1522690846.57,14109,1522662046,558692932,,1232103,1522662044,66498795,,0.615414948245,-0.159365428867,0.10663737667300001,0.164382297936,0.985435082544,0.012377832627299998,0.0417486224413,0.0764998188649,-0.0142038652159,0.035642582861800005,0.008648241055389999,-0.126170574831,-0.0315017060518,-0.6103281378750001,0.970680475235,18.8468456268,-0.41608175635300004,1.4846563339200003,0.20444303750999998,1232453,1522662044,64592940,,"['head_nod', 'head_pan', 'left_e0', 'left_e1', 'left_s0', 'left_s1', 'left_w0', 'left_w1', 'left_w2', 'right_e0', 'right_e1', 'right_s0', 'right_s1', 'right_w0', 'right_w1', 'right_w2', 'torso_t0']","(0.0, -0.1012427320004373, -0.9065826456402796, 1.5013836961428486, 0.27880100819817394, 0.6454224165027879, 2.3412381775101125, -0.48742239535059023, -0.03259709174256504, 0.5553010452145197, 1.9186264704476812, 0.5368932757598948, -1.2432914285811278, -0.24045148850103862, 0.8705340971249723, 0.758553499609337, -12.565987119160338)","(0.0, 0.003141592653000486, 0.007461282550876154, -0.01649336142825255, -0.012959069693627005, -0.0011780972448751821, -0.006675884387626033, 0.007853981632501214, 0.003926990816250607, -0.02631083846887907, -0.10288715938576591, -0.014922565101752308, -0.007461282550876154, -0.021991148571003403, -0.018064157754752792, -0.012566370612001944, 0.0)","(0.0, 0.0, -14.556, 10.948, 0.152, 5.004, 0.084, -2.696, 0.408, 5.568, -16.192, 0.372, -27.588, 0.084, 0.94, 0.044, -20.48)",1214978,1522662046,556429809,robotiq_force_torque_frame_id,-2.76600000858,2.0340000152599997,14.1309993744,-0.356999993324,-0.7340000271799999,-0.14000000059599998,506.0,601.0,719.0,754.0,935.0,238.0,347.0,590.0,682.0,789.0,7,"(0.6384038335966784, -0.16811023108561757, 0.06886409163725726, 0.9852899371366758, -0.16574324661693846, 0.0405971962426922, -0.009207802958060656)",0.6299999356300003,-0.6499999761600006,1.2000007628999985,0.076000005007,-0.04500001668999998,0.015000000596000013
1522690846.61,14110,1522662046,568722963,,1232104,1522662044,76494689,,0.61641650478,-0.159326738361,0.10706643750499999,0.16479584868799999,0.985317796216,0.0127854829095,0.0427516098144,0.059281463713800005,0.0114157203722,0.0305066247691,0.00785924396577,-0.107804864801,0.0270520070261,-0.9956250190729999,1.10462415218,18.5038013458,-0.44887304306000003,1.3551303148299998,0.217934206128,487254,1522662044,75000064,,['r_gripper_l_finger_joint'],"(0.003928910546898842,)","(0.0,)","(0.30215054750442505,)",1214979,1522662046,564560343,robotiq_force_torque_frame_id,-3.8959999740099995,1.13399991989,14.7810009003,-0.293000012636,-0.686999976635,-0.145999997854,506.0,611.0,719.0,754.0,935.0,222.0,327.0,590.0,687.0,789.0,7,"(0.6384038335966784, -0.16811023108561757, 0.06886409163725726, 0.9852899371366758, -0.16574324661693846, 0.0405971962426922, -0.009207802958060656)",-1.1299999654299997,-0.9000000953699998,0.6500015259000005,0.063999980688,0.047000050544999894,-0.005999997258000017
1522690846.61,14111,1522662046,578706026,,1232105,1522662044,86505239,,0.616600263905,-0.159549544889,0.10740285097,0.16406506660599998,0.985425678327,0.0122677201018,0.043224870826599995,0.0621906497067,0.021761255966500002,0.034752111947,-0.011916374458399999,-0.13765491072799999,0.0657857711125,-1.02246546745,1.25277137756,18.380004882799998,-0.565819442272,1.3604668378799998,0.15937148034600002,487254,1522662044,75000064,,['r_gripper_l_finger_joint'],"(0.003928910546898842,)","(0.0,)","(0.30215054750442505,)",1214980,1522662046,576767203,robotiq_force_torque_frame_id,-3.21599993706,0.903999900818,15.680998611500002,-0.236000001431,-0.725000023842,-0.115999996662,525.0,611.0,714.0,756.0,927.0,213.0,327.0,609.0,684.0,722.0,7,"(0.6384038335966784, -0.16811023108561757, 0.06886409163725726, 0.9852899371366758, -0.16574324661693846, 0.0405971962426922, -0.009207802958060656)",0.6800000369499997,-0.23000001907199996,0.899997711200001,0.057000011205000006,-0.03800004720700001,0.030000001191999998
1522690846.61,14112,1522662046,588701009,,1232106,1522662044,96494435,,0.6169791905709999,-0.160317144747,0.107286600928,0.163664996464,0.98549243634,0.0117527097548,0.0433624337679,0.0610412885489,-0.017719399104099996,0.035698538813900005,-0.07620109098319999,-0.131923918197,0.0729608660218,-0.821118891239,0.8796632289890001,18.5216560364,-0.250367820263,1.47852647305,0.264666736126,1232456,1522662044,94595841,,"['head_nod', 'head_pan', 'left_e0', 'left_e1', 'left_s0', 'left_s1', 'left_w0', 'left_w1', 'left_w2', 'right_e0', 'right_e1', 'right_s0', 'right_s1', 'right_w0', 'right_w1', 'right_w2', 'torso_t0']","(0.0, -0.10085923680346595, -0.9069661408372509, 1.50176719133982, 0.2791845033951453, 0.6446554261088451, 2.3412381775101125, -0.48703890015361884, -0.03259709174256504, 0.554534054820577, 1.9170924896597958, 0.5368932757598948, -1.2436749237780993, -0.24313595487983808, 0.870150601928001, 0.7577865092153944, -12.565987119160338)","(0.0, 0.009032078877376396, 0.013351768775252066, 0.011388273367126762, 0.006675884387626033, 0.005497787142750851, 0.0070685834692510935, -0.012566370612001944, -0.003141592653000486, 0.008639379795751335, -0.06361725122325984, 0.009817477040626518, -0.029452431121879556, -0.12173671530376882, -0.0035342917346255468, 0.0047123889795007284, 0.0)","(0.0, 0.0, -14.588, 10.852, 0.28, 5.004, 0.076, -2.616, 0.428, 5.696, -16.044, 0.34, -27.384, 0.108, 0.952, 0.036, -20.48)",1214981,1522662046,584915440,robotiq_force_torque_frame_id,-2.50600001812,1.6639998912799998,15.770998764000002,-0.231000006199,-0.7059999704359999,-0.09899999946360001,567.0,623.0,714.0,756.0,936.0,213.0,300.0,635.0,680.0,684.0,7,"(0.6384038335966784, -0.16811023108561757, 0.06886409163725726, 0.9852899371366758, -0.16574324661693846, 0.0405971962426922, -0.009207802958060656)",0.7099999189399999,0.7599999904619998,0.09000015250000004,0.00499999523200001,0.019000053406000084,0.016999997198399994
1522690846.61,14113,1522662046,598700046,,1232107,1522662044,106506160,,0.617988845935,-0.160459613289,0.108096698368,0.163870409688,0.985402420698,0.011799467375700002,0.04460191341030001,0.0675340177771,-0.0601143010932,0.035099358445800005,-0.08119760424110001,-0.124439092888,-0.017522061199799998,-0.290786325932,1.28218233585,18.2430210114,-0.49023759365099995,1.65552902222,0.19339287281,1232457,1522662044,104579893,,"['head_nod', 'head_pan', 'left_e0', 'left_e1', 'left_s0', 'left_s1', 'left_w0', 'left_w1', 'left_w2', 'right_e0', 'right_e1', 'right_s0', 'right_s1', 'right_w0', 'right_w1', 'right_w2', 'torso_t0']","(0.0, -0.10085923680346595, -0.9065826456402796, 1.5025341817337627, 0.2791845033951453, 0.6450389213058165, 2.3420051679040554, -0.48780589054756157, -0.03259709174256504, 0.5549175500175484, 1.9163254992658532, 0.5365097805629234, -1.2448254093690132, -0.24390294527378079, 0.8697671067310296, 0.758553499609337, -12.565987119160338)","(0.0, -0.00039269908162506076, 0.0047123889795007284, -0.003141592653000486, 0.011780972448751823, -0.011388273367126762, 0.007853981632501214, -0.01688606050987761, -0.007461282550876154, -0.03652101459113065, -0.06715154295788539, -0.028274333877004374, -0.03337942193813016, -0.1060287520387664, 0.003141592653000486, 0.004319689897875668, 0.0)","(0.0, 0.0, -14.524, 10.884, 0.184, 5.004, 0.096, -2.648, 0.392, 5.568, -16.132, 0.528, -27.296, 0.124, 0.94, 0.028, -20.48)",1214982,1522662046,597113834,robotiq_force_torque_frame_id,-2.9259999752,2.1039999485,15.211001205399999,-0.280999988317,-0.643000006676,-0.10599999874800001,567.0,623.0,710.0,761.0,936.0,213.0,300.0,635.0,680.0,705.0,7,"(0.6384038335966784, -0.16811023108561757, 0.06886409163725726, 0.9852899371366758, -0.16574324661693846, 0.0405971962426922, -0.009207802958060656)",-0.41999995707999993,0.44000005722,-0.5599975586000028,-0.049999982118000025,0.06299996375999994,-0.006999999284399996
1522690846.61,14114,1522662046,608705043,,1232108,1522662044,116502764,,0.617917351998,-0.160116928383,0.107689141763,0.163169228137,0.9855381609559999,0.011730628254,0.04418968941240001,0.046961822342400004,-0.022515839953299997,0.025646879818299998,-0.0572695734576,-0.0753651475651,0.039761505866,-0.330178558826,1.23757767677,18.1205997467,-0.397127985954,1.59213924408,0.21734033525,1232458,1522662044,114609338,,"['head_nod', 'head_pan', 'left_e0', 'left_e1', 'left_s0', 'left_s1', 'left_w0', 'left_w1', 'left_w2', 'right_e0', 'right_e1', 'right_s0', 'right_s1', 'right_w0', 'right_w1', 'right_w2', 'torso_t0']","(0.0, -0.10085923680346595, -0.9069661408372509, 1.50176719133982, 0.27880100819817394, 0.6446554261088451, 2.341621672707084, -0.48857288094150425, -0.03298058693953639, 0.5553010452145197, 1.9155585088719105, 0.5368932757598948, -1.2432914285811278, -0.2446699356677235, 0.870150601928001, 0.7581700044123657, -12.565987119160338)","(0.0, -0.01021017612225158, -0.01610066234662749, 0.0070685834692510935, 0.0023561944897503642, -0.01649336142825255, -0.009032078877376396, 0.006675884387626033, -0.006283185306000972, 0.0035342917346255468, -0.07579092275363672, -0.0070685834692510935, -0.001570796326500243, -0.08835729336563866, 0.029452431121879556, -0.006283185306000972, 0.0)","(0.0, 0.0, -14.62, 10.884, 0.28, 5.132, 0.084, -2.636, 0.408, 5.664, -16.132, 0.496, -27.296, 0.132, 0.88, 0.036, -20.48)",1214983,1522662046,605392360,robotiq_force_torque_frame_id,-2.51600000858,2.80399999619,14.9009998322,-0.293999999762,-0.634999990463,-0.08900000154969999,567.0,632.0,699.0,761.0,947.0,217.0,300.0,642.0,648.0,705.0,7,"(0.6384038335966784, -0.16811023108561757, 0.06886409163725726, 0.9852899371366758, -0.16574324661693846, 0.0405971962426922, -0.009207802958060656)",0.40999996662000004,0.7000000476900001,-0.31000137319999865,-0.01300001144499996,0.00800001621299995,0.016999997198300018
1522690846.62,14115,1522662046,618702888,,1232109,1522662044,126499269,,0.619281530843,-0.160251094938,0.108819673223,0.16401142871899999,0.985331276679,0.0118886072765,0.045620033597300005,0.041735647975699994,0.0181078282038,0.0279086195075,-0.0316850214151,-0.0675670187672,0.0773596893266,-0.511757969856,1.3902807235699999,17.659206390399998,-0.497788071632,1.40689241886,0.171548932791,487256,1522662044,124999936,,['r_gripper_l_finger_joint'],"(0.003928910546898842,)","(0.0,)","(0.30215054750442505,)",1214984,1522662046,613539550,robotiq_force_torque_frame_id,-2.47599992752,2.17400000095,14.750998306300001,-0.386999994516,-0.568000018597,-0.11299999803300001,567.0,638.0,699.0,761.0,947.0,217.0,300.0,648.0,660.0,716.0,7,"(0.38829058205682443, -0.8161681509245794, 0.13683103169809008, 0.9999377972961767, -0.004352227397900449, -0.00938816830392174, 0.004161964805750759)",0.04000008105999964,-0.6299999952399999,-0.1500015258999987,-0.092999994754,0.06699997186600004,-0.02399999648330002
1522690846.63,14116,1522662046,628695964,,1232110,1522662044,136495413,,0.61923368916,-0.159719141136,0.108842011621,0.163690302041,0.9854026078,0.0120358066457,0.045192089101400004,0.0375789931214,0.005338736193970001,0.0310015406306,-0.00882721880996,-0.05529249495730001,0.00397822172934,-0.8733633160590001,1.0609582662600001,17.4448795319,-0.325032413006,1.20736026764,0.204096585512,487256,1522662044,124999936,,['r_gripper_l_finger_joint'],"(0.003928910546898842,)","(0.0,)","(0.30215054750442505,)",1214985,1522662046,625735925,robotiq_force_torque_frame_id,-2.71599993706,1.9840000629400003,14.5810001373,-0.38899999856899997,-0.565999984741,-0.112000003457,555.0,638.0,695.0,777.0,928.0,232.0,300.0,624.0,660.0,713.0,7,"(0.38829058205682443, -0.8161681509245794, 0.13683103169809008, 0.9999377972961767, -0.004352227397900449, -0.00938816830392174, 0.004161964805750759)",-0.24000000953999967,-0.1899999380099997,-0.1699981690000012,-0.002000004052999993,0.0020000338560000053,0.0009999945760000156
1522690846.64,14117,1522662046,638700962,,1232111,1522662044,146501417,,0.619398435414,-0.160469641606,0.108847109281,0.16407606774800002,0.985329673063,0.011773249339700002,0.0454518423588,0.0234706263322,-0.00399049262882,0.0165548850036,0.0157287566833,-0.00957608975972,-0.04418008435330001,-1.1551412344,0.996654093266,17.1898212433,-0.246561959386,1.04738616943,0.225444510579,1232461,1522662044,144549240,,"['head_nod', 'head_pan', 'left_e0', 'left_e1', 'left_s0', 'left_s1', 'left_w0', 'left_w1', 'left_w2', 'right_e0', 'right_e1', 'right_s0', 'right_s1', 'right_w0', 'right_w1', 'right_w2', 'torso_t0']","(0.0, -0.10085923680346595, -0.9069661408372509, 1.5025341817337627, 0.27880100819817394, 0.6446554261088451, 2.3412381775101125, -0.48703890015361884, -0.03259709174256504, 0.5541505596236057, 1.9132575376900822, 0.5372767709568662, -1.244441914172042, -0.2446699356677235, 0.8709175923219437, 0.7589369948063085, -12.565987119160338)","(0.0, -0.004319689897875668, -0.0027488935713754254, 0.0035342917346255468, -0.0035342917346255468, -0.011388273367126762, 0.003926990816250607, 0.0, -0.009817477040626518, -0.012173671530376884, -0.07147123285576105, -0.009032078877376396, 0.009817477040626518, 0.02120575040775328, 0.04476769530525693, -0.0019634954081253035, 0.0)","(0.0, 0.0, -14.652, 10.916, 0.308, 5.036, 0.084, -2.684, 0.4, 5.6, -15.924, 0.464, -27.208, 0.108, 0.66, 0.028, -20.48)",1214986,1522662046,633875147,robotiq_force_torque_frame_id,-2.51600000858,1.48400006294,14.520998764000002,-0.402000010014,-0.555999994278,-0.101999998093,578.0,643.0,695.0,777.0,937.0,247.0,300.0,610.0,669.0,713.0,7,"(0.38829058205682443, -0.8161681509245794, 0.13683103169809008, 0.9999377972961767, -0.004352227397900449, -0.00938816830392174, 0.004161964805750759)",0.19999992848000003,-0.5000000000000002,-0.06000137329999866,-0.013000011445000015,0.009999990463000041,0.01000000536399999
1522690846.65,14118,1522662046,648710966,,1232112,1522662044,156490857,,0.619784476039,-0.160288827838,0.109472328163,0.164746342687,0.985192203919,0.0123085615016,0.045863528233500005,0.0209477665122,0.00119954127557,0.012468340917,0.0394268591974,-0.0116260951392,-0.0811407685615,-1.43057286739,1.20028853416,17.1880397797,-0.32608127594,0.942543327808,0.225933879614,1232462,1522662044,154587015,,"['head_nod', 'head_pan', 'left_e0', 'left_e1', 'left_s0', 'left_s1', 'left_w0', 'left_w1', 'left_w2', 'right_e0', 'right_e1', 'right_s0', 'right_s1', 'right_w0', 'right_w1', 'right_w2', 'torso_t0']","(0.0, -0.10085923680346595, -0.9065826456402796, 1.50176719133982, 0.27880100819817394, 0.6446554261088451, 2.341621672707084, -0.48703890015361884, -0.032213596545593685, 0.5541505596236057, 1.912874042493111, 0.5368932757598948, -1.2455923997629559, -0.24313595487983808, 0.8709175923219437, 0.7589369948063085, -12.565987119160338)","(0.0, -0.005890486224375911, -0.004319689897875668, -0.004319689897875668, 0.015707963265002428, -0.0023561944897503642, 0.012959069693627005, 0.024740042142378828, 0.003926990816250607, -0.01767145867312773, -0.054977871427508505, -0.009817477040626518, 0.007461282550876154, 0.04476769530525693, 0.018849555918002914, 0.019242254999627974, 0.0)","(0.0, 0.0, -14.62, 11.012, 0.216, 5.1, 0.096, -2.676, 0.4, 5.728, -15.892, 0.592, -27.208, 0.1, 0.652, 0.028, -20.48)",1214987,1522662046,646082157,robotiq_force_torque_frame_id,-1.9159998655300001,2.29400000572,14.3310001373,-0.398000001907,-0.538999974728,-0.09600000083450001,578.0,643.0,692.0,781.0,937.0,247.0,272.0,610.0,669.0,722.0,7,"(0.38829058205682443, -0.8161681509245794, 0.13683103169809008, 0.9999377972961767, -0.004352227397900449, -0.00938816830392174, 0.004161964805750759)",0.6000001430499997,0.80999994278,-0.18999862670000134,0.004000008106999964,0.017000019549999967,0.005999997258499992
1522690846.69,14119,1522662046,658694028,,1232113,1522662044,166492574,,0.619298972037,-0.160250350037,0.10883885734200001,0.164561699425,0.985259714428,0.012146545519099999,0.045113231306800006,0.00854331783055,0.014307703914,0.0159636309212,0.047577846282099996,-0.0163979952621,-0.0458428700888,-0.465885221958,1.42505800724,17.3531913757,-0.45380294323,1.3360440731,0.228299155831,1232463,1522662044,164595479,,"['head_nod', 'head_pan', 'left_e0', 'left_e1', 'left_s0', 'left_s1', 'left_w0', 'left_w1', 'left_w2', 'right_e0', 'right_e1', 'right_s0', 'right_s1', 'right_w0', 'right_w1', 'right_w2', 'torso_t0']","(0.0, -0.1012427320004373, -0.9069661408372509, 1.50176719133982, 0.27803401780423126, 0.6454224165027879, 2.3412381775101125, -0.4881893857445329, -0.03298058693953639, 0.5549175500175484, 1.912874042493111, 0.5365097805629234, -1.2440584189750705, -0.24390294527378079, 0.871301087518915, 0.7593204900032798, -12.565987119160338)","(0.0, 0.018849555918002914, -0.003926990816250607, -0.02120575040775328, -0.007461282550876154, 0.0019634954081253035, -0.0070685834692510935, 0.027096236632129192, -0.01767145867312773, 0.0, -0.01767145867312773, -0.007461282550876154, -0.024347343060753767, 0.06636614479463526, 0.0027488935713754254, -0.0027488935713754254, 0.0)","(0.0, 0.0, -14.588, 11.012, 0.308, 5.1, 0.076, -2.664, 0.408, 5.696, -16.104, 0.652, -27.208, 0.092, 0.692, 0.0, -20.48)",1214988,1522662046,654228532,robotiq_force_torque_frame_id,-2.11599991322,2.4739999532700003,13.9009998322,-0.377999991179,-0.545000016689,-0.10800000280099999,568.0,655.0,669.0,781.0,928.0,254.0,272.0,576.0,665.0,722.0,7,"(0.38829058205682443, -0.8161681509245794, 0.13683103169809008, 0.9999377972961767, -0.004352227397900449, -0.00938816830392174, 0.004161964805750759)",-0.2000000476899999,0.17999994755000026,-0.4300003051000001,0.020000010728000006,-0.006000041961000013,-0.012000001966499974
1522690846.69,14120,1522662046,668706893,,1232114,1522662044,176492063,,0.618975471513,-0.159288897982,0.108792807652,0.164749437853,0.985240357237,0.0127373266249,0.0446858110434,-0.0017655343455499999,0.010842818795900001,-0.00454531474882,0.042441991065,0.0140616487766,-0.034775773156300004,-0.317163079977,1.5928391218200002,17.4316196442,-0.567907869816,1.3772313594799999,0.21806372702100002,487258,1522662044,176000000,,['r_gripper_l_finger_joint'],"(0.003928910546898842,)","(0.0,)","(0.3096774220466614,)",1214989,1522662046,666431030,robotiq_force_torque_frame_id,-2.26600000858,2.7439999342,13.551001357999999,-0.35400000214599997,-0.5329999923709999,-0.09600000083450001,568.0,668.0,669.0,784.0,928.0,254.0,259.0,576.0,662.0,722.0,7,"(0.38829058205682443, -0.8161681509245794, 0.13683103169809008, 0.9999377972961767, -0.004352227397900449, -0.00938816830392174, 0.004161964805750759)",-0.1500000953599998,0.26999998092999977,-0.3499984742000013,0.023999989033000046,0.012000024318000069,0.012000001966499974
1522690846.69,14121,1522662046,678710937,,1232115,1522662044,186498420,,0.619559301233,-0.159028211038,0.108793898598,0.164418528431,0.985271396427,0.013020089738200001,0.045136461482600004,0.00497989974284,0.00729377928525,0.0007983730253710001,0.0476238911431,0.00291695944624,-0.0529275525866,0.22555696964299998,1.5863288641,17.6238117218,-0.606257796288,1.63022065163,0.207855343819,487258,1522662044,176000000,,['r_gripper_l_finger_joint'],"(0.003928910546898842,)","(0.0,)","(0.3096774220466614,)",1214990,1522662046,674578631,robotiq_force_torque_frame_id,-2.00600001812,2.91400001049,13.6509998322,-0.317000001669,-0.574999988079,-0.07400000095369999,579.0,668.0,671.0,783.0,922.0,252.0,259.0,558.0,662.0,729.0,7,"(0.38829058205682443, -0.8161681509245794, 0.13683103169809008, 0.9999377972961767, -0.004352227397900449, -0.00938816830392174, 0.004161964805750759)",0.2599999904599999,0.17000007629000002,0.0999984742000013,0.03700000047699997,-0.04199999570800006,0.021999999880800022
1522690846.73,14122,1522662046,688694953,,1232116,1522662044,196500948,,0.619189356973,-0.159342997456,0.10916276567399999,0.164752913532,0.985221756822,0.0127680541628,0.0450726542332,0.00692949070754,0.011147775844100002,-0.00791886572687,0.037720618977699995,-0.00533113634877,-0.0320317648599,0.580641925335,1.7397423982599998,17.999643325799997,-0.671671807766,1.8279871940599999,0.221688255668,1232465,1522662044,184563894,,"['head_nod', 'head_pan', 'left_e0', 'left_e1', 'left_s0', 'left_s1', 'left_w0', 'left_w1', 'left_w2', 'right_e0', 'right_e1', 'right_s0', 'right_s1', 'right_w0', 'right_w1', 'right_w2', 'torso_t0']","(0.0, -0.10085923680346595, -0.9065826456402796, 1.5013836961428486, 0.2784175130012026, 0.6446554261088451, 2.3412381775101125, -0.48742239535059023, -0.03298058693953639, 0.5553010452145197, 1.9121070520991683, 0.5372767709568662, -1.2432914285811278, -0.24275245968286674, 0.8705340971249723, 0.7593204900032798, -12.565987119160338)","(0.0, -0.004319689897875668, -0.007461282550876154, 0.006283185306000972, 0.0035342917346255468, -0.0023561944897503642, -0.00510508806112579, -0.014529866020127248, 0.01021017612225158, 0.010995574285501701, -0.015707963265002428, -0.02670353755050413, 0.011388273367126762, 0.043982297142006806, -0.007461282550876154, 0.009032078877376396, 0.0)","(0.0, 0.0, -14.556, 10.98, 0.184, 5.036, 0.084, -2.676, 0.408, 5.632, -16.312, 0.684, -27.296, 0.072, 0.732, -0.008, -20.48)",1214991,1522662046,686778726,robotiq_force_torque_frame_id,-2.4259999752000003,2.4339999914200003,14.0409992218,-0.35100001096699995,-0.625,-0.0769999995828,579.0,671.0,673.0,783.0,913.0,243.0,253.0,525.0,663.0,729.0,7,"(0.38829058205682443, -0.8161681509245794, 0.13683103169809008, 0.9999377972961767, -0.004352227397900449, -0.00938816830392174, 0.004161964805750759)",-0.4199999570800004,-0.4800000190699998,0.3899993895999998,-0.034000009297999956,-0.05000001192100001,-0.002999998629100012
