time,.header.seq,.header.stamp.secs,.header.stamp.nsecs,.header.frame_id,.endpoint_state.header.seq,.endpoint_state.header.stamp.secs,.endpoint_state.header.stamp.nsecs,.endpoint_state.header.frame_id,.endpoint_state.pose.position.x,.endpoint_state.pose.position.y,.endpoint_state.pose.position.z,.endpoint_state.pose.orientation.x,.endpoint_state.pose.orientation.y,.endpoint_state.pose.orientation.z,.endpoint_state.pose.orientation.w,.endpoint_state.twist.linear.x,.endpoint_state.twist.linear.y,.endpoint_state.twist.linear.z,.endpoint_state.twist.angular.x,.endpoint_state.twist.angular.y,.endpoint_state.twist.angular.z,.endpoint_state.wrench.force.x,.endpoint_state.wrench.force.y,.endpoint_state.wrench.force.z,.endpoint_state.wrench.torque.x,.endpoint_state.wrench.torque.y,.endpoint_state.wrench.torque.z,.joint_state.header.seq,.joint_state.header.stamp.secs,.joint_state.header.stamp.nsecs,.joint_state.header.frame_id,.joint_state.name,.joint_state.position,.joint_state.velocity,.joint_state.effort,.wrench_stamped.header.seq,.wrench_stamped.header.stamp.secs,.wrench_stamped.header.stamp.nsecs,.wrench_stamped.header.frame_id,.wrench_stamped.wrench.force.x,.wrench_stamped.wrench.force.y,.wrench_stamped.wrench.force.z,.wrench_stamped.wrench.torque.x,.wrench_stamped.wrench.torque.y,.wrench_stamped.wrench.torque.z,.tactile_values.tactile_values_0,.tactile_values.tactile_values_1,.tactile_values.tactile_values_2,.tactile_values.tactile_values_3,.tactile_values.tactile_values_4,.tactile_values.tactile_values_5,.tactile_values.tactile_values_6,.tactile_values.tactile_values_7,.tactile_values.tactile_values_8,.tactile_values.tactile_values_9,.tag,.goal_vector,.delta_wrench.force.x,.delta_wrench.force.y,.delta_wrench.force.z,.delta_wrench.torque.x,.delta_wrench.torque.y,.delta_wrench.torque.z
1522082683.85,39377,1522053883,809425115,,794005,1522053881,172745432,,0.7958409552310001,-0.161662364082,0.0631341332752,0.982586056417,0.17942656433600002,0.0467737741094,-0.011956747106600002,0.00632927471191,-0.0283943760401,-0.00235003142232,-0.0233696935632,-0.008893045086909999,-0.0290477662542,6.67114114761,0.979042053223,-2.2869143486000003,0.522791743279,3.23439264297,0.949545741081,794402,1522053881,170798552,,"['head_nod', 'head_pan', 'left_e0', 'left_e1', 'left_s0', 'left_s1', 'left_w0', 'left_w1', 'left_w2', 'right_e0', 'right_e1', 'right_s0', 'right_s1', 'right_w0', 'right_w1', 'right_w2', 'torso_t0']","(0.0, -0.10200972239438001, -0.9150195399736493, 1.5086701048853044, 0.286470912137601, 0.6519418348513009, 2.3477575958586256, -0.4759175394414496, -0.02569417819708068, 0.7236554366849439, 1.3188399823844845, 0.457893265183796, -0.8084078752156131, -0.5016117176385303, 1.148951610126175, 0.05790777474267437, -12.565987119160338)","(0.0, -0.006675884387626033, 0.0023561944897503642, -0.00039269908162506076, 0.008246680714126275, 0.011780972448751823, 0.018064157754752792, -0.0007853981632501215, 0.0047123889795007284, -0.02042035224450316, 0.0035342917346255468, -0.014137166938502187, -0.00510508806112579, -0.012959069693627005, -0.007461282550876154, 0.005890486224375911, 0.0)","(0.0, 0.0, -14.492, 11.012, 0.404, 4.284, 0.052, -2.616, 0.308, 11.392, -14.544, 0.56, -24.92, 0.116, -0.188, -0.352, -20.48)",258913,1522053883,805080571,robotiq_force_torque_frame_id,-2.81499993801,-0.6920000553129999,-0.0550010681152,-0.0689999982715,-0.20000000298,-0.15000000596,296.0,307.0,344.0,356.0,389.0,91.0,97.0,102.0,115.0,126.0,7,"(0.7941553869361855, -0.16329374828934948, 0.06047321630004558, 0.9827162015033094, 0.17936522950338268, 0.044359654517529094, -0.011366740922155338)",0.0,0.0,0.0,0.0,0.0,0.0
1522082683.85,39378,1522053883,819439888,,794005,1522053881,172745432,,0.7958409552310001,-0.161662364082,0.0631341332752,0.982586056417,0.17942656433600002,0.0467737741094,-0.011956747106600002,0.00632927471191,-0.0283943760401,-0.00235003142232,-0.0233696935632,-0.008893045086909999,-0.0290477662542,6.67114114761,0.979042053223,-2.2869143486000003,0.522791743279,3.23439264297,0.949545741081,314016,1522053881,191000064,,['l_gripper_l_finger_joint'],"(0.02083,)","(0.0,)","(0.0,)",258914,1522053883,813224144,robotiq_force_torque_frame_id,-2.56499993801,-1.0519999504100002,0.0849983215332,-0.0579999983311,-0.206000000238,-0.14499999582800002,292.0,295.0,344.0,356.0,389.0,93.0,94.0,102.0,115.0,127.0,7,"(0.7941553869361855, -0.16329374828934948, 0.06047321630004558, 0.9827162015033094, 0.17936522950338268, 0.044359654517529094, -0.011366740922155338)",0.25,-0.35999989509700026,0.1399993896484,0.010999999940399997,-0.005999997257999989,0.005000010131999966
1522082683.85,39379,1522053883,829433917,,794007,1522053881,192745632,,0.7953878329520001,-0.161333454808,0.0627671770027,0.9826455040700001,0.179181327185,0.04634816334530001,-0.0123981076885,0.00954295788176,0.013581411687,0.0139799160683,0.0142894417073,-0.0206256243083,0.000355292795755,6.60498189926,0.981425642967,-2.22367572784,0.568311810493,3.2196490764599996,0.9613887071610001,794404,1522053881,190804650,,"['head_nod', 'head_pan', 'left_e0', 'left_e1', 'left_s0', 'left_s1', 'left_w0', 'left_w1', 'left_w2', 'right_e0', 'right_e1', 'right_s0', 'right_s1', 'right_w0', 'right_w1', 'right_w2', 'torso_t0']","(0.0, -0.10239321759135137, -0.9150195399736493, 1.5102040856731898, 0.28723790253154374, 0.6527088252452435, 2.3477575958586256, -0.47553404424447826, -0.027228158984966094, 0.7236554366849439, 1.3192234775814558, 0.457893265183796, -0.8080243800186417, -0.5008447272445876, 1.148951610126175, 0.05829126993964572, -12.565987119160338)","(0.0, 0.011388273367126762, -0.012566370612001944, -0.012173671530376884, -0.011388273367126762, -0.00510508806112579, -0.00039269908162506076, 0.003141592653000486, 0.005497787142750851, 0.0035342917346255468, -0.01727875959150267, 0.011388273367126762, -0.011780972448751823, 0.014137166938502187, 0.0007853981632501215, 0.0011780972448751821, 0.0)","(0.0, 0.0, -14.556, 11.012, 0.372, 4.252, 0.068, -2.616, 0.296, 11.488, -14.544, 0.56, -24.92, 0.132, -0.188, -0.344, -20.48)",258915,1522053883,825435493,robotiq_force_torque_frame_id,-1.56499993801,0.0679999351501,-0.125000762939,-0.0540000014007,-0.211999997497,-0.152999997139,289.0,292.0,329.0,353.0,389.0,93.0,94.0,109.0,124.0,127.0,7,"(0.7941553869361855, -0.16329374828934948, 0.06047321630004558, 0.9827162015033094, 0.17936522950338268, 0.044359654517529094, -0.011366740922155338)",1.0000000000000002,1.1199998855601,-0.2099990844722,0.003999996930399999,-0.005999997258999995,-0.008000001310999982
1522082683.85,39380,1522053883,839436054,,794007,1522053881,192745632,,0.7953878329520001,-0.161333454808,0.0627671770027,0.9826455040700001,0.179181327185,0.04634816334530001,-0.0123981076885,0.00954295788176,0.013581411687,0.0139799160683,0.0142894417073,-0.0206256243083,0.000355292795755,6.60498189926,0.981425642967,-2.22367572784,0.568311810493,3.2196490764599996,0.9613887071610001,794404,1522053881,190804650,,"['head_nod', 'head_pan', 'left_e0', 'left_e1', 'left_s0', 'left_s1', 'left_w0', 'left_w1', 'left_w2', 'right_e0', 'right_e1', 'right_s0', 'right_s1', 'right_w0', 'right_w1', 'right_w2', 'torso_t0']","(0.0, -0.10239321759135137, -0.9150195399736493, 1.5102040856731898, 0.28723790253154374, 0.6527088252452435, 2.3477575958586256, -0.47553404424447826, -0.027228158984966094, 0.7236554366849439, 1.3192234775814558, 0.457893265183796, -0.8080243800186417, -0.5008447272445876, 1.148951610126175, 0.05829126993964572, -12.565987119160338)","(0.0, 0.011388273367126762, -0.012566370612001944, -0.012173671530376884, -0.011388273367126762, -0.00510508806112579, -0.00039269908162506076, 0.003141592653000486, 0.005497787142750851, 0.0035342917346255468, -0.01727875959150267, 0.011388273367126762, -0.011780972448751823, 0.014137166938502187, 0.0007853981632501215, 0.0011780972448751821, 0.0)","(0.0, 0.0, -14.556, 11.012, 0.372, 4.252, 0.068, -2.616, 0.296, 11.488, -14.544, 0.56, -24.92, 0.132, -0.188, -0.344, -20.48)",258916,1522053883,833590943,robotiq_force_torque_frame_id,-1.42499983311,0.267999982834,-0.345001983643,-0.0610000006855,-0.202999994159,-0.152999997139,289.0,292.0,329.0,346.0,381.0,93.0,94.0,95.0,124.0,125.0,7,"(0.7941553869361855, -0.16329374828934948, 0.06047321630004558, 0.9827162015033094, 0.17936522950338268, 0.044359654517529094, -0.011366740922155338)",0.14000010489999992,0.2000000476839,-0.220001220704,-0.006999999284800003,0.009000003337999996,0.0
1522082683.89,39381,1522053883,849621057,,794010,1522053881,222764923,,0.795794374157,-0.16200433741599998,0.0627318054836,0.982649807007,0.179130591173,0.046509912668599995,-0.0121826154066,0.005801515026479999,0.00406052358208,0.0022214665231100003,0.00651457011786,-0.0172890374611,-0.00812519447552,6.60402870178,1.21083450317,-2.3301432132700004,0.42573609948200003,3.2073502540599996,0.931510150433,794407,1522053881,220797524,,"['head_nod', 'head_pan', 'left_e0', 'left_e1', 'left_s0', 'left_s1', 'left_w0', 'left_w1', 'left_w2', 'right_e0', 'right_e1', 'right_s0', 'right_s1', 'right_w0', 'right_w1', 'right_w2', 'torso_t0']","(0.0, -0.10162622719740866, -0.9150195399736493, 1.5098205904762185, 0.28685440733457235, 0.6519418348513009, 2.3466071102677115, -0.4759175394414496, -0.02684466378799474, 0.7232719414879726, 1.318456487187513, 0.45750976998682463, -0.8076408848216703, -0.501228222441559, 1.148951610126175, 0.057524279545703015, -12.565987119160338)","(0.0, 0.0, -0.009817477040626518, 0.007853981632501214, -0.014137166938502187, 0.007461282550876154, 0.0070685834692510935, -0.0070685834692510935, -0.005497787142750851, -0.001570796326500243, 0.006675884387626033, 0.0019634954081253035, -0.006283185306000972, 0.0019634954081253035, -0.02042035224450316, 0.011388273367126762, 0.0)","(0.0, 0.0, -14.428, 11.012, 0.248, 4.216, 0.04, -2.636, 0.308, 11.488, -14.484, 0.716, -24.92, 0.116, -0.18, -0.344, -20.48)",258917,1522053883,845791003,robotiq_force_torque_frame_id,-1.77499997616,-0.021999979019200002,-0.165001678467,-0.0610000006855,-0.19699999690099998,-0.155000001192,277.0,298.0,329.0,346.0,381.0,93.0,95.0,111.0,113.0,119.0,7,"(0.7941553869361855, -0.16329374828934948, 0.06047321630004558, 0.9827162015033094, 0.17936522950338268, 0.044359654517529094, -0.011366740922155338)",-0.35000014304999993,-0.2899999618532,0.180000305176,0.0,0.005999997258000017,-0.002000004052999993
1522082683.89,39382,1522053883,859386920,,794010,1522053881,222764923,,0.795794374157,-0.16200433741599998,0.0627318054836,0.982649807007,0.179130591173,0.046509912668599995,-0.0121826154066,0.005801515026479999,0.00406052358208,0.0022214665231100003,0.00651457011786,-0.0172890374611,-0.00812519447552,6.60402870178,1.21083450317,-2.3301432132700004,0.42573609948200003,3.2073502540599996,0.931510150433,794407,1522053881,220797524,,"['head_nod', 'head_pan', 'left_e0', 'left_e1', 'left_s0', 'left_s1', 'left_w0', 'left_w1', 'left_w2', 'right_e0', 'right_e1', 'right_s0', 'right_s1', 'right_w0', 'right_w1', 'right_w2', 'torso_t0']","(0.0, -0.10162622719740866, -0.9150195399736493, 1.5098205904762185, 0.28685440733457235, 0.6519418348513009, 2.3466071102677115, -0.4759175394414496, -0.02684466378799474, 0.7232719414879726, 1.318456487187513, 0.45750976998682463, -0.8076408848216703, -0.501228222441559, 1.148951610126175, 0.057524279545703015, -12.565987119160338)","(0.0, 0.0, -0.009817477040626518, 0.007853981632501214, -0.014137166938502187, 0.007461282550876154, 0.0070685834692510935, -0.0070685834692510935, -0.005497787142750851, -0.001570796326500243, 0.006675884387626033, 0.0019634954081253035, -0.006283185306000972, 0.0019634954081253035, -0.02042035224450316, 0.011388273367126762, 0.0)","(0.0, 0.0, -14.428, 11.012, 0.248, 4.216, 0.04, -2.636, 0.308, 11.488, -14.484, 0.716, -24.92, 0.116, -0.18, -0.344, -20.48)",258918,1522053883,853937125,robotiq_force_torque_frame_id,-1.9550000429199998,0.017999982833900002,0.20500106811500002,-0.059000000357599995,-0.19200000166900003,-0.158999994397,277.0,278.0,329.0,333.0,382.0,92.0,96.0,97.0,106.0,119.0,7,"(0.7941553869361855, -0.16329374828934948, 0.06047321630004558, 0.9827162015033094, 0.17936522950338268, 0.044359654517529094, -0.011366740922155338)",-0.1800000667599999,0.03999996185310001,0.37000274658200005,0.0020000003279000075,0.004999995231999954,-0.0039999932049999964
1522082683.89,39383,1522053883,869416952,,794010,1522053881,222764923,,0.795794374157,-0.16200433741599998,0.0627318054836,0.982649807007,0.179130591173,0.046509912668599995,-0.0121826154066,0.005801515026479999,0.00406052358208,0.0022214665231100003,0.00651457011786,-0.0172890374611,-0.00812519447552,6.60402870178,1.21083450317,-2.3301432132700004,0.42573609948200003,3.2073502540599996,0.931510150433,794407,1522053881,220797524,,"['head_nod', 'head_pan', 'left_e0', 'left_e1', 'left_s0', 'left_s1', 'left_w0', 'left_w1', 'left_w2', 'right_e0', 'right_e1', 'right_s0', 'right_s1', 'right_w0', 'right_w1', 'right_w2', 'torso_t0']","(0.0, -0.10162622719740866, -0.9150195399736493, 1.5098205904762185, 0.28685440733457235, 0.6519418348513009, 2.3466071102677115, -0.4759175394414496, -0.02684466378799474, 0.7232719414879726, 1.318456487187513, 0.45750976998682463, -0.8076408848216703, -0.501228222441559, 1.148951610126175, 0.057524279545703015, -12.565987119160338)","(0.0, 0.0, -0.009817477040626518, 0.007853981632501214, -0.014137166938502187, 0.007461282550876154, 0.0070685834692510935, -0.0070685834692510935, -0.005497787142750851, -0.001570796326500243, 0.006675884387626033, 0.0019634954081253035, -0.006283185306000972, 0.0019634954081253035, -0.02042035224450316, 0.011388273367126762, 0.0)","(0.0, 0.0, -14.428, 11.012, 0.248, 4.216, 0.04, -2.636, 0.308, 11.488, -14.484, 0.716, -24.92, 0.116, -0.18, -0.344, -20.48)",258919,1522053883,862074758,robotiq_force_torque_frame_id,-1.77499997616,0.28799996376,0.24499816894499998,-0.06499999761580001,-0.193000003695,-0.155000001192,278.0,284.0,333.0,345.0,387.0,96.0,97.0,104.0,106.0,111.0,7,"(0.7941553869361855, -0.16329374828934948, 0.06047321630004558, 0.9827162015033094, 0.17936522950338268, 0.044359654517529094, -0.011366740922155338)",0.1800000667599999,0.2699999809261,0.039997100829999965,-0.005999997258200017,-0.0010000020259999798,0.0039999932049999964
1522082683.89,39384,1522053883,879437923,,794012,1522053881,242742563,,0.795961118627,-0.161441047954,0.0629802334145,0.982638947996,0.17904971107099998,0.047012061848200004,-0.012319289253200002,0.01110283237,-0.010657898715299999,0.014076116214399999,-0.00436032733607,-0.023029579563000002,-0.017788867585200003,6.719978332519999,1.14859092236,-2.2810895443,0.42836689949,3.27263975143,0.948572874069,794409,1522053881,240796583,,"['head_nod', 'head_pan', 'left_e0', 'left_e1', 'left_s0', 'left_s1', 'left_w0', 'left_w1', 'left_w2', 'right_e0', 'right_e1', 'right_s0', 'right_s1', 'right_w0', 'right_w1', 'right_w2', 'torso_t0']","(0.0, -0.10200972239438001, -0.9150195399736493, 1.5102040856731898, 0.28608741694062967, 0.6527088252452435, 2.3477575958586256, -0.47668452983539233, -0.026461168591023387, 0.7232719414879726, 1.3192234775814558, 0.457893265183796, -0.8084078752156131, -0.5008447272445876, 1.1478011245352608, 0.05829126993964572, -12.565987119160338)","(0.0, 0.006283185306000972, 0.012566370612001944, -0.01531526418337737, 0.01531526418337737, 0.003141592653000486, -0.00039269908162506076, 0.009424777959001457, -0.00039269908162506076, 0.01060287520387664, -0.01060287520387664, -0.01610066234662749, -0.013744467856877126, -0.009032078877376396, 0.00510508806112579, 0.007461282550876154, 0.0)","(0.0, 0.0, -14.428, 11.076, 0.404, 4.184, 0.068, -2.596, 0.288, 11.424, -14.512, 0.684, -24.92, 0.116, -0.168, -0.364, -20.48)",258920,1522053883,874286682,robotiq_force_torque_frame_id,-1.65499985218,0.127999997139,0.014998626709,-0.057000000029800005,-0.20000000298,-0.16400000453,280.0,284.0,339.0,349.0,387.0,85.0,101.0,102.0,104.0,111.0,7,"(0.7941553869361855, -0.16329374828934948, 0.06047321630004558, 0.9827162015033094, 0.17936522950338268, 0.044359654517529094, -0.011366740922155338)",0.12000012397999993,-0.15999996662099997,-0.22999954223599997,0.007999997586000007,-0.006999999285000003,-0.009000003337999996
1522082683.93,39385,1522053883,889460086,,794012,1522053881,242742563,,0.795961118627,-0.161441047954,0.0629802334145,0.982638947996,0.17904971107099998,0.047012061848200004,-0.012319289253200002,0.01110283237,-0.010657898715299999,0.014076116214399999,-0.00436032733607,-0.023029579563000002,-0.017788867585200003,6.719978332519999,1.14859092236,-2.2810895443,0.42836689949,3.27263975143,0.948572874069,794409,1522053881,240796583,,"['head_nod', 'head_pan', 'left_e0', 'left_e1', 'left_s0', 'left_s1', 'left_w0', 'left_w1', 'left_w2', 'right_e0', 'right_e1', 'right_s0', 'right_s1', 'right_w0', 'right_w1', 'right_w2', 'torso_t0']","(0.0, -0.10200972239438001, -0.9150195399736493, 1.5102040856731898, 0.28608741694062967, 0.6527088252452435, 2.3477575958586256, -0.47668452983539233, -0.026461168591023387, 0.7232719414879726, 1.3192234775814558, 0.457893265183796, -0.8084078752156131, -0.5008447272445876, 1.1478011245352608, 0.05829126993964572, -12.565987119160338)","(0.0, 0.006283185306000972, 0.012566370612001944, -0.01531526418337737, 0.01531526418337737, 0.003141592653000486, -0.00039269908162506076, 0.009424777959001457, -0.00039269908162506076, 0.01060287520387664, -0.01060287520387664, -0.01610066234662749, -0.013744467856877126, -0.009032078877376396, 0.00510508806112579, 0.007461282550876154, 0.0)","(0.0, 0.0, -14.428, 11.076, 0.404, 4.184, 0.068, -2.596, 0.288, 11.424, -14.512, 0.684, -24.92, 0.116, -0.168, -0.364, -20.48)",258921,1522053883,882428853,robotiq_force_torque_frame_id,-1.86499989033,-0.19200005531300002,-0.09500198364260001,-0.0579999983311,-0.201000005007,-0.16400000453,276.0,280.0,339.0,349.0,383.0,85.0,101.0,102.0,109.0,113.0,7,"(0.7941553869361855, -0.16329374828934948, 0.06047321630004558, 0.9827162015033094, 0.17936522950338268, 0.044359654517529094, -0.011366740922155338)",-0.21000003815,-0.32000005245200003,-0.11000061035160001,-0.0009999983012999938,-0.0010000020269999854,0.0
1522082683.93,39386,1522053883,899488925,,794012,1522053881,242742563,,0.795961118627,-0.161441047954,0.0629802334145,0.982638947996,0.17904971107099998,0.047012061848200004,-0.012319289253200002,0.01110283237,-0.010657898715299999,0.014076116214399999,-0.00436032733607,-0.023029579563000002,-0.017788867585200003,6.719978332519999,1.14859092236,-2.2810895443,0.42836689949,3.27263975143,0.948572874069,794409,1522053881,240796583,,"['head_nod', 'head_pan', 'left_e0', 'left_e1', 'left_s0', 'left_s1', 'left_w0', 'left_w1', 'left_w2', 'right_e0', 'right_e1', 'right_s0', 'right_s1', 'right_w0', 'right_w1', 'right_w2', 'torso_t0']","(0.0, -0.10200972239438001, -0.9150195399736493, 1.5102040856731898, 0.28608741694062967, 0.6527088252452435, 2.3477575958586256, -0.47668452983539233, -0.026461168591023387, 0.7232719414879726, 1.3192234775814558, 0.457893265183796, -0.8084078752156131, -0.5008447272445876, 1.1478011245352608, 0.05829126993964572, -12.565987119160338)","(0.0, 0.006283185306000972, 0.012566370612001944, -0.01531526418337737, 0.01531526418337737, 0.003141592653000486, -0.00039269908162506076, 0.009424777959001457, -0.00039269908162506076, 0.01060287520387664, -0.01060287520387664, -0.01610066234662749, -0.013744467856877126, -0.009032078877376396, 0.00510508806112579, 0.007461282550876154, 0.0)","(0.0, 0.0, -14.428, 11.076, 0.404, 4.184, 0.068, -2.596, 0.288, 11.424, -14.512, 0.684, -24.92, 0.116, -0.168, -0.364, -20.48)",258922,1522053883,894646864,robotiq_force_torque_frame_id,-1.6849998235699999,-0.472000026703,0.115000915527,-0.0579999983311,-0.202999994159,-0.157000005245,276.0,282.0,339.0,341.0,383.0,86.0,89.0,109.0,113.0,118.0,7,"(0.7941553869361855, -0.16329374828934948, 0.06047321630004558, 0.9827162015033094, 0.17936522950338268, 0.044359654517529094, -0.011366740922155338)",0.18000006676000013,-0.27999997139,0.21000289916960002,0.0,-0.0019999891520000035,0.006999999285000003
1522082683.93,39387,1522053883,909440040,,794015,1522053881,272749681,,0.795899925184,-0.161614204132,0.0627791277276,0.982616479854,0.17919107372,0.0469672871806,-0.0122264693936,-0.007237284255239999,-0.0158221973559,-0.0064708080367,-0.007631071967600001,0.0224161072016,-0.04051254811380001,6.4177365303,0.959200024605,-2.31360220909,0.561541855335,3.13907194138,0.957201182842,794412,1522053881,270821358,,"['head_nod', 'head_pan', 'left_e0', 'left_e1', 'left_s0', 'left_s1', 'left_w0', 'left_w1', 'left_w2', 'right_e0', 'right_e1', 'right_s0', 'right_s1', 'right_w0', 'right_w1', 'right_w2', 'torso_t0']","(0.0, -0.10200972239438001, -0.9150195399736493, 1.5086701048853044, 0.28685440733457235, 0.6530923204422149, 2.3462236150707403, -0.4747670538505356, -0.026077673394052033, 0.7228884462910012, 1.3196069727784272, 0.457893265183796, -0.8084078752156131, -0.5008447272445876, 1.1474176293382894, 0.05790777474267437, -12.565987119160338)","(0.0, 0.01060287520387664, 0.01727875959150267, 0.022776546734253524, -0.011780972448751823, 0.005497787142750851, -0.009817477040626518, -0.0011780972448751821, 0.02081305132612822, -0.009032078877376396, 0.0035342917346255468, -0.01060287520387664, 0.003926990816250607, 0.0011780972448751821, 0.013351768775252066, 0.024740042142378828, 0.0)","(0.0, 0.0, -14.556, 11.012, 0.34, 4.284, 0.04, -2.628, 0.316, 11.456, -14.484, 0.56, -24.892, 0.116, -0.18, -0.344, -20.48)",258923,1522053883,902780331,robotiq_force_torque_frame_id,-1.58499991894,-0.38200011253399996,0.255000305176,-0.0540000014007,-0.203999996185,-0.152999997139,276.0,281.0,341.0,347.0,380.0,86.0,88.0,99.0,105.0,107.0,7,"(0.7941553869361855, -0.16329374828934948, 0.06047321630004558, 0.9827162015033094, 0.17936522950338268, 0.044359654517529094, -0.011366740922155338)",0.09999990462999997,0.08999991416900005,0.139999389649,0.003999996930399999,-0.0010000020260000075,0.004000008105999986
1522082683.93,39388,1522053883,919445037,,794015,1522053881,272749681,,0.795899925184,-0.161614204132,0.0627791277276,0.982616479854,0.17919107372,0.0469672871806,-0.0122264693936,-0.007237284255239999,-0.0158221973559,-0.0064708080367,-0.007631071967600001,0.0224161072016,-0.04051254811380001,6.4177365303,0.959200024605,-2.31360220909,0.561541855335,3.13907194138,0.957201182842,794412,1522053881,270821358,,"['head_nod', 'head_pan', 'left_e0', 'left_e1', 'left_s0', 'left_s1', 'left_w0', 'left_w1', 'left_w2', 'right_e0', 'right_e1', 'right_s0', 'right_s1', 'right_w0', 'right_w1', 'right_w2', 'torso_t0']","(0.0, -0.10200972239438001, -0.9150195399736493, 1.5086701048853044, 0.28685440733457235, 0.6530923204422149, 2.3462236150707403, -0.4747670538505356, -0.026077673394052033, 0.7228884462910012, 1.3196069727784272, 0.457893265183796, -0.8084078752156131, -0.5008447272445876, 1.1474176293382894, 0.05790777474267437, -12.565987119160338)","(0.0, 0.01060287520387664, 0.01727875959150267, 0.022776546734253524, -0.011780972448751823, 0.005497787142750851, -0.009817477040626518, -0.0011780972448751821, 0.02081305132612822, -0.009032078877376396, 0.0035342917346255468, -0.01060287520387664, 0.003926990816250607, 0.0011780972448751821, 0.013351768775252066, 0.024740042142378828, 0.0)","(0.0, 0.0, -14.556, 11.012, 0.34, 4.284, 0.04, -2.628, 0.316, 11.456, -14.484, 0.56, -24.892, 0.116, -0.18, -0.344, -20.48)",258924,1522053883,914990099,robotiq_force_torque_frame_id,-2.3349999189400004,0.437999939919,0.19499893188499998,-0.0610000006855,-0.202999994159,-0.15099999308599998,276.0,281.0,339.0,347.0,380.0,88.0,95.0,99.0,110.0,117.0,7,"(0.7941553869361855, -0.16329374828934948, 0.06047321630004558, 0.9827162015033094, 0.17936522950338268, 0.044359654517529094, -0.011366740922155338)",-0.7500000000000004,0.820000052453,-0.060001373291,-0.006999999284800003,0.0010000020260000075,0.0020000040530000207
1522082683.97,39389,1522053883,929428100,,794015,1522053881,272749681,,0.795899925184,-0.161614204132,0.0627791277276,0.982616479854,0.17919107372,0.0469672871806,-0.0122264693936,-0.007237284255239999,-0.0158221973559,-0.0064708080367,-0.007631071967600001,0.0224161072016,-0.04051254811380001,6.4177365303,0.959200024605,-2.31360220909,0.561541855335,3.13907194138,0.957201182842,794414,1522053881,290839193,,"['head_nod', 'head_pan', 'left_e0', 'left_e1', 'left_s0', 'left_s1', 'left_w0', 'left_w1', 'left_w2', 'right_e0', 'right_e1', 'right_s0', 'right_s1', 'right_w0', 'right_w1', 'right_w2', 'torso_t0']","(0.0, -0.10200972239438001, -0.9150195399736493, 1.5086701048853044, 0.28685440733457235, 0.6523253300482722, 2.346990605464683, -0.47668452983539233, -0.02569417819708068, 0.7236554366849439, 1.318456487187513, 0.45942724597168144, -0.8084078752156131, -0.501228222441559, 1.1481846197322323, 0.058674765136617076, -12.565987119160338)","(0.0, -0.005497787142750851, -0.01531526418337737, -0.02042035224450316, 0.014529866020127248, -0.0035342917346255468, 0.005890486224375911, -0.0019634954081253035, -0.0027488935713754254, 0.00039269908162506076, -0.014922565101752308, 0.013351768775252066, -0.008639379795751335, 0.012566370612001944, -0.007461282550876154, 0.005497787142750851, 0.0)","(0.0, 0.0, -14.588, 11.044, 0.404, 4.216, 0.068, -2.628, 0.316, 11.424, -14.484, 0.62, -24.892, 0.1, -0.168, -0.344, -20.48)",258925,1522053883,923129678,robotiq_force_torque_frame_id,-2.99499988556,-0.21200003624000002,0.135001373291,-0.057000000029800005,-0.19699999690099998,-0.136999994516,281.0,281.0,337.0,349.0,389.0,87.0,93.0,99.0,110.0,117.0,7,"(0.7941553869361855, -0.16329374828934948, 0.06047321630004558, 0.9827162015033094, 0.17936522950338268, 0.044359654517529094, -0.011366740922155338)",-0.6599999666199996,-0.6499999761590001,-0.05999755859399997,0.004000000655699998,0.005999997258000017,0.013999998569999977
1522082683.97,39390,1522053883,939398050,,794018,1522053881,302750858,,0.796138382016,-0.161300481784,0.06340916435600001,0.982619258219,0.179101829854,0.04722685953649999,-0.0123106318885,-0.00042391338697900005,0.0019034315967999997,0.00863116597289,0.00720365982331,-0.000760411486115,-0.0149460358819,6.152902126310001,0.826031923294,-2.24152755737,0.615109026432,3.02221298218,0.967779517174,794415,1522053881,300830353,,"['head_nod', 'head_pan', 'left_e0', 'left_e1', 'left_s0', 'left_s1', 'left_w0', 'left_w1', 'left_w2', 'right_e0', 'right_e1', 'right_s0', 'right_s1', 'right_w0', 'right_w1', 'right_w2', 'torso_t0']","(0.0, -0.10162622719740866, -0.9154030351706206, 1.5090536000822758, 0.28608741694062967, 0.6519418348513009, 2.3473741006616544, -0.476301034638421, -0.026461168591023387, 0.7236554366849439, 1.3188399823844845, 0.457893265183796, -0.8087913704125844, -0.5008447272445876, 1.1481846197322323, 0.05829126993964572, -12.565987119160338)","(0.0, 0.003926990816250607, 0.0007853981632501215, -0.0027488935713754254, -0.0035342917346255468, 0.0070685834692510935, -0.011388273367126762, 0.023169245815878585, -0.0070685834692510935, 0.003141592653000486, -0.001570796326500243, -0.0027488935713754254, -0.013351768775252066, 0.013744467856877126, 0.009032078877376396, 0.009424777959001457, 0.0)","(0.0, 0.0, -14.588, 11.108, 0.34, 4.284, 0.076, -2.608, 0.336, 11.456, -14.484, 0.496, -24.948, 0.108, -0.188, -0.352, -20.48)",258926,1522053883,935330677,robotiq_force_torque_frame_id,-2.47499990463,-1.01199998856,-0.0649993896484,-0.0480000004172,-0.203999996185,-0.134000003338,281.0,289.0,337.0,351.0,396.0,87.0,93.0,98.0,99.0,120.0,7,"(0.7941553869361855, -0.16329374828934948, 0.06047321630004558, 0.9827162015033094, 0.17936522950338268, 0.044359654517529094, -0.011366740922155338)",0.5199999809299998,-0.7999999523199999,-0.2000007629394,0.008999999612600007,-0.006999999284000025,0.002999991178000011
1522082683.97,39391,1522053883,949410915,,794019,1522053881,312744578,,0.7958832062510001,-0.16087281326,0.0629799621667,0.982535803225,0.179614966849,0.047009443928199994,-0.0123276618739,0.006646992228560001,-0.007773560014760001,0.0016339779859200002,0.0131215147109,-0.0141888194151,-0.0206029528948,6.31360435486,0.796773433685,-2.2595937252000002,0.652257859707,3.11821055412,0.9828693866730001,794416,1522053881,310812351,,"['head_nod', 'head_pan', 'left_e0', 'left_e1', 'left_s0', 'left_s1', 'left_w0', 'left_w1', 'left_w2', 'right_e0', 'right_e1', 'right_s0', 'right_s1', 'right_w0', 'right_w1', 'right_w2', 'torso_t0']","(0.0, -0.1012427320004373, -0.9142525495797066, 1.5086701048853044, 0.28685440733457235, 0.6523253300482722, 2.3466071102677115, -0.4759175394414496, -0.026077673394052033, 0.7232719414879726, 1.3192234775814558, 0.4586602555777387, -0.8084078752156131, -0.5008447272445876, 1.1478011245352608, 0.05790777474267437, -12.565987119160338)","(0.0, 0.0023561944897503642, 0.003141592653000486, 0.01610066234662749, -0.029452431121879556, 0.008639379795751335, -0.006675884387626033, -0.00039269908162506076, -0.004319689897875668, -0.003141592653000486, 0.005497787142750851, -0.01767145867312773, -0.00510508806112579, 0.010995574285501701, -0.02081305132612822, -0.00039269908162506076, 0.0)","(0.0, 0.0, -14.492, 11.012, 0.372, 4.252, 0.068, -2.636, 0.296, 11.456, -14.484, 0.464, -24.892, 0.124, -0.168, -0.352, -20.48)",258927,1522053883,943491998,robotiq_force_torque_frame_id,-2.45499992371,-0.982000017166,-0.215000915527,-0.0560000017285,-0.204999998212,-0.143000006676,289.0,290.0,320.0,351.0,396.0,94.0,95.0,96.0,98.0,120.0,7,"(0.7941553869361855, -0.16329374828934948, 0.06047321630004558, 0.9827162015033094, 0.17936522950338268, 0.044359654517529094, -0.011366740922155338)",0.019999980920000215,0.029999971393999902,-0.1500015258786,-0.0080000013113,-0.0010000020269999854,-0.009000003337999996
1522082683.97,39392,1522053883,959403038,,794019,1522053881,312744578,,0.7958832062510001,-0.16087281326,0.0629799621667,0.982535803225,0.179614966849,0.047009443928199994,-0.0123276618739,0.006646992228560001,-0.007773560014760001,0.0016339779859200002,0.0131215147109,-0.0141888194151,-0.0206029528948,6.31360435486,0.796773433685,-2.2595937252000002,0.652257859707,3.11821055412,0.9828693866730001,794416,1522053881,310812351,,"['head_nod', 'head_pan', 'left_e0', 'left_e1', 'left_s0', 'left_s1', 'left_w0', 'left_w1', 'left_w2', 'right_e0', 'right_e1', 'right_s0', 'right_s1', 'right_w0', 'right_w1', 'right_w2', 'torso_t0']","(0.0, -0.1012427320004373, -0.9142525495797066, 1.5086701048853044, 0.28685440733457235, 0.6523253300482722, 2.3466071102677115, -0.4759175394414496, -0.026077673394052033, 0.7232719414879726, 1.3192234775814558, 0.4586602555777387, -0.8084078752156131, -0.5008447272445876, 1.1478011245352608, 0.05790777474267437, -12.565987119160338)","(0.0, 0.0023561944897503642, 0.003141592653000486, 0.01610066234662749, -0.029452431121879556, 0.008639379795751335, -0.006675884387626033, -0.00039269908162506076, -0.004319689897875668, -0.003141592653000486, 0.005497787142750851, -0.01767145867312773, -0.00510508806112579, 0.010995574285501701, -0.02081305132612822, -0.00039269908162506076, 0.0)","(0.0, 0.0, -14.492, 11.012, 0.372, 4.252, 0.068, -2.636, 0.296, 11.456, -14.484, 0.464, -24.892, 0.124, -0.168, -0.352, -20.48)",258928,1522053883,955736382,robotiq_force_torque_frame_id,-2.3549998998599997,-1.04199995995,-0.364998626709,-0.052999999374199996,-0.19799999892700001,-0.142000004649,278.0,290.0,320.0,349.0,386.0,94.0,97.0,101.0,101.0,107.0,7,"(0.7941553869361855, -0.16329374828934948, 0.06047321630004558, 0.9827162015033094, 0.17936522950338268, 0.044359654517529094, -0.011366740922155338)",0.10000002385000029,-0.059999942784000004,-0.149997711182,0.0030000023543000007,0.006999999284999975,0.0010000020269999854
1522082684.01,39393,1522053883,969407081,,794021,1522053881,332765774,,0.795829245779,-0.16188427039699999,0.0625513895459,0.982795579003,0.178243849341,0.046792632251000006,-0.012346239533500001,-0.008979606783299999,-0.00253333128425,-0.0025824660310400003,-0.0242070146417,0.015008087286499999,0.0358245949079,6.80462932587,1.01328706741,-2.21109032631,0.546829104424,3.33428215981,0.98694896698,794418,1522053881,330841353,,"['head_nod', 'head_pan', 'left_e0', 'left_e1', 'left_s0', 'left_s1', 'left_w0', 'left_w1', 'left_w2', 'right_e0', 'right_e1', 'right_s0', 'right_s1', 'right_w0', 'right_w1', 'right_w2', 'torso_t0']","(0.0, -0.10200972239438001, -0.9146360447766779, 1.5098205904762185, 0.28685440733457235, 0.6527088252452435, 2.3473741006616544, -0.47553404424447826, -0.026077673394052033, 0.7228884462910012, 1.3196069727784272, 0.45750976998682463, -0.8080243800186417, -0.5008447272445876, 1.1474176293382894, 0.05944175553055978, -12.565987119160338)","(0.0, 0.0019634954081253035, 0.005890486224375911, 0.012173671530376884, 0.01021017612225158, -0.0019634954081253035, 0.023169245815878585, -0.0047123889795007284, -0.01688606050987761, -0.0035342917346255468, 0.006283185306000972, 0.009424777959001457, -0.0027488935713754254, -0.011780972448751823, 0.018456856836377853, -0.022383847652628464, 0.0)","(0.0, 0.0, -14.62, 11.012, 0.464, 4.216, 0.052, -2.616, 0.308, 11.488, -14.544, 0.592, -24.892, 0.124, -0.16, -0.364, -20.48)",258929,1522053883,963869706,robotiq_force_torque_frame_id,-2.38499987125,-0.9720000267030001,-0.375000762939,-0.0500000007451,-0.19900000095400003,-0.134000003338,306.0,307.0,310.0,349.0,386.0,96.0,97.0,101.0,105.0,121.0,7,"(0.7941553869361855, -0.16329374828934948, 0.06047321630004558, 0.9827162015033094, 0.17936522950338268, 0.044359654517529094, -0.011366740922155338)",-0.029999971390000102,0.06999993324699993,-0.010002136229999958,0.002999998629099998,-0.0010000020270000132,0.00800000131100001
1522082684.01,39394,1522053883,979800939,,794021,1522053881,332765774,,0.795829245779,-0.16188427039699999,0.0625513895459,0.982795579003,0.178243849341,0.046792632251000006,-0.012346239533500001,-0.008979606783299999,-0.00253333128425,-0.0025824660310400003,-0.0242070146417,0.015008087286499999,0.0358245949079,6.80462932587,1.01328706741,-2.21109032631,0.546829104424,3.33428215981,0.98694896698,314022,1522053881,343000064,,['l_gripper_l_finger_joint'],"(0.02083,)","(0.0,)","(0.0,)",258930,1522053883,971999345,robotiq_force_torque_frame_id,-3.20499992371,-0.161999964714,-0.6149986267090001,-0.0489999987185,-0.19900000095400003,-0.141000002623,281.0,295.0,310.0,339.0,386.0,94.0,96.0,105.0,109.0,121.0,7,"(0.7941553869361855, -0.16329374828934948, 0.06047321630004558, 0.9827162015033094, 0.17936522950338268, 0.044359654517529094, -0.011366740922155338)",-0.8200000524600002,0.8100000619890001,-0.2399978637700001,0.0010000020265999998,0.0,-0.006999999285000003
1522082684.01,39395,1522053883,989404916,,794023,1522053881,352754821,,0.796436018902,-0.161388620901,0.0632300381479,0.9825149994519999,0.179607836495,0.047520491838699996,-0.0121286346018,0.011589005248700001,0.0149915724636,0.0063409504163800005,0.021989010887599997,-0.0170671910547,-0.00019539211485699998,6.807646274570001,1.1024870872499999,-2.22246026993,0.448393553495,3.3393640518199996,0.9273934960369999,314023,1522053881,344000000,,['r_gripper_l_finger_joint'],"(0.0010160976007208228,)","(0.0,)","(0.0,)",258931,1522053883,984204042,robotiq_force_torque_frame_id,-3.40499991179,0.0980000257492,-0.654999542236,-0.059000000357599995,-0.202999994159,-0.129999995232,275.0,281.0,295.0,339.0,383.0,94.0,96.0,105.0,109.0,123.0,7,"(0.7941553869361855, -0.16329374828934948, 0.06047321630004558, 0.9827162015033094, 0.17936522950338268, 0.044359654517529094, -0.011366740922155338)",-0.19999998808000008,0.2599999904632,-0.040000915526999914,-0.010000001639099997,-0.003999993204999969,0.011000007390999988
1522082684.01,39396,1522053883,999399900,,794023,1522053881,352754821,,0.796436018902,-0.161388620901,0.0632300381479,0.9825149994519999,0.179607836495,0.047520491838699996,-0.0121286346018,0.011589005248700001,0.0149915724636,0.0063409504163800005,0.021989010887599997,-0.0170671910547,-0.00019539211485699998,6.807646274570001,1.1024870872499999,-2.22246026993,0.448393553495,3.3393640518199996,0.9273934960369999,314023,1522053881,344000000,,['r_gripper_l_finger_joint'],"(0.0010160976007208228,)","(0.0,)","(0.0,)",258932,1522053883,992338112,robotiq_force_torque_frame_id,-3.3749999404000004,-0.0019999980926500003,-0.0649993896484,-0.057000000029800005,-0.19499999284699998,-0.128999993205,275.0,281.0,298.0,347.0,383.0,93.0,96.0,102.0,104.0,123.0,7,"(0.7941553869361855, -0.16329374828934948, 0.06047321630004558, 0.9827162015033094, 0.17936522950338268, 0.044359654517529094, -0.011366740922155338)",0.029999971389999658,-0.10000002384185,0.5900001525876,0.0020000003277999903,0.008000001312000016,0.0010000020270000132
1522082684.01,39397,1522053884,9404897,,794024,1522053881,362743003,,0.7952394247310001,-0.16153998479599999,0.0623676055755,0.9826411612260001,0.179290875506,0.04605608160230001,-0.012246124765000001,0.0034821070551999994,0.0048659093916000005,-0.0008394865108550001,0.010523709558399999,-0.0035480119263800003,-0.00701233268542,6.5318813324,1.1027357578299999,-2.36555576324,0.505889296532,3.1564490795099998,0.9611465930940001,794422,1522053881,370804388,,"['head_nod', 'head_pan', 'left_e0', 'left_e1', 'left_s0', 'left_s1', 'left_w0', 'left_w1', 'left_w2', 'right_e0', 'right_e1', 'right_s0', 'right_s1', 'right_w0', 'right_w1', 'right_w2', 'torso_t0']","(0.0, -0.10162622719740866, -0.9146360447766779, 1.5086701048853044, 0.28685440733457235, 0.6527088252452435, 2.3477575958586256, -0.47553404424447826, -0.026461168591023387, 0.7225049510940299, 1.3196069727784272, 0.4598107411686528, -0.8084078752156131, -0.5008447272445876, 1.1474176293382894, 0.05829126993964572, -12.565987119160338)","(0.0, -0.0070685834692510935, -0.005497787142750851, 0.005890486224375911, 0.003141592653000486, -0.0027488935713754254, -0.02552544030562895, 0.0070685834692510935, 0.0019634954081253035, -0.00039269908162506076, 0.034950218264630406, -0.02591813938725401, 0.003141592653000486, 0.003141592653000486, 0.009032078877376396, 0.012959069693627005, 0.0)","(0.0, 0.0, -14.492, 11.108, 0.34, 4.284, 0.068, -2.616, 0.324, 11.424, -14.544, 0.62, -24.92, 0.108, -0.188, -0.336, -20.48)",258933,1522053884,4529695,robotiq_force_torque_frame_id,-3.20499992371,0.297999954224,0.295001220703,-0.0619999989867,-0.19499999284699998,-0.126000002027,277.0,281.0,298.0,342.0,384.0,93.0,102.0,104.0,111.0,122.0,7,"(0.7941553869361855, -0.16329374828934948, 0.06047321630004558, 0.9827162015033094, 0.17936522950338268, 0.044359654517529094, -0.011366740922155338)",0.17000001669000042,0.29999995231665,0.3600006103514,-0.004999998956899995,0.0,0.0029999911779999833
1522082684.02,39398,1522053884,19530057,,794026,1522053881,382751047,,0.7959023102130001,-0.161399117108,0.0631287128219,0.982647534692,0.179005919096,0.046992561447300005,-0.0123451472988,-0.00189061145744,0.00274023374082,-0.00632279177046,0.00020379006036300002,0.00341056836381,0.00617304498193,6.62802934647,0.95884001255,-2.2991805076599996,0.499271571636,3.19280338287,0.9543633461,794422,1522053881,370804388,,"['head_nod', 'head_pan', 'left_e0', 'left_e1', 'left_s0', 'left_s1', 'left_w0', 'left_w1', 'left_w2', 'right_e0', 'right_e1', 'right_s0', 'right_s1', 'right_w0', 'right_w1', 'right_w2', 'torso_t0']","(0.0, -0.10162622719740866, -0.9146360447766779, 1.5086701048853044, 0.28685440733457235, 0.6527088252452435, 2.3477575958586256, -0.47553404424447826, -0.026461168591023387, 0.7225049510940299, 1.3196069727784272, 0.4598107411686528, -0.8084078752156131, -0.5008447272445876, 1.1474176293382894, 0.05829126993964572, -12.565987119160338)","(0.0, -0.0070685834692510935, -0.005497787142750851, 0.005890486224375911, 0.003141592653000486, -0.0027488935713754254, -0.02552544030562895, 0.0070685834692510935, 0.0019634954081253035, -0.00039269908162506076, 0.034950218264630406, -0.02591813938725401, 0.003141592653000486, 0.003141592653000486, 0.009032078877376396, 0.012959069693627005, 0.0)","(0.0, 0.0, -14.492, 11.108, 0.34, 4.284, 0.068, -2.616, 0.324, 11.424, -14.544, 0.62, -24.92, 0.108, -0.188, -0.336, -20.48)",258934,1522053884,12680881,robotiq_force_torque_frame_id,-2.70499992371,-0.321999931335,0.47500152587899996,-0.0599999986589,-0.195999994874,-0.118000000715,277.0,285.0,305.0,342.0,384.0,96.0,96.0,108.0,111.0,117.0,7,"(0.7941553869361855, -0.16329374828934948, 0.06047321630004558, 0.9827162015033094, 0.17936522950338268, 0.044359654517529094, -0.011366740922155338)",0.5,-0.619999885559,0.18000030517599996,0.0020000003277999973,-0.0010000020270000132,0.008000001312000016
1522082684.06,39399,1522053884,29400110,,794026,1522053881,382751047,,0.7959023102130001,-0.161399117108,0.0631287128219,0.982647534692,0.179005919096,0.046992561447300005,-0.0123451472988,-0.00189061145744,0.00274023374082,-0.00632279177046,0.00020379006036300002,0.00341056836381,0.00617304498193,6.62802934647,0.95884001255,-2.2991805076599996,0.499271571636,3.19280338287,0.9543633461,794424,1522053881,390840967,,"['head_nod', 'head_pan', 'left_e0', 'left_e1', 'left_s0', 'left_s1', 'left_w0', 'left_w1', 'left_w2', 'right_e0', 'right_e1', 'right_s0', 'right_s1', 'right_w0', 'right_w1', 'right_w2', 'torso_t0']","(0.0, -0.10162622719740866, -0.9146360447766779, 1.5086701048853044, 0.28685440733457235, 0.6527088252452435, 2.346990605464683, -0.476301034638421, -0.026077673394052033, 0.7232719414879726, 1.3192234775814558, 0.45827676038076737, -0.8080243800186417, -0.501228222441559, 1.1481846197322323, 0.05829126993964572, -12.565987119160338)","(0.0, -0.0023561944897503642, -0.012566370612001944, -0.009817477040626518, 0.01531526418337737, -0.008246680714126275, 0.009817477040626518, 0.0, -0.0019634954081253035, -0.0011780972448751821, -0.01060287520387664, -0.011388273367126762, -0.006675884387626033, 0.0007853981632501215, 0.009817477040626518, -0.01767145867312773, 0.0)","(0.0, 0.0, -14.492, 11.044, 0.308, 4.252, 0.068, -2.628, 0.316, 11.584, -14.512, 0.652, -24.92, 0.116, -0.16, -0.352, -20.48)",258935,1522053884,24877820,robotiq_force_torque_frame_id,-2.38499987125,-0.131999993324,0.33499832153299997,-0.0680000036955,-0.202000007033,-0.123000003397,275.0,277.0,305.0,349.0,388.0,96.0,96.0,101.0,117.0,119.0,7,"(0.7941553869361855, -0.16329374828934948, 0.06047321630004558, 0.9827162015033094, 0.17936522950338268, 0.044359654517529094, -0.011366740922155338)",0.3200000524600002,0.18999993801099999,-0.140003204346,-0.008000005036599991,-0.006000012159000007,-0.0050000026820000015
1522082684.06,39400,1522053884,39381027,,794028,1522053881,402750932,,0.795466417236,-0.162563899066,0.0629744297017,0.9827037827420001,0.17890872533500002,0.0463534738847,-0.011674709497200002,-0.00323116140028,-0.0025243783666000002,-0.00131891422222,-0.0143720172666,0.00862153781925,0.0061351865399999995,6.50335597992,1.0587136745499999,-2.14827990532,0.496889382601,3.1751282215099996,0.941253244877,794424,1522053881,390840967,,"['head_nod', 'head_pan', 'left_e0', 'left_e1', 'left_s0', 'left_s1', 'left_w0', 'left_w1', 'left_w2', 'right_e0', 'right_e1', 'right_s0', 'right_s1', 'right_w0', 'right_w1', 'right_w2', 'torso_t0']","(0.0, -0.10162622719740866, -0.9146360447766779, 1.5086701048853044, 0.28685440733457235, 0.6527088252452435, 2.346990605464683, -0.476301034638421, -0.026077673394052033, 0.7232719414879726, 1.3192234775814558, 0.45827676038076737, -0.8080243800186417, -0.501228222441559, 1.1481846197322323, 0.05829126993964572, -12.565987119160338)","(0.0, -0.0023561944897503642, -0.012566370612001944, -0.009817477040626518, 0.01531526418337737, -0.008246680714126275, 0.009817477040626518, 0.0, -0.0019634954081253035, -0.0011780972448751821, -0.01060287520387664, -0.011388273367126762, -0.006675884387626033, 0.0007853981632501215, 0.009817477040626518, -0.01767145867312773, 0.0)","(0.0, 0.0, -14.492, 11.044, 0.308, 4.252, 0.068, -2.628, 0.316, 11.584, -14.512, 0.652, -24.92, 0.116, -0.16, -0.352, -20.48)",258936,1522053884,33014490,robotiq_force_torque_frame_id,-2.15499997139,-0.281999969482,0.304999542236,-0.0790000036359,-0.18299999833099997,-0.128999993205,277.0,279.0,307.0,349.0,388.0,93.0,96.0,101.0,113.0,119.0,7,"(0.7941553869361855, -0.16329374828934948, 0.06047321630004558, 0.9827162015033094, 0.17936522950338268, 0.044359654517529094, -0.011366740922155338)",0.2299998998599997,-0.149999976158,-0.029998779296999956,-0.010999999940400004,0.019000008702000026,-0.0059999898079999975
1522082684.06,39401,1522053884,49412012,,794030,1522053881,422790639,,0.795480025765,-0.160208395746,0.06272793223590001,0.982530650167,0.17973118304400001,0.046605875079,-0.0125744078073,0.0123449784733,-0.00318510574434,0.0033636788527800004,-0.0032855130284099995,-0.023381339869499997,0.013262628742500001,6.58129262924,1.14300942421,-2.29538106918,0.38996469974500003,3.21848082542,0.9091480970379999,794426,1522053881,409881927,,"['head_nod', 'head_pan', 'left_e0', 'left_e1', 'left_s0', 'left_s1', 'left_w0', 'left_w1', 'left_w2', 'right_e0', 'right_e1', 'right_s0', 'right_s1', 'right_w0', 'right_w1', 'right_w2', 'torso_t0']","(0.0, -0.10200972239438001, -0.9150195399736493, 1.5082866096883332, 0.286470912137601, 0.6527088252452435, 2.348141091055597, -0.47553404424447826, -0.026077673394052033, 0.7236554366849439, 1.3192234775814558, 0.457893265183796, -0.8080243800186417, -0.5004612320476163, 1.1481846197322323, 0.05790777474267437, -12.565987119160338)","(0.0, 0.003141592653000486, -0.009817477040626518, -0.011388273367126762, 0.007461282550876154, -0.01021017612225158, 0.0023561944897503642, 0.013744467856877126, 0.010995574285501701, -0.006675884387626033, -0.019242254999627974, -0.012173671530376884, 0.0011780972448751821, -0.005890486224375911, 0.011780972448751823, 0.023954643979128706, 0.0)","(0.0, 0.0, -14.492, 11.076, 0.372, 4.284, 0.04, -2.616, 0.324, 11.52, -14.544, 0.62, -24.92, 0.116, -0.168, -0.352, -20.48)",258937,1522053884,45217493,robotiq_force_torque_frame_id,-2.6249998807900004,-0.68200006485,0.345000457764,-0.0869999974966,-0.179000005126,-0.126000002027,279.0,287.0,312.0,347.0,384.0,96.0,100.0,110.0,111.0,113.0,7,"(0.7941553869361855, -0.16329374828934948, 0.06047321630004558, 0.9827162015033094, 0.17936522950338268, 0.044359654517529094, -0.011366740922155338)",-0.46999990940000025,-0.40000009536799996,0.040000915528,-0.007999993860700008,0.003999993204999969,0.0029999911779999833
1522082684.1,39402,1522053884,59602975,,794030,1522053881,422790639,,0.795480025765,-0.160208395746,0.06272793223590001,0.982530650167,0.17973118304400001,0.046605875079,-0.0125744078073,0.0123449784733,-0.00318510574434,0.0033636788527800004,-0.0032855130284099995,-0.023381339869499997,0.013262628742500001,6.58129262924,1.14300942421,-2.29538106918,0.38996469974500003,3.21848082542,0.9091480970379999,794426,1522053881,409881927,,"['head_nod', 'head_pan', 'left_e0', 'left_e1', 'left_s0', 'left_s1', 'left_w0', 'left_w1', 'left_w2', 'right_e0', 'right_e1', 'right_s0', 'right_s1', 'right_w0', 'right_w1', 'right_w2', 'torso_t0']","(0.0, -0.10200972239438001, -0.9150195399736493, 1.5082866096883332, 0.286470912137601, 0.6527088252452435, 2.348141091055597, -0.47553404424447826, -0.026077673394052033, 0.7236554366849439, 1.3192234775814558, 0.457893265183796, -0.8080243800186417, -0.5004612320476163, 1.1481846197322323, 0.05790777474267437, -12.565987119160338)","(0.0, 0.003141592653000486, -0.009817477040626518, -0.011388273367126762, 0.007461282550876154, -0.01021017612225158, 0.0023561944897503642, 0.013744467856877126, 0.010995574285501701, -0.006675884387626033, -0.019242254999627974, -0.012173671530376884, 0.0011780972448751821, -0.005890486224375911, 0.011780972448751823, 0.023954643979128706, 0.0)","(0.0, 0.0, -14.492, 11.076, 0.372, 4.284, 0.04, -2.616, 0.324, 11.52, -14.544, 0.62, -24.92, 0.116, -0.168, -0.352, -20.48)",258938,1522053884,53358375,robotiq_force_torque_frame_id,-2.82499992847,-0.6920000553129999,0.24499816894499998,-0.0630000010133,-0.190999999642,-0.133000001311,282.0,287.0,312.0,357.0,384.0,100.0,105.0,108.0,110.0,117.0,7,"(0.7941553869361855, -0.16329374828934948, 0.06047321630004558, 0.9827162015033094, 0.17936522950338268, 0.044359654517529094, -0.011366740922155338)",-0.20000004767999968,-0.00999999046299993,-0.10000228881900003,0.023999996483300007,-0.011999994516000007,-0.006999999283999997
1522082684.1,39403,1522053884,69394111,,794031,1522053881,432790445,,0.7957001952060001,-0.161036599793,0.0626400281102,0.982515211902,0.17979201455,0.0468710236921,-0.011907855563000001,-0.0118286183396,0.0198178005107,-0.00771843642463,-0.00560379750945,0.00775245640953,0.0409368132905,6.34045267105,0.9121146202089999,-2.13893771172,0.5653508901600001,3.13503885269,0.953305959702,314026,1522053881,443000064,,['l_gripper_l_finger_joint'],"(0.02083,)","(0.0,)","(0.0,)",258939,1522053884,65570363,robotiq_force_torque_frame_id,-2.6249998807900004,-0.21200003624000002,0.144999694824,-0.0630000010133,-0.201000005007,-0.153999999166,282.0,309.0,312.0,357.0,384.0,97.0,105.0,105.0,108.0,117.0,7,"(0.7941553869361855, -0.16329374828934948, 0.06047321630004558, 0.9827162015033094, 0.17936522950338268, 0.044359654517529094, -0.011366740922155338)",0.20000004767999968,0.4800000190729999,-0.09999847412099999,0.0,-0.010000005364999981,-0.02099999785499998
1522082684.1,39404,1522053884,79493045,,794031,1522053881,432790445,,0.7957001952060001,-0.161036599793,0.0626400281102,0.982515211902,0.17979201455,0.0468710236921,-0.011907855563000001,-0.0118286183396,0.0198178005107,-0.00771843642463,-0.00560379750945,0.00775245640953,0.0409368132905,6.34045267105,0.9121146202089999,-2.13893771172,0.5653508901600001,3.13503885269,0.953305959702,794429,1522053881,440882104,,"['head_nod', 'head_pan', 'left_e0', 'left_e1', 'left_s0', 'left_s1', 'left_w0', 'left_w1', 'left_w2', 'right_e0', 'right_e1', 'right_s0', 'right_s1', 'right_w0', 'right_w1', 'right_w2', 'torso_t0']","(0.0, -0.10162622719740866, -0.9150195399736493, 1.5090536000822758, 0.28685440733457235, 0.6527088252452435, 2.346990605464683, -0.476301034638421, -0.025310683000109326, 0.7236554366849439, 1.3188399823844845, 0.45827676038076737, -0.8080243800186417, -0.5008447272445876, 1.1481846197322323, 0.05790777474267437, -12.565987119160338)","(0.0, -0.006675884387626033, 0.00039269908162506076, 0.018064157754752792, -0.018849555918002914, -0.006675884387626033, -0.034164820101380285, -0.0035342917346255468, -0.0047123889795007284, -0.001570796326500243, 0.009424777959001457, -0.012959069693627005, 0.01727875959150267, 0.015707963265002428, 0.007461282550876154, -0.01021017612225158, 0.0)","(0.0, 0.0, -14.428, 11.012, 0.404, 4.216, 0.06, -2.596, 0.344, 11.424, -14.512, 0.62, -24.948, 0.1, -0.168, -0.364, -20.48)",258940,1522053884,73721146,robotiq_force_torque_frame_id,-2.6449999809299998,0.177999949455,0.00500030517578,-0.057000000029800005,-0.202999994159,-0.158000007272,290.0,309.0,312.0,337.0,388.0,88.0,95.0,100.0,105.0,120.0,7,"(0.7941553869361855, -0.16329374828934948, 0.06047321630004558, 0.9827162015033094, 0.17936522950338268, 0.044359654517529094, -0.011366740922155338)",-0.02000010013999942,0.38999998569500005,-0.13999938964821998,0.006000000983499995,-0.0019999891520000035,-0.004000008106000014
1522082684.1,39405,1522053884,89440107,,794033,1522053881,452789877,,0.795618204182,-0.161361426052,0.0629587179762,0.982570605757,0.17950754386,0.046720450665300006,-0.012216623475799998,0.00214086471213,-0.027704235342399998,-1.42549596997e-05,-0.007324313397270001,0.00968940784791,-0.04847641503050001,6.676609516139999,1.14265370369,-2.25843524933,0.41651889681800003,3.2688186168700004,0.919336557388,314027,1522053881,444999936,,['r_gripper_l_finger_joint'],"(0.0010160976007208228,)","(0.0,)","(0.0,)",258941,1522053884,81875555,robotiq_force_torque_frame_id,-2.91499996185,-0.0019999980926500003,0.214999389648,-0.059000000357599995,-0.202000007033,-0.153999999166,285.0,291.0,299.0,337.0,388.0,84.0,95.0,100.0,121.0,135.0,7,"(0.7941553869361855, -0.16329374828934948, 0.06047321630004558, 0.9827162015033094, 0.17936522950338268, 0.044359654517529094, -0.011366740922155338)",-0.2699999809200002,-0.17999994754765,0.20999908447222,-0.0020000003277999903,0.000999987125999996,0.004000008106000014
1522082684.1,39406,1522053884,99673032,,794034,1522053881,462789805,,0.795510827054,-0.161460512208,0.0626759939509,0.982654293794,0.179075108295,0.0465517686008,-0.012473063698,0.0173735845777,0.00337695189984,0.0194015653632,-0.0137945173777,-0.0456088673422,0.022417910508699998,6.43956708908,1.11490893364,-2.17452597618,0.428988575935,3.17728614807,0.9227934479709999,794431,1522053881,460881744,,"['head_nod', 'head_pan', 'left_e0', 'left_e1', 'left_s0', 'left_s1', 'left_w0', 'left_w1', 'left_w2', 'right_e0', 'right_e1', 'right_s0', 'right_s1', 'right_w0', 'right_w1', 'right_w2', 'torso_t0']","(0.0, -0.1012427320004373, -0.9150195399736493, 1.5086701048853044, 0.286470912137601, 0.6530923204422149, 2.3477575958586256, -0.47668452983539233, -0.026077673394052033, 0.7236554366849439, 1.3196069727784272, 0.45750976998682463, -0.8080243800186417, -0.5008447272445876, 1.1481846197322323, 0.05829126993964572, -12.565987119160338)","(0.0, 0.0011780972448751821, -0.0019634954081253035, -0.009817477040626518, 0.0047123889795007284, 0.007853981632501214, 0.01021017612225158, -0.01727875959150267, -0.018456856836377853, 0.01060287520387664, -0.01060287520387664, 0.0070685834692510935, -0.021598449489378342, -0.02081305132612822, -0.005890486224375911, -0.005890486224375911, 0.0)","(0.0, 0.0, -14.492, 11.044, 0.404, 4.216, 0.032, -2.608, 0.336, 11.456, -14.484, 0.652, -24.98, 0.108, -0.14, -0.336, -20.48)",258942,1522053884,94067455,robotiq_force_torque_frame_id,-2.75499987602,-0.40200009346,0.444998931885,-0.0560000017285,-0.203999996185,-0.146999999881,285.0,295.0,306.0,354.0,399.0,84.0,97.0,109.0,135.0,137.0,7,"(0.7941553869361855, -0.16329374828934948, 0.06047321630004558, 0.9827162015033094, 0.17936522950338268, 0.044359654517529094, -0.011366740922155338)",0.16000008583000014,-0.40000009536735,0.229999542237,0.002999998629099998,-0.0019999891520000035,0.006999999285000003
1522082684.11,39407,1522053884,109412908,,794034,1522053881,462789805,,0.795510827054,-0.161460512208,0.0626759939509,0.982654293794,0.179075108295,0.0465517686008,-0.012473063698,0.0173735845777,0.00337695189984,0.0194015653632,-0.0137945173777,-0.0456088673422,0.022417910508699998,6.43956708908,1.11490893364,-2.17452597618,0.428988575935,3.17728614807,0.9227934479709999,794431,1522053881,460881744,,"['head_nod', 'head_pan', 'left_e0', 'left_e1', 'left_s0', 'left_s1', 'left_w0', 'left_w1', 'left_w2', 'right_e0', 'right_e1', 'right_s0', 'right_s1', 'right_w0', 'right_w1', 'right_w2', 'torso_t0']","(0.0, -0.1012427320004373, -0.9150195399736493, 1.5086701048853044, 0.286470912137601, 0.6530923204422149, 2.3477575958586256, -0.47668452983539233, -0.026077673394052033, 0.7236554366849439, 1.3196069727784272, 0.45750976998682463, -0.8080243800186417, -0.5008447272445876, 1.1481846197322323, 0.05829126993964572, -12.565987119160338)","(0.0, 0.0011780972448751821, -0.0019634954081253035, -0.009817477040626518, 0.0047123889795007284, 0.007853981632501214, 0.01021017612225158, -0.01727875959150267, -0.018456856836377853, 0.01060287520387664, -0.01060287520387664, 0.0070685834692510935, -0.021598449489378342, -0.02081305132612822, -0.005890486224375911, -0.005890486224375911, 0.0)","(0.0, 0.0, -14.492, 11.044, 0.404, 4.216, 0.032, -2.608, 0.336, 11.456, -14.484, 0.652, -24.98, 0.108, -0.14, -0.336, -20.48)",258943,1522053884,102201673,robotiq_force_torque_frame_id,-2.20499992371,0.0980000257492,0.354998779297,-0.05099999904630001,-0.190999999642,-0.136000007391,284.0,295.0,306.0,351.0,404.0,90.0,97.0,109.0,135.0,137.0,7,"(0.7941553869361855, -0.16329374828934948, 0.06047321630004558, 0.9827162015033094, 0.17936522950338268, 0.044359654517529094, -0.011366740922155338)",0.5499999523099999,0.5000001192092,-0.09000015258799998,0.005000002682199987,0.012999996542999992,0.010999992489999999
1522082684.15,39408,1522053884,119427919,,794036,1522053881,482781186,,0.795334921508,-0.160703008418,0.0624482554983,0.982477411064,0.180081152342,0.04642359856100001,-0.012400194197499999,-0.00746651119022,0.0176386831656,-0.00520891802186,0.010838538027899998,0.0067732976812399995,0.02314735199,6.63865280151,0.988169312477,-2.09675693512,0.5871033668519999,3.28625440598,0.986890554428,794431,1522053881,460881744,,"['head_nod', 'head_pan', 'left_e0', 'left_e1', 'left_s0', 'left_s1', 'left_w0', 'left_w1', 'left_w2', 'right_e0', 'right_e1', 'right_s0', 'right_s1', 'right_w0', 'right_w1', 'right_w2', 'torso_t0']","(0.0, -0.1012427320004373, -0.9150195399736493, 1.5086701048853044, 0.286470912137601, 0.6530923204422149, 2.3477575958586256, -0.47668452983539233, -0.026077673394052033, 0.7236554366849439, 1.3196069727784272, 0.45750976998682463, -0.8080243800186417, -0.5008447272445876, 1.1481846197322323, 0.05829126993964572, -12.565987119160338)","(0.0, 0.0011780972448751821, -0.0019634954081253035, -0.009817477040626518, 0.0047123889795007284, 0.007853981632501214, 0.01021017612225158, -0.01727875959150267, -0.018456856836377853, 0.01060287520387664, -0.01060287520387664, 0.0070685834692510935, -0.021598449489378342, -0.02081305132612822, -0.005890486224375911, -0.005890486224375911, 0.0)","(0.0, 0.0, -14.492, 11.044, 0.404, 4.216, 0.032, -2.608, 0.336, 11.456, -14.484, 0.652, -24.98, 0.108, -0.14, -0.336, -20.48)",258944,1522053884,114399475,robotiq_force_torque_frame_id,-2.25499987602,0.328000044823,0.0849983215332,-0.057000000029800005,-0.193000003695,-0.127000004053,283.0,284.0,284.0,351.0,404.0,96.0,102.0,104.0,106.0,135.0,7,"(0.7941553869361855, -0.16329374828934948, 0.06047321630004558, 0.9827162015033094, 0.17936522950338268, 0.044359654517529094, -0.011366740922155338)",-0.04999995230999987,0.2300000190738,-0.2700004577638,-0.006000000983499995,-0.002000004052999993,0.009000003337999996
1522082684.15,39409,1522053884,129436016,,794038,1522053881,502789293,,0.795397159218,-0.161998666468,0.0621615290601,0.982655438432,0.179149426052,0.0463193288084,-0.0121775303145,0.00468494202216,-0.0194196927505,0.00105498389466,-0.00023463818402000002,-0.004596454037,-0.0250146196159,6.68164730072,0.995198071003,-2.1978662013999997,0.495356231928,3.28231191635,0.973428487778,314028,1522053881,492999936,,['l_gripper_l_finger_joint'],"(0.02083,)","(0.0,)","(0.0,)",258945,1522053884,122545407,robotiq_force_torque_frame_id,-2.96499991417,-0.422000074387,0.014998626709,-0.0599999986589,-0.19699999690099998,-0.135000005364,283.0,284.0,286.0,360.0,411.0,94.0,96.0,96.0,106.0,135.0,7,"(0.7941553869361855, -0.16329374828934948, 0.06047321630004558, 0.9827162015033094, 0.17936522950338268, 0.044359654517529094, -0.011366740922155338)",-0.71000003815,-0.75000011921,-0.0699996948242,-0.002999998629099998,-0.003999993205999974,-0.00800000131100001
1522082684.15,39410,1522053884,139432907,,794038,1522053881,502789293,,0.795397159218,-0.161998666468,0.0621615290601,0.982655438432,0.179149426052,0.0463193288084,-0.0121775303145,0.00468494202216,-0.0194196927505,0.00105498389466,-0.00023463818402000002,-0.004596454037,-0.0250146196159,6.68164730072,0.995198071003,-2.1978662013999997,0.495356231928,3.28231191635,0.973428487778,314028,1522053881,492999936,,['l_gripper_l_finger_joint'],"(0.02083,)","(0.0,)","(0.0,)",258946,1522053884,134772317,robotiq_force_torque_frame_id,-2.97499990463,-0.732000017166,-0.00500183105468,-0.0560000017285,-0.193000003695,-0.145999997854,286.0,301.0,303.0,360.0,411.0,94.0,96.0,104.0,106.0,135.0,7,"(0.7941553869361855, -0.16329374828934948, 0.06047321630004558, 0.9827162015033094, 0.17936522950338268, 0.044359654517529094, -0.011366740922155338)",-0.00999999046000033,-0.30999994277900006,-0.02000045776368,0.003999996930400006,0.003999993205999974,-0.010999992489999999
