time,.header.seq,.header.stamp.secs,.header.stamp.nsecs,.header.frame_id,.endpoint_state.header.seq,.endpoint_state.header.stamp.secs,.endpoint_state.header.stamp.nsecs,.endpoint_state.header.frame_id,.endpoint_state.pose.position.x,.endpoint_state.pose.position.y,.endpoint_state.pose.position.z,.endpoint_state.pose.orientation.x,.endpoint_state.pose.orientation.y,.endpoint_state.pose.orientation.z,.endpoint_state.pose.orientation.w,.endpoint_state.twist.linear.x,.endpoint_state.twist.linear.y,.endpoint_state.twist.linear.z,.endpoint_state.twist.angular.x,.endpoint_state.twist.angular.y,.endpoint_state.twist.angular.z,.endpoint_state.wrench.force.x,.endpoint_state.wrench.force.y,.endpoint_state.wrench.force.z,.endpoint_state.wrench.torque.x,.endpoint_state.wrench.torque.y,.endpoint_state.wrench.torque.z,.joint_state.header.seq,.joint_state.header.stamp.secs,.joint_state.header.stamp.nsecs,.joint_state.header.frame_id,.joint_state.name,.joint_state.position,.joint_state.velocity,.joint_state.effort,.wrench_stamped.header.seq,.wrench_stamped.header.stamp.secs,.wrench_stamped.header.stamp.nsecs,.wrench_stamped.header.frame_id,.wrench_stamped.wrench.force.x,.wrench_stamped.wrench.force.y,.wrench_stamped.wrench.force.z,.wrench_stamped.wrench.torque.x,.wrench_stamped.wrench.torque.y,.wrench_stamped.wrench.torque.z,.tactile_values.tactile_values_0,.tactile_values.tactile_values_1,.tactile_values.tactile_values_2,.tactile_values.tactile_values_3,.tactile_values.tactile_values_4,.tactile_values.tactile_values_5,.tactile_values.tactile_values_6,.tactile_values.tactile_values_7,.tactile_values.tactile_values_8,.tactile_values.tactile_values_9,.tag,.goal_vector,.delta_wrench.force.x,.delta_wrench.force.y,.delta_wrench.force.z,.delta_wrench.torque.x,.delta_wrench.torque.y,.delta_wrench.torque.z
1522692266.57,25974,1522663466,565644979,,1374098,1522663464,16621114,,0.725319629922,-0.16360547242999998,0.084503858388,0.967749282836,0.250069765277,-0.004210895397769999,-0.0301447578284,0.0202796445986,0.0356739879651,0.0398082976947,0.0133351771798,-0.0699120320394,0.0794588309984,5.92665290833,-1.16336214542,2.4654798507700004,1.0790784359,2.42638635635,0.29109582305,1374449,1522663464,24703068,,"['head_nod', 'head_pan', 'left_e0', 'left_e1', 'left_s0', 'left_s1', 'left_w0', 'left_w1', 'left_w2', 'right_e0', 'right_e1', 'right_s0', 'right_s1', 'right_w0', 'right_w1', 'right_w2', 'torso_t0']","(0.0, -0.1012427320004373, -0.9065826456402796, 1.50176719133982, 0.2791845033951453, 0.6450389213058165, 2.3412381775101125, -0.48703890015361884, -0.033364082136507746, 0.09357282806101024, 1.3817331946877864, 0.8298836062460089, -0.9307428430494747, 0.0038349519697135344, 1.138213744610977, 2.759247942208888, -12.565987119160338)","(0.0, -0.004319689897875668, -0.004319689897875668, -0.008246680714126275, -0.003926990816250607, 0.018064157754752792, 0.0011780972448751821, -0.02042035224450316, -0.014922565101752308, -0.001570796326500243, -0.03769911183600583, 0.048694686121507534, -0.028667032958629435, 0.019242254999627974, 0.005497787142750851, 0.028274333877004374, 0.0)","(0.0, 0.0, -14.46, 11.012, 0.184, 5.036, 0.076, -2.656, 0.324, 1.416, -14.784, -1.308, -28.468, 0.536, 0.228, 0.0, -20.48)",1356824,1522663466,557562710,robotiq_force_torque_frame_id,0.314000117779,5.55299994946,-3.53099937439,-0.652999997139,0.035000000148999996,-0.0260000005364,452.0,572.0,634.0,682.0,1046.0,269.0,272.0,415.0,482.0,1199.0,7,"(0.7068928988390385, -0.18041124666693326, 0.031934104602832594, -0.24130622843332755, 0.9699328762617295, 0.031155576805254506, -0.00555425061222305)",0.0,0.0,0.0,0.0,0.0,0.0
1522692266.61,25975,1522663466,575649023,,1374099,1522663464,26632497,,0.725833162739,-0.163684862467,0.0851812364049,0.967906582418,0.24948158551999997,-0.00346772735771,-0.0300626190796,0.0222347351112,0.0401347029094,0.0297880849059,0.0208748877336,-0.056381420776,0.009155107987780001,5.26935243607,-1.1971428394299999,2.40269780159,1.05965662003,2.19264864922,0.302332282066,1374450,1522663464,34677442,,"['head_nod', 'head_pan', 'left_e0', 'left_e1', 'left_s0', 'left_s1', 'left_w0', 'left_w1', 'left_w2', 'right_e0', 'right_e1', 'right_s0', 'right_s1', 'right_w0', 'right_w1', 'right_w2', 'torso_t0']","(0.0, -0.10162622719740866, -0.9069661408372509, 1.5025341817337627, 0.27880100819817394, 0.6454224165027879, 2.3412381775101125, -0.48780589054756157, -0.032213596545593685, 0.09395632325798159, 1.381349699490815, 0.8302671014429802, -0.9315098334434175, 0.003451456772742181, 1.1374467542170343, 2.7596314374058593, -12.565987119160338)","(0.0, 0.013351768775252066, 0.0, 0.0070685834692510935, 0.023954643979128706, 0.008246680714126275, -0.005890486224375911, 0.01021017612225158, 0.0035342917346255468, 0.01727875959150267, -0.012173671530376884, 0.04162610265225644, -0.019242254999627974, 0.003141592653000486, -0.012959069693627005, 0.02042035224450316, 0.0)","(0.0, 0.0, -14.72, 11.012, 0.092, 5.1, 0.076, -2.696, 0.336, 1.256, -14.784, -1.432, -28.704, 0.512, 0.248, 0.0, -20.48)",1356825,1522663466,565716188,robotiq_force_torque_frame_id,0.36400007009499996,6.2029999256099995,-3.3909999847400005,-0.674000024796,0.0219999998808,-0.0179999992251,457.0,569.0,634.0,694.0,1030.0,269.0,281.0,401.0,483.0,1209.0,7,"(0.7068928988390385, -0.18041124666693326, 0.031934104602832594, -0.24130622843332755, 0.9699328762617295, 0.031155576805254506, -0.00555425061222305)",0.04999995231599996,0.6499999761499993,0.13999938964999936,-0.02100002765699993,-0.013000000268199995,0.0080000013113
1522692266.61,25976,1522663466,585648059,,1374101,1522663464,46621193,,0.726345974768,-0.163764430539,0.0858594725859,0.967919612149,0.24945005283100002,-0.0027071335688,-0.0299827781837,0.0036148762498,0.046463217625000004,0.0114511739389,0.0280741302709,-0.031182098253099998,0.043991883421199994,3.8730623722099997,-1.95456898212,3.4428126812,1.29662001133,1.69604182243,0.30666911601999997,1374450,1522663464,34677442,,"['head_nod', 'head_pan', 'left_e0', 'left_e1', 'left_s0', 'left_s1', 'left_w0', 'left_w1', 'left_w2', 'right_e0', 'right_e1', 'right_s0', 'right_s1', 'right_w0', 'right_w1', 'right_w2', 'torso_t0']","(0.0, -0.10162622719740866, -0.9069661408372509, 1.5025341817337627, 0.27880100819817394, 0.6454224165027879, 2.3412381775101125, -0.48780589054756157, -0.032213596545593685, 0.09395632325798159, 1.381349699490815, 0.8302671014429802, -0.9315098334434175, 0.003451456772742181, 1.1374467542170343, 2.7596314374058593, -12.565987119160338)","(0.0, 0.013351768775252066, 0.0, 0.0070685834692510935, 0.023954643979128706, 0.008246680714126275, -0.005890486224375911, 0.01021017612225158, 0.0035342917346255468, 0.01727875959150267, -0.012173671530376884, 0.04162610265225644, -0.019242254999627974, 0.003141592653000486, -0.012959069693627005, 0.02042035224450316, 0.0)","(0.0, 0.0, -14.72, 11.012, 0.092, 5.1, 0.076, -2.696, 0.336, 1.256, -14.784, -1.432, -28.704, 0.512, 0.248, 0.0, -20.48)",1356826,1522663466,577925825,robotiq_force_torque_frame_id,0.7439999461169999,5.733000016209999,-3.6610004425,-0.6800000071529999,0.014999999664700002,-0.00899999961257,457.0,535.0,634.0,652.0,1030.0,272.0,275.0,402.0,477.0,1209.0,7,"(0.7068928988390385, -0.18041124666693326, 0.031934104602832594, -0.24130622843332755, 0.9699328762617295, 0.031155576805254506, -0.00555425061222305)",0.37999987602199997,-0.46999990940000025,-0.27000045775999926,-0.005999982356999944,-0.0070000002161,0.00899999961253
1522692266.61,25977,1522663466,595594882,,1374102,1522663464,56659998,,0.726171941077,-0.162390486588,0.0862115710152,0.967770457386,0.250030704035,-0.00254605618723,-0.029975097150500004,0.0271945885531,0.0214411807638,0.031236022593000002,0.0117861043434,-0.0887735184485,0.00490482540356,3.39185523987,-2.1966531276700003,4.108405590059999,1.33924162388,1.52148365974,0.328629463911,1374452,1522663464,54742147,,"['head_nod', 'head_pan', 'left_e0', 'left_e1', 'left_s0', 'left_s1', 'left_w0', 'left_w1', 'left_w2', 'right_e0', 'right_e1', 'right_s0', 'right_s1', 'right_w0', 'right_w1', 'right_w2', 'torso_t0']","(0.0, -0.10085923680346595, -0.9069661408372509, 1.50176719133982, 0.2791845033951453, 0.6438884357149024, 2.3420051679040554, -0.48857288094150425, -0.03298058693953639, 0.09395632325798159, 1.3821166898847579, 0.8314175870338942, -0.9326603190343316, 0.0038349519697135344, 1.1378302494140056, 2.7600149326028305, -12.565987119160338)","(0.0, -0.0023561944897503642, 0.003141592653000486, 0.001570796326500243, 0.0007853981632501215, -0.004319689897875668, -0.024740042142378828, -0.006283185306000972, -0.004319689897875668, -0.018456856836377853, 0.003926990816250607, 0.03730641275438077, -0.05537057050913356, 0.01767145867312773, -0.0400553063257562, 0.007853981632501214, 0.0)","(0.0, 0.0, -14.556, 10.884, 0.184, 5.036, 0.076, -2.656, 0.336, 1.196, -14.964, -1.804, -29.552, 0.412, 0.3, -0.044, -20.48)",1356827,1522663466,586064367,robotiq_force_torque_frame_id,0.703999984264,5.34300003052,-3.78099937439,-0.6899999976160001,0.0109999999404,0.0010000000474999998,449.0,535.0,626.0,652.0,1010.0,272.0,276.0,402.0,477.0,1241.0,7,"(0.7068928988390385, -0.18041124666693326, 0.031934104602832594, -0.24130622843332755, 0.9699328762617295, 0.031155576805254506, -0.00555425061222305)",-0.03999996185299992,-0.3899999856899994,-0.1199989318900001,-0.009999990463000152,-0.003999999724300001,0.00999999966007
1522692266.65,25978,1522663466,605690956,,1374103,1522663464,66631189,,0.725774246169,-0.162283372674,0.0857640066587,0.967686839883,0.250314999611,-0.0030800414130800003,-0.030250524506900002,0.00477531609603,0.0537903254764,0.0234182397278,0.0288157607625,-0.047700876668099995,0.0375446291709,3.3237090110799996,-2.3770108223,4.48222160339,1.38313996792,1.5327632427200002,0.334026515484,543434,1522663464,65999872,,['l_gripper_l_finger_joint'],"(0.0032494800670444966,)","(0.0,)","(0.0,)",1356828,1522663466,598402264,robotiq_force_torque_frame_id,0.35400007963200003,5.7029999256099995,-3.5609981536900004,-0.679000020027,0.00499999988824,0.00300000002608,449.0,514.0,626.0,633.0,1010.0,261.0,276.0,392.0,479.0,1241.0,7,"(0.7068928988390385, -0.18041124666693326, 0.031934104602832594, -0.24130622843332755, 0.9699328762617295, 0.031155576805254506, -0.00555425061222305)",-0.349999904632,0.35999989508999963,0.2200012206999995,0.010999977589000065,-0.00600000005216,0.0019999999785800006
1522692266.65,25979,1522663466,615576982,,1374104,1522663464,76621536,,0.72632553815,-0.161427738663,0.08591474416139999,0.9677339720020001,0.250098014128,-0.0022792739575300002,-0.030606333870900004,-0.00440726097908,0.031968951503400005,-0.000307424006084,0.021699619713400002,-0.008765750631219999,0.0224825530365,3.95470452309,-2.36518645287,4.46995067596,1.42360758781,1.80770409107,0.37542286515199996,1374454,1522663464,74719928,,"['head_nod', 'head_pan', 'left_e0', 'left_e1', 'left_s0', 'left_s1', 'left_w0', 'left_w1', 'left_w2', 'right_e0', 'right_e1', 'right_s0', 'right_s1', 'right_w0', 'right_w1', 'right_w2', 'torso_t0']","(0.0, -0.1012427320004373, -0.9069661408372509, 1.50176719133982, 0.27880100819817394, 0.6450389213058165, 2.3408546823131413, -0.48742239535059023, -0.032213596545593685, 0.09433981845495294, 1.3817331946877864, 0.8318010822308656, -0.9318933286403889, 0.004985437560627594, 1.1370632590200629, 2.7600149326028305, -12.565987119160338)","(0.0, -0.0070685834692510935, -0.007853981632501214, 0.005497787142750851, 0.015707963265002428, -0.009032078877376396, 0.004319689897875668, -0.029452431121879556, 0.001570796326500243, 0.012173671530376884, 0.021598449489378342, 0.027488935713754253, -0.01021017612225158, 0.015707963265002428, -0.023169245815878585, 0.007853981632501214, 0.0)","(0.0, 0.0, -14.752, 10.756, 0.06, 5.036, 0.096, -2.588, 0.316, 1.256, -15.112, -1.992, -29.668, 0.368, 0.368, -0.028, -20.48)",1356829,1522663466,606553566,robotiq_force_torque_frame_id,0.253999936581,6.053000068659999,-3.6110012054400005,-0.634999990463,0.035999998450300004,0.0040000001899899995,447.0,514.0,627.0,633.0,1018.0,261.0,281.0,392.0,479.0,1249.0,7,"(0.7068928988390385, -0.18041124666693326, 0.031934104602832594, -0.24130622843332755, 0.9699328762617295, 0.031155576805254506, -0.00555425061222305)",-0.10000014305100002,0.35000014304999993,-0.05000305175000008,0.044000029563999954,0.030999998562060004,0.0010000001639099993
1522692266.65,25980,1522663466,626102924,,1374104,1522663464,76621536,,0.72632553815,-0.161427738663,0.08591474416139999,0.9677339720020001,0.250098014128,-0.0022792739575300002,-0.030606333870900004,-0.00440726097908,0.031968951503400005,-0.000307424006084,0.021699619713400002,-0.008765750631219999,0.0224825530365,3.95470452309,-2.36518645287,4.46995067596,1.42360758781,1.80770409107,0.37542286515199996,1374455,1522663464,84678832,,"['head_nod', 'head_pan', 'left_e0', 'left_e1', 'left_s0', 'left_s1', 'left_w0', 'left_w1', 'left_w2', 'right_e0', 'right_e1', 'right_s0', 'right_s1', 'right_w0', 'right_w1', 'right_w2', 'torso_t0']","(0.0, -0.1012427320004373, -0.9061991504433081, 1.5029176769307342, 0.2784175130012026, 0.6454224165027879, 2.3412381775101125, -0.48742239535059023, -0.032213596545593685, 0.09395632325798159, 1.3817331946877864, 0.8321845774278369, -0.9322768238373602, 0.004601942363656241, 1.1378302494140056, 2.760398427799802, -12.565987119160338)","(0.0, -0.009817477040626518, 0.011388273367126762, -0.009817477040626518, -0.0027488935713754254, 0.007461282550876154, 0.00039269908162506076, -0.0011780972448751821, 0.01649336142825255, 0.014529866020127248, 0.0007853981632501215, 0.03534291734625546, -0.024740042142378828, 0.012959069693627005, -0.012959069693627005, -0.022776546734253524, 0.0)","(0.0, 0.0, -14.62, 10.82, 0.028, 5.132, 0.076, -2.616, 0.308, 1.288, -15.172, -2.088, -29.552, 0.328, 0.36, -0.044, -20.48)",1356831,1522663466,626902825,robotiq_force_torque_frame_id,1.2539999365799999,5.0129999876,-3.34100074768,-0.554000020027,0.054999999702,0.00999999977648,442.0,494.0,598.0,621.0,977.0,257.0,281.0,376.0,446.0,1249.0,7,"(0.7068928988390385, -0.18041124666693326, 0.031934104602832594, -0.24130622843332755, 0.9699328762617295, 0.031155576805254506, -0.00555425061222305)",0.9999999999989999,-1.0400000810599996,0.2700004577600006,0.08099997043600005,0.019000001251699997,0.005999999586490001
1522692266.65,25981,1522663466,635656118,,1374106,1522663464,96637069,,0.7263494711740001,-0.160668569945,0.086475510364,0.967587894898,0.250676962107,-0.00192424495781,-0.0305126792945,-0.00529212677057,0.0160927405052,0.00863999185598,0.0190313713536,0.00902761071369,-0.0165519447868,4.26375675201,-2.51274299622,4.094716548919999,1.43988871574,1.85818171501,0.396740108728,1374456,1522663464,94677239,,"['head_nod', 'head_pan', 'left_e0', 'left_e1', 'left_s0', 'left_s1', 'left_w0', 'left_w1', 'left_w2', 'right_e0', 'right_e1', 'right_s0', 'right_s1', 'right_w0', 'right_w1', 'right_w2', 'torso_t0']","(0.0, -0.1012427320004373, -0.9065826456402796, 1.5021506865367915, 0.2784175130012026, 0.6450389213058165, 2.3412381775101125, -0.48742239535059023, -0.03259709174256504, 0.09433981845495294, 1.3821166898847579, 0.8329515678217797, -0.9330438142313029, 0.004985437560627594, 1.1370632590200629, 2.7600149326028305, -12.565987119160338)","(0.0, 0.013744467856877126, -0.0019634954081253035, 0.005890486224375911, -0.008246680714126275, 0.0019634954081253035, 0.009032078877376396, 0.004319689897875668, 0.0007853981632501215, -0.0011780972448751821, 0.00039269908162506076, 0.013351768775252066, -0.013744467856877126, 0.024347343060753767, 0.018064157754752792, 0.019634954081253035, 0.0)","(0.0, 0.0, -14.492, 10.852, 0.152, 5.036, 0.084, -2.636, 0.308, 1.164, -15.112, -2.116, -29.464, 0.292, 0.3, -0.036, -20.48)",1356832,1522663466,635049853,robotiq_force_torque_frame_id,0.834000098705,5.38299999237,-3.4409992218000003,-0.554000020027,0.06499999761580001,0.0040000001899899995,442.0,494.0,564.0,621.0,977.0,256.0,277.0,376.0,468.0,1267.0,7,"(0.7068928988390385, -0.18041124666693326, 0.031934104602832594, -0.24130622843332755, 0.9699328762617295, 0.031155576805254506, -0.00555425061222305)",-0.41999983787499984,0.3700000047700005,-0.0999984741200004,0.0,0.009999997913800011,-0.005999999586490001
1522692266.69,25982,1522663466,645627021,,1374107,1522663464,106649624,,0.725795955443,-0.160731993288,0.0862667912672,0.967729913927,0.250093999502,-0.0026758021573,-0.0307350807002,-0.0127181647134,0.0363742160224,0.00563267279875,0.0211663098257,0.026153147603599998,0.0391366613314,4.08409786224,-2.3395388126400003,3.85879588127,1.30015313625,1.72592401505,0.324841082096,1374456,1522663464,94677239,,"['head_nod', 'head_pan', 'left_e0', 'left_e1', 'left_s0', 'left_s1', 'left_w0', 'left_w1', 'left_w2', 'right_e0', 'right_e1', 'right_s0', 'right_s1', 'right_w0', 'right_w1', 'right_w2', 'torso_t0']","(0.0, -0.1012427320004373, -0.9065826456402796, 1.5021506865367915, 0.2784175130012026, 0.6450389213058165, 2.3412381775101125, -0.48742239535059023, -0.03259709174256504, 0.09433981845495294, 1.3821166898847579, 0.8329515678217797, -0.9330438142313029, 0.004985437560627594, 1.1370632590200629, 2.7600149326028305, -12.565987119160338)","(0.0, 0.013744467856877126, -0.0019634954081253035, 0.005890486224375911, -0.008246680714126275, 0.0019634954081253035, 0.009032078877376396, 0.004319689897875668, 0.0007853981632501215, -0.0011780972448751821, 0.00039269908162506076, 0.013351768775252066, -0.013744467856877126, 0.024347343060753767, 0.018064157754752792, 0.019634954081253035, 0.0)","(0.0, 0.0, -14.492, 10.852, 0.152, 5.036, 0.084, -2.636, 0.308, 1.164, -15.112, -2.116, -29.464, 0.292, 0.3, -0.036, -20.48)",1356832,1522663466,635049853,robotiq_force_torque_frame_id,0.834000098705,5.38299999237,-3.4409992218000003,-0.554000020027,0.06499999761580001,0.0040000001899899995,438.0,463.0,564.0,604.0,958.0,256.0,277.0,364.0,468.0,1288.0,7,"(0.7068928988390385, -0.18041124666693326, 0.031934104602832594, -0.24130622843332755, 0.9699328762617295, 0.031155576805254506, -0.00555425061222305)",0.0,0.0,0.0,0.0,0.0,0.0
1522692266.69,25983,1522663466,655592918,,1374108,1522663464,116642136,,0.725956648803,-0.16005771363,0.08619954517930001,0.967569824741,0.25066767005699997,-0.00241563942454,-0.0311210238302,-0.013231040236700001,0.025606461337900004,0.010280091104399999,0.0201795380766,0.0342149434556,-0.00499404852612,3.6566369533499996,-2.2617931366,3.75436377525,1.25642609596,1.51164793968,0.334426283836,543436,1522663464,116999936,,['l_gripper_l_finger_joint'],"(0.0032494800670444966,)","(0.0,)","(0.0,)",1356834,1522663466,655384208,robotiq_force_torque_frame_id,0.554000127316,5.80299994946,-3.9710018158,-0.588999986649,0.07000000029799999,-0.00499999988824,438.0,444.0,574.0,604.0,958.0,253.0,277.0,370.0,485.0,1288.0,7,"(0.7068928988390385, -0.18041124666693326, 0.031934104602832594, -0.24130622843332755, 0.9699328762617295, 0.031155576805254506, -0.00555425061222305)",-0.279999971389,0.41999995708999993,-0.5300025939999995,-0.034999966622,0.0050000026821999805,-0.00900000007823
1522692266.69,25984,1522663466,665704011,,1374109,1522663464,126624506,,0.726080199602,-0.160317961263,0.08665944417919999,0.967519337582,0.250870684144,-0.0022122503526699998,-0.031069875926099996,0.00965819260053,0.0260851050214,0.0211287155509,0.042785242853600004,-0.0253872215681,0.013198810635500002,3.2512662410699997,-2.11766409874,3.76850986481,1.1291159391399999,1.3769265413299998,0.305656909943,1374458,1522663464,114724401,,"['head_nod', 'head_pan', 'left_e0', 'left_e1', 'left_s0', 'left_s1', 'left_w0', 'left_w1', 'left_w2', 'right_e0', 'right_e1', 'right_s0', 'right_s1', 'right_w0', 'right_w1', 'right_w2', 'torso_t0']","(0.0, -0.1004757416064946, -0.9069661408372509, 1.50176719133982, 0.2791845033951453, 0.6442719309118737, 2.3412381775101125, -0.48703890015361884, -0.032213596545593685, 0.095490304045867, 1.3817331946877864, 0.8325680726248084, -0.9322768238373602, 0.005368932757598948, 1.1378302494140056, 2.760398427799802, -12.565987119160338)","(0.0, -0.0035342917346255468, -0.0027488935713754254, -0.00510508806112579, 0.0070685834692510935, -0.012566370612001944, 0.008639379795751335, 0.023954643979128706, -0.019242254999627974, 0.012566370612001944, -0.014922565101752308, 0.018064157754752792, -0.0070685834692510935, 0.019634954081253035, 0.05183627877450802, 0.027096236632129192, 0.0)","(0.0, 0.0, -14.72, 10.916, 0.124, 5.036, 0.068, -2.684, 0.288, 1.132, -14.992, -1.9, -29.436, 0.276, 0.2, -0.028, -20.48)",1356834,1522663466,655384208,robotiq_force_torque_frame_id,0.554000127316,5.80299994946,-3.9710018158,-0.588999986649,0.07000000029799999,-0.00499999988824,435.0,444.0,574.0,591.0,936.0,253.0,274.0,370.0,485.0,1281.0,7,"(0.7068928988390385, -0.18041124666693326, 0.031934104602832594, -0.24130622843332755, 0.9699328762617295, 0.031155576805254506, -0.00555425061222305)",0.0,0.0,0.0,0.0,0.0,0.0
1522692266.69,25985,1522663466,675576925,,1374111,1522663464,146687551,,0.7261493158779999,-0.159527179361,0.08644132557769998,0.967578406996,0.250632079714,-0.0020378287465399997,-0.031167839005,0.00796870573974,0.0279299421345,0.00774449600221,0.021469942179099998,-0.033075430871799996,0.023220596778599997,3.7971272468599997,-1.9158654213,3.65485429764,1.00178146362,1.6396719217299998,0.270326554775,1374461,1522663464,144810473,,"['head_nod', 'head_pan', 'left_e0', 'left_e1', 'left_s0', 'left_s1', 'left_w0', 'left_w1', 'left_w2', 'right_e0', 'right_e1', 'right_s0', 'right_s1', 'right_w0', 'right_w1', 'right_w2', 'torso_t0']","(0.0, -0.10162622719740866, -0.9069661408372509, 1.5021506865367915, 0.27803401780423126, 0.6446554261088451, 2.341621672707084, -0.4881893857445329, -0.03298058693953639, 0.09587379924283836, 1.3817331946877864, 0.8329515678217797, -0.9326603190343316, 0.005368932757598948, 1.1374467542170343, 2.7611654181937446, -12.565987119160338)","(0.0, -0.0019634954081253035, -0.006675884387626033, -0.00510508806112579, 0.009817477040626518, 0.012173671530376884, -0.043982297142006806, 0.00510508806112579, 0.0035342917346255468, 0.01649336142825255, 0.004319689897875668, 0.018849555918002914, -0.014137166938502187, 0.009424777959001457, -0.02552544030562895, 0.0035342917346255468, 0.0)","(0.0, 0.0, -14.588, 11.044, 0.248, 5.068, 0.084, -2.684, 0.316, 1.036, -14.904, -1.68, -29.288, 0.284, 0.28, 0.0, -20.48)",1356835,1522663466,667610928,robotiq_force_torque_frame_id,-0.246000063419,5.53299996853,-4.09100074768,-0.612999975681,0.0579999983311,-0.0240000002086,435.0,437.0,554.0,591.0,942.0,274.0,274.0,371.0,489.0,1281.0,7,"(0.7068928988390385, -0.18041124666693326, 0.031934104602832594, -0.24130622843332755, 0.9699328762617295, 0.031155576805254506, -0.00555425061222305)",-0.8000001907350001,-0.26999998092999977,-0.1199989318800001,-0.023999989031999958,-0.012000001966899994,-0.01900000032036
1522692266.73,25986,1522663466,685621976,,1374111,1522663464,146687551,,0.7261493158779999,-0.159527179361,0.08644132557769998,0.967578406996,0.250632079714,-0.0020378287465399997,-0.031167839005,0.00796870573974,0.0279299421345,0.00774449600221,0.021469942179099998,-0.033075430871799996,0.023220596778599997,3.7971272468599997,-1.9158654213,3.65485429764,1.00178146362,1.6396719217299998,0.270326554775,1374461,1522663464,144810473,,"['head_nod', 'head_pan', 'left_e0', 'left_e1', 'left_s0', 'left_s1', 'left_w0', 'left_w1', 'left_w2', 'right_e0', 'right_e1', 'right_s0', 'right_s1', 'right_w0', 'right_w1', 'right_w2', 'torso_t0']","(0.0, -0.10162622719740866, -0.9069661408372509, 1.5021506865367915, 0.27803401780423126, 0.6446554261088451, 2.341621672707084, -0.4881893857445329, -0.03298058693953639, 0.09587379924283836, 1.3817331946877864, 0.8329515678217797, -0.9326603190343316, 0.005368932757598948, 1.1374467542170343, 2.7611654181937446, -12.565987119160338)","(0.0, -0.0019634954081253035, -0.006675884387626033, -0.00510508806112579, 0.009817477040626518, 0.012173671530376884, -0.043982297142006806, 0.00510508806112579, 0.0035342917346255468, 0.01649336142825255, 0.004319689897875668, 0.018849555918002914, -0.014137166938502187, 0.009424777959001457, -0.02552544030562895, 0.0035342917346255468, 0.0)","(0.0, 0.0, -14.588, 11.044, 0.248, 5.068, 0.084, -2.684, 0.316, 1.036, -14.904, -1.68, -29.288, 0.284, 0.28, 0.0, -20.48)",1356836,1522663466,675758183,robotiq_force_torque_frame_id,-0.625999939442,6.06300005913,-4.06099815369,-0.5920000076290001,0.0260000005364,-0.032999999821200006,425.0,437.0,543.0,582.0,942.0,286.0,291.0,371.0,477.0,1276.0,7,"(0.7068928988390385, -0.18041124666693326, 0.031934104602832594, -0.24130622843332755, 0.9699328762617295, 0.031155576805254506, -0.00555425061222305)",-0.37999987602300006,0.5300000905999998,0.030002593989999937,0.020999968051999884,-0.0319999977947,-0.008999999612600007
1522692266.73,25987,1522663466,695667028,,1374113,1522663464,166690669,,0.72557000516,-0.158553990021,0.0861889769236,0.967188089777,0.25212500379,-0.00241881424128,-0.0312142722848,0.00190594338498,0.0105550899989,0.00460495050266,0.0019200991793500001,-0.010409679340500001,0.037405273711800004,4.56058073044,-2.05657434464,3.5382645130199997,1.14784884453,1.9694976806599997,0.337166160345,1374462,1522663464,154773454,,"['head_nod', 'head_pan', 'left_e0', 'left_e1', 'left_s0', 'left_s1', 'left_w0', 'left_w1', 'left_w2', 'right_e0', 'right_e1', 'right_s0', 'right_s1', 'right_w0', 'right_w1', 'right_w2', 'torso_t0']","(0.0, -0.1012427320004373, -0.9065826456402796, 1.50176719133982, 0.27880100819817394, 0.6446554261088451, 2.341621672707084, -0.48703890015361884, -0.03298058693953639, 0.095490304045867, 1.3817331946877864, 0.833335063018751, -0.9330438142313029, 0.005752427954570301, 1.1378302494140056, 2.760398427799802, -12.565987119160338)","(0.0, -0.00039269908162506076, 0.012566370612001944, -0.012566370612001944, 0.009817477040626518, 0.008639379795751335, 0.005497787142750851, 0.003926990816250607, 0.0007853981632501215, -0.02552544030562895, -0.023169245815878585, 0.019634954081253035, -0.004319689897875668, -0.024347343060753767, -0.027096236632129192, -0.023561944897503646, 0.0)","(0.0, 0.0, -14.652, 11.012, 0.152, 5.004, 0.06, -2.684, 0.316, 1.196, -14.932, -1.68, -29.2, 0.284, 0.28, -0.016, -20.48)",1356838,1522663466,696107223,robotiq_force_torque_frame_id,0.223999965191,5.89299998283,-3.75100059509,-0.570999979973,0.0,-0.052999999374199996,417.0,428.0,543.0,590.0,936.0,286.0,291.0,368.0,477.0,1268.0,7,"(0.7068928988390385, -0.18041124666693326, 0.031934104602832594, -0.24130622843332755, 0.9699328762617295, 0.031155576805254506, -0.00555425061222305)",0.849999904633,-0.17000007630000002,0.3099975586000001,0.021000027656000064,-0.0260000005364,-0.01999999955299999
1522692266.73,25988,1522663466,705667018,,1374113,1522663464,166690669,,0.72557000516,-0.158553990021,0.0861889769236,0.967188089777,0.25212500379,-0.00241881424128,-0.0312142722848,0.00190594338498,0.0105550899989,0.00460495050266,0.0019200991793500001,-0.010409679340500001,0.037405273711800004,4.56058073044,-2.05657434464,3.5382645130199997,1.14784884453,1.9694976806599997,0.337166160345,543438,1522663464,167000064,,['l_gripper_l_finger_joint'],"(0.0032494800670444966,)","(0.0,)","(0.0,)",1356838,1522663466,696107223,robotiq_force_torque_frame_id,0.223999965191,5.89299998283,-3.75100059509,-0.570999979973,0.0,-0.052999999374199996,417.0,421.0,543.0,590.0,936.0,280.0,281.0,366.0,476.0,1268.0,7,"(0.7068928988390385, -0.18041124666693326, 0.031934104602832594, -0.24130622843332755, 0.9699328762617295, 0.031155576805254506, -0.00555425061222305)",0.0,0.0,0.0,0.0,0.0,0.0
1522692266.73,25989,1522663466,715665102,,1374115,1522663464,186699232,,0.725868682606,-0.159065868211,0.0869193527518,0.96748042267,0.25099528608399996,-0.0022208395854499997,-0.0312740465056,-0.00543733804813,0.0013073923161500002,0.00320444069281,-0.017447616336599997,0.00383592911155,-0.0035396286534999997,4.148881435390001,-1.98462498188,3.38492178917,1.16912102699,1.73786985874,0.328422814608,543438,1522663464,167000064,,['l_gripper_l_finger_joint'],"(0.0032494800670444966,)","(0.0,)","(0.0,)",1356839,1522663466,708296936,robotiq_force_torque_frame_id,0.20399998426399998,4.97300002575,-3.4710018158,-0.53100001812,0.0189999993891,-0.0670000016689,411.0,421.0,543.0,585.0,907.0,269.0,280.0,366.0,476.0,1262.0,7,"(0.7068928988390385, -0.18041124666693326, 0.031934104602832594, -0.24130622843332755, 0.9699328762617295, 0.031155576805254506, -0.00555425061222305)",-0.019999980927000005,-0.9199999570799999,0.27999877929000005,0.03999996185300003,0.0189999993891,-0.014000002294699998
1522692266.73,25990,1522663466,726008892,,1374115,1522663464,186699232,,0.725868682606,-0.159065868211,0.0869193527518,0.96748042267,0.25099528608399996,-0.0022208395854499997,-0.0312740465056,-0.00543733804813,0.0013073923161500002,0.00320444069281,-0.017447616336599997,0.00383592911155,-0.0035396286534999997,4.148881435390001,-1.98462498188,3.38492178917,1.16912102699,1.73786985874,0.328422814608,543439,1522663464,191000064,,['r_gripper_l_finger_joint'],"(0.001456406511887908,)","(0.0,)","(0.30215054750442505,)",1356840,1522663466,716486431,robotiq_force_torque_frame_id,0.243999946117,4.97300002575,-3.4209987640400006,-0.5210000276569999,0.0309999994934,-0.0619999989867,411.0,420.0,527.0,585.0,913.0,269.0,271.0,365.0,475.0,1262.0,7,"(0.7068928988390385, -0.18041124666693326, 0.031934104602832594, -0.24130622843332755, 0.9699328762617295, 0.031155576805254506, -0.00555425061222305)",0.039999961853000005,0.0,0.050003051759999195,0.009999990463000041,0.012000000104300003,0.005000002682199994
1522692266.74,25991,1522663466,735833883,,1374116,1522663464,196692141,,0.7255383696,-0.159969057287,0.0862852658408,0.967469588993,0.25105212304900004,-0.0028149488514999997,-0.0311046933654,-0.0198710322213,0.0057912906465900004,-0.007040414346640001,-0.0025254206523,0.041236164284900005,0.019904273323099998,4.19313287735,-2.20229506493,3.2717957496599994,1.3719550371200002,1.75488102436,0.364917784929,1374467,1522663464,204787547,,"['head_nod', 'head_pan', 'left_e0', 'left_e1', 'left_s0', 'left_s1', 'left_w0', 'left_w1', 'left_w2', 'right_e0', 'right_e1', 'right_s0', 'right_s1', 'right_w0', 'right_w1', 'right_w2', 'torso_t0']","(0.0, -0.1012427320004373, -0.9069661408372509, 1.5025341817337627, 0.2791845033951453, 0.6450389213058165, 2.3412381775101125, -0.48742239535059023, -0.03259709174256504, 0.095490304045867, 1.3817331946877864, 0.8337185582157224, -0.9326603190343316, 0.005752427954570301, 1.1378302494140056, 2.7600149326028305, -12.565987119160338)","(0.0, -0.0019634954081253035, 0.0035342917346255468, 0.0035342917346255468, -0.012959069693627005, -0.004319689897875668, -0.007853981632501214, -0.006675884387626033, 0.006283185306000972, -0.005497787142750851, -0.005890486224375911, -0.004319689897875668, -0.0027488935713754254, 0.01531526418337737, 0.008246680714126275, -0.00039269908162506076, 0.0)","(0.0, 0.0, -14.62, 10.884, 0.248, 5.068, 0.084, -2.656, 0.308, 1.1, -14.844, -1.9, -29.056, 0.344, 0.22, -0.056, -20.48)",1356841,1522663466,728735207,robotiq_force_torque_frame_id,0.693999993801,5.55299994946,-3.4710018158,-0.5329999923709999,0.0419999994338,-0.0489999987185,411.0,420.0,527.0,585.0,913.0,271.0,279.0,365.0,451.0,1257.0,7,"(0.7068928988390385, -0.18041124666693326, 0.031934104602832594, -0.24130622843332755, 0.9699328762617295, 0.031155576805254506, -0.00555425061222305)",0.450000047684,0.57999992371,-0.050003051759999195,-0.011999964714,0.010999999940399997,0.013000000268200002
1522692266.75,25992,1522663466,745584964,,1374117,1522663464,206719166,,0.72594135858,-0.159153605118,0.08643651246020001,0.967392760613,0.25133555700599997,-0.0022206910955900002,-0.0312530483062,0.00115012061575,-0.00103482486452,0.0037438920705700003,0.0102739611687,0.00153569944269,-0.014757578879799999,3.9530735015900005,-2.2769768238099997,3.21248316765,1.3259708881399999,1.65820479393,0.354710787535,1374467,1522663464,204787547,,"['head_nod', 'head_pan', 'left_e0', 'left_e1', 'left_s0', 'left_s1', 'left_w0', 'left_w1', 'left_w2', 'right_e0', 'right_e1', 'right_s0', 'right_s1', 'right_w0', 'right_w1', 'right_w2', 'torso_t0']","(0.0, -0.1012427320004373, -0.9069661408372509, 1.5025341817337627, 0.2791845033951453, 0.6450389213058165, 2.3412381775101125, -0.48742239535059023, -0.03259709174256504, 0.095490304045867, 1.3817331946877864, 0.8337185582157224, -0.9326603190343316, 0.005752427954570301, 1.1378302494140056, 2.7600149326028305, -12.565987119160338)","(0.0, -0.0019634954081253035, 0.0035342917346255468, 0.0035342917346255468, -0.012959069693627005, -0.004319689897875668, -0.007853981632501214, -0.006675884387626033, 0.006283185306000972, -0.005497787142750851, -0.005890486224375911, -0.004319689897875668, -0.0027488935713754254, 0.01531526418337737, 0.008246680714126275, -0.00039269908162506076, 0.0)","(0.0, 0.0, -14.62, 10.884, 0.248, 5.068, 0.084, -2.656, 0.308, 1.1, -14.844, -1.9, -29.056, 0.344, 0.22, -0.056, -20.48)",1356843,1522663466,745022254,robotiq_force_torque_frame_id,0.154000031948,6.38299999237,-3.4409992218000003,-0.59399998188,0.0769999995828,-0.0370000004768,395.0,418.0,554.0,585.0,894.0,269.0,279.0,360.0,451.0,1257.0,7,"(0.7068928988390385, -0.18041124666693326, 0.031934104602832594, -0.24130622843332755, 0.9699328762617295, 0.031155576805254506, -0.00555425061222305)",-0.539999961853,0.8300000429100001,0.030002593999999494,-0.0609999895090001,0.035000000149,0.011999998241699998
1522692266.79,25993,1522663466,755805015,,1374118,1522663464,216692954,,0.725961281155,-0.15916173082,0.08676852751389999,0.9673905665620001,0.251352165463,-0.00203538399351,-0.031199965633700002,0.00270749018563,-0.008966791963030001,-0.0018748822939200001,-0.0044638640056,-0.00294767228559,-0.007003890692960001,4.3429689407300005,-2.1628823280300002,3.3294265270200003,1.27769362926,1.8591804504400002,0.342728942633,543440,1522663464,216999936,,['l_gripper_l_finger_joint'],"(0.0032494800670444966,)","(0.0,)","(0.0,)",1356843,1522663466,745022254,robotiq_force_torque_frame_id,0.154000031948,6.38299999237,-3.4409992218000003,-0.59399998188,0.0769999995828,-0.0370000004768,400.0,418.0,566.0,585.0,894.0,263.0,283.0,356.0,452.0,1257.0,7,"(0.7068928988390385, -0.18041124666693326, 0.031934104602832594, -0.24130622843332755, 0.9699328762617295, 0.031155576805254506, -0.00555425061222305)",0.0,0.0,0.0,0.0,0.0,0.0
1522692266.79,25994,1522663466,765618085,,1374119,1522663464,226690116,,0.7254906733409999,-0.159517199575,0.08662740476780001,0.967375559763,0.251466301281,-0.0026778125643000003,-0.0306929147022,0.0129977838703,0.0112191574728,-0.006193097350419999,0.010716992279600001,-0.03685682100169999,0.005529016697439999,4.70290565491,-1.9570214748400003,3.6351325511900003,1.12956213951,2.05703926086,0.348411977291,543440,1522663464,216999936,,['l_gripper_l_finger_joint'],"(0.0032494800670444966,)","(0.0,)","(0.0,)",1356844,1522663466,757225458,robotiq_force_torque_frame_id,0.604000079632,5.97299990654,-3.3210002899199997,-0.584999978542,0.0599999986589,-0.0250000003725,400.0,431.0,566.0,592.0,907.0,263.0,294.0,356.0,452.0,1265.0,7,"(0.7068928988390385, -0.18041124666693326, 0.031934104602832594, -0.24130622843332755, 0.9699328762617295, 0.031155576805254506, -0.00555425061222305)",0.450000047684,-0.41000008583000014,0.11999893188000055,0.009000003337999996,-0.0170000009239,0.0120000001043
1522692266.79,25995,1522663466,775657892,,1374120,1522663464,236685787,,0.7269834226980001,-0.159969504961,0.0867452770438,0.967545629659,0.250850522111,-0.0011648844136400002,-0.030464949180099996,0.020935091975900003,-0.00895911652917,0.00588111286019,-0.0141718055069,-0.0508853638606,-0.043033765571499995,4.87239694595,-1.94493758678,3.62990474701,1.10172212124,2.19006252289,0.387462317944,543441,1522663464,241999872,,['r_gripper_l_finger_joint'],"(0.001456406511887908,)","(0.0,)","(0.3096774220466614,)",1356845,1522663466,765380414,robotiq_force_torque_frame_id,0.344000089169,5.9029999733,-2.93100090027,-0.550000011921,0.082000002265,-0.014999999664700002,428.0,431.0,556.0,592.0,905.0,263.0,294.0,345.0,429.0,1265.0,7,"(0.7068928988390385, -0.18041124666693326, 0.031934104602832594, -0.24130622843332755, 0.9699328762617295, 0.031155576805254506, -0.00555425061222305)",-0.259999990463,-0.06999993324000009,0.3899993896499998,0.03499996662100002,0.022000003606099994,0.0100000007078
1522692266.83,25996,1522663466,785950899,,1374121,1522663464,246699662,,0.726293911838,-0.16003504746400002,0.08626543105460001,0.9675387297579999,0.2508590095,-0.0019231143106400001,-0.030575568727799998,0.03763692354,0.00516082838422,0.00295210775707,0.0268723727171,-0.0893002574573,-0.0311672550578,4.70540809631,-2.0271217823,3.69668126106,1.1838616132700002,2.1441905498500002,0.40472686290700005,1374471,1522663464,244819699,,"['head_nod', 'head_pan', 'left_e0', 'left_e1', 'left_s0', 'left_s1', 'left_w0', 'left_w1', 'left_w2', 'right_e0', 'right_e1', 'right_s0', 'right_s1', 'right_w0', 'right_w1', 'right_w2', 'torso_t0']","(0.0, -0.10085923680346595, -0.9069661408372509, 1.5021506865367915, 0.27880100819817394, 0.6446554261088451, 2.3412381775101125, -0.4881893857445329, -0.03259709174256504, 0.09510680884889565, 1.3821166898847579, 0.833335063018751, -0.9326603190343316, 0.004601942363656241, 1.1366797638230917, 2.7607819229967734, -12.565987119160338)","(0.0, -0.006675884387626033, 0.01060287520387664, 0.007461282550876154, 0.011388273367126762, -0.003926990816250607, -0.014922565101752308, 0.001570796326500243, -0.014922565101752308, 0.0027488935713754254, -0.01021017612225158, -0.01021017612225158, 0.0007853981632501215, 0.01531526418337737, -0.08364490438613793, 0.010995574285501701, 0.0)","(0.0, 0.0, -14.524, 10.916, 0.152, 5.036, 0.068, -2.676, 0.324, 1.164, -14.932, -1.744, -29.084, 0.336, 0.42, -0.084, -20.48)",1356846,1522663466,777596379,robotiq_force_torque_frame_id,1.33400009871,4.78299996853,-2.78099937439,-0.481999993324,0.0480000004172,-0.0140000004321,428.0,433.0,556.0,598.0,905.0,263.0,279.0,345.0,408.0,1260.0,7,"(0.7068928988390385, -0.18041124666693326, 0.031934104602832594, -0.24130622843332755, 0.9699328762617295, 0.031155576805254506, -0.00555425061222305)",0.990000009541,-1.1200000047699996,0.15000152588000004,0.068000018597,-0.0340000018478,0.0009999992326000014
1522692266.83,25997,1522663466,795675039,,1374123,1522663464,266693213,,0.72736206197,-0.15978228716499998,0.08666255446650001,0.9674776743100001,0.251083622039,-0.000726782451535,-0.0307154072573,0.0223475117528,-0.017140651320499998,0.00329383974349,0.000240184946074,-0.0457832604188,-0.022820718055599997,3.23690342903,-1.9774173498199998,3.34777617455,1.20570683479,1.47039830685,0.384240567684,1374472,1522663464,254791177,,"['head_nod', 'head_pan', 'left_e0', 'left_e1', 'left_s0', 'left_s1', 'left_w0', 'left_w1', 'left_w2', 'right_e0', 'right_e1', 'right_s0', 'right_s1', 'right_w0', 'right_w1', 'right_w2', 'torso_t0']","(0.0, -0.1012427320004373, -0.9073496360342223, 1.5021506865367915, 0.2784175130012026, 0.6446554261088451, 2.3427721582979983, -0.4881893857445329, -0.03298058693953639, 0.095490304045867, 1.3821166898847579, 0.8337185582157224, -0.9322768238373602, 0.004218447166684887, 1.1355292782321775, 2.7600149326028305, -12.565987119160338)","(0.0, -0.007461282550876154, -0.003926990816250607, 0.0011780972448751821, -0.01649336142825255, -0.00510508806112579, -0.01727875959150267, -0.003926990816250607, 0.012566370612001944, 0.0019634954081253035, -0.003141592653000486, -0.0035342917346255468, 0.02120575040775328, -0.011388273367126762, -0.028274333877004374, -0.014529866020127248, 0.0)","(0.0, 0.0, -14.46, 10.948, 0.092, 5.004, 0.076, -2.656, 0.288, 1.132, -14.812, -1.68, -29.084, 0.336, 0.388, -0.092, -20.48)",1356847,1522663466,785732226,robotiq_force_torque_frame_id,0.934000003338,3.84299998209,-2.7010013580299996,-0.412999987602,0.0810000002384,-0.0280000008643,425.0,434.0,576.0,598.0,927.0,251.0,279.0,337.0,408.0,1260.0,7,"(0.7068928988390385, -0.18041124666693326, 0.031934104602832594, -0.24130622843332755, 0.9699328762617295, 0.031155576805254506, -0.00555425061222305)",-0.400000095372,-0.9399999864400006,0.07999801636000026,0.06900000572199999,0.0329999998212,-0.0140000004322
1522692266.83,25998,1522663466,805649042,,1374123,1522663464,266693213,,0.72736206197,-0.15978228716499998,0.08666255446650001,0.9674776743100001,0.251083622039,-0.000726782451535,-0.0307154072573,0.0223475117528,-0.017140651320499998,0.00329383974349,0.000240184946074,-0.0457832604188,-0.022820718055599997,3.23690342903,-1.9774173498199998,3.34777617455,1.20570683479,1.47039830685,0.384240567684,543442,1522663464,268000000,,['l_gripper_l_finger_joint'],"(0.0032494800670444966,)","(0.0,)","(0.0,)",1356848,1522663466,797946593,robotiq_force_torque_frame_id,1.06400011778,3.8329999841699998,-2.52100105286,-0.331999987364,0.0619999989867,-0.0309999994934,419.0,434.0,587.0,606.0,927.0,242.0,264.0,323.0,408.0,1244.0,7,"(0.7068928988390385, -0.18041124666693326, 0.031934104602832594, -0.24130622843332755, 0.9699328762617295, 0.031155576805254506, -0.00555425061222305)",0.130000114442,-0.009999997920000059,0.18000030516999965,0.08100000023800003,-0.019000001251699997,-0.0029999986291000015
1522692266.83,25999,1522663466,815601110,,1374125,1522663464,286689259,,0.727344704414,-0.159645150789,0.0866709869706,0.9676372753110001,0.25044670513399997,-0.0007249090083130001,-0.030887308441,0.0416595169037,-0.0046585325653400005,0.0018150359806400002,0.022325616961599997,-0.08913707839299999,-0.0307994296455,2.21062731743,-1.8228632211700002,3.19357705116,1.0184023380299998,0.9804484844210001,0.309904545546,1374474,1522663464,274787462,,"['head_nod', 'head_pan', 'left_e0', 'left_e1', 'left_s0', 'left_s1', 'left_w0', 'left_w1', 'left_w2', 'right_e0', 'right_e1', 'right_s0', 'right_s1', 'right_w0', 'right_w1', 'right_w2', 'torso_t0']","(0.0, -0.10085923680346595, -0.9069661408372509, 1.5025341817337627, 0.27880100819817394, 0.6446554261088451, 2.3420051679040554, -0.4881893857445329, -0.03183010134862233, 0.09587379924283836, 1.3805827090968723, 0.8329515678217797, -0.9326603190343316, 0.004985437560627594, 1.1347622878382349, 2.760398427799802, -12.565987119160338)","(0.0, 0.013351768775252066, -0.0023561944897503642, -0.013351768775252066, 0.019634954081253035, 0.003141592653000486, 0.003141592653000486, 0.0, -0.010995574285501701, -0.0023561944897503642, -0.03220132469325498, -0.0310232274483798, -0.003926990816250607, -0.003926990816250607, -0.0329867228565051, 0.005890486224375911, 0.0)","(0.0, 0.0, -14.588, 10.916, 0.152, 5.068, 0.076, -2.684, 0.296, 1.164, -14.604, -1.496, -29.2, 0.316, 0.248, -0.084, -20.48)",1356849,1522663466,806088157,robotiq_force_torque_frame_id,0.404000031948,3.50299999714,-2.67099876404,-0.277999997139,0.0579999983311,-0.0439999997616,419.0,435.0,587.0,608.0,928.0,242.0,264.0,323.0,408.0,1236.0,7,"(0.7068928988390385, -0.18041124666693326, 0.031934104602832594, -0.24130622843332755, 0.9699328762617295, 0.031155576805254506, -0.00555425061222305)",-0.6600000858320001,-0.3299999870299999,-0.14999771118000016,0.053999990225000016,-0.0040000006556000015,-0.013000000268200002
1522692266.87,26000,1522663466,825715065,,1374125,1522663464,286689259,,0.727344704414,-0.159645150789,0.0866709869706,0.9676372753110001,0.25044670513399997,-0.0007249090083130001,-0.030887308441,0.0416595169037,-0.0046585325653400005,0.0018150359806400002,0.022325616961599997,-0.08913707839299999,-0.0307994296455,2.21062731743,-1.8228632211700002,3.19357705116,1.0184023380299998,0.9804484844210001,0.309904545546,543443,1522663464,292999936,,['r_gripper_l_finger_joint'],"(0.001456406511887908,)","(0.0,)","(0.2946236729621887,)",1356850,1522663466,818287218,robotiq_force_torque_frame_id,1.1340000510200001,2.4029999733,-1.83099861145,-0.167999997735,-0.0170000009239,-0.05099999904630001,422.0,435.0,552.0,608.0,928.0,231.0,264.0,304.0,400.0,1236.0,7,"(0.7068928988390385, -0.18041124666693326, 0.031934104602832594, -0.24130622843332755, 0.9699328762617295, 0.031155576805254506, -0.00555425061222305)",0.7300000190720002,-1.1000000238399998,0.84000015259,0.10999999940399999,-0.074999999255,-0.006999999284700006
1522692266.87,26001,1522663466,835599899,,1374127,1522663464,306692430,,0.728208232433,-0.160055924125,0.08676713282500001,0.967744277727,0.25005331895599997,0.000425394310979,-0.0307273436149,0.0254824137965,-0.0162310227826,-0.016960307447600003,0.0101560570711,-0.0654932976178,-0.0437330557744,2.92276263237,-1.45040130615,3.51464724541,0.7187802791600001,1.3275061845799998,0.283627927303,1374477,1522663464,304758400,,"['head_nod', 'head_pan', 'left_e0', 'left_e1', 'left_s0', 'left_s1', 'left_w0', 'left_w1', 'left_w2', 'right_e0', 'right_e1', 'right_s0', 'right_s1', 'right_w0', 'right_w1', 'right_w2', 'torso_t0']","(0.0, -0.1012427320004373, -0.9065826456402796, 1.5021506865367915, 0.2791845033951453, 0.6450389213058165, 2.343539148691941, -0.48742239535059023, -0.03259709174256504, 0.095490304045867, 1.381349699490815, 0.8321845774278369, -0.9330438142313029, 0.005368932757598948, 1.1332283070503495, 2.7611654181937446, -12.565987119160338)","(0.0, -0.003141592653000486, -0.003926990816250607, -0.0047123889795007284, 0.005497787142750851, -0.00039269908162506076, -0.014529866020127248, -0.012173671530376884, 0.001570796326500243, 0.0027488935713754254, 0.02513274122400389, -0.03220132469325498, 0.014137166938502187, -0.0007853981632501215, -0.1060287520387664, 0.009032078877376396, 0.0)","(0.0, 0.0, -14.684, 10.916, 0.248, 4.968, 0.084, -2.648, 0.316, 1.1, -14.692, -1.184, -29.26, 0.276, 0.3, -0.084, -20.48)",1356851,1522663466,826440008,robotiq_force_torque_frame_id,1.1939999937999999,1.80300006866,-1.7409984588599998,-0.0920000001788,-0.0410000011325,-0.0670000016689,422.0,433.0,552.0,610.0,928.0,231.0,264.0,304.0,400.0,1230.0,7,"(0.7068928988390385, -0.18041124666693326, 0.031934104602832594, -0.24130622843332755, 0.9699328762617295, 0.031155576805254506, -0.00555425061222305)",0.05999994277999976,-0.59999990464,0.09000015259000027,0.07599999755619999,-0.0240000002086,-0.016000002622599985
1522692266.87,26002,1522663466,845585107,,1374127,1522663464,306692430,,0.728208232433,-0.160055924125,0.08676713282500001,0.967744277727,0.25005331895599997,0.000425394310979,-0.0307273436149,0.0254824137965,-0.0162310227826,-0.016960307447600003,0.0101560570711,-0.0654932976178,-0.0437330557744,2.92276263237,-1.45040130615,3.51464724541,0.7187802791600001,1.3275061845799998,0.283627927303,1374477,1522663464,304758400,,"['head_nod', 'head_pan', 'left_e0', 'left_e1', 'left_s0', 'left_s1', 'left_w0', 'left_w1', 'left_w2', 'right_e0', 'right_e1', 'right_s0', 'right_s1', 'right_w0', 'right_w1', 'right_w2', 'torso_t0']","(0.0, -0.1012427320004373, -0.9065826456402796, 1.5021506865367915, 0.2791845033951453, 0.6450389213058165, 2.343539148691941, -0.48742239535059023, -0.03259709174256504, 0.095490304045867, 1.381349699490815, 0.8321845774278369, -0.9330438142313029, 0.005368932757598948, 1.1332283070503495, 2.7611654181937446, -12.565987119160338)","(0.0, -0.003141592653000486, -0.003926990816250607, -0.0047123889795007284, 0.005497787142750851, -0.00039269908162506076, -0.014529866020127248, -0.012173671530376884, 0.001570796326500243, 0.0027488935713754254, 0.02513274122400389, -0.03220132469325498, 0.014137166938502187, -0.0007853981632501215, -0.1060287520387664, 0.009032078877376396, 0.0)","(0.0, 0.0, -14.684, 10.916, 0.248, 4.968, 0.084, -2.648, 0.316, 1.1, -14.692, -1.184, -29.26, 0.276, 0.3, -0.084, -20.48)",1356852,1522663466,838678229,robotiq_force_torque_frame_id,0.723999965191,1.80300006866,-2.93100090027,-0.054999999702,-0.05099999904630001,-0.0769999995828,421.0,433.0,561.0,610.0,952.0,227.0,264.0,294.0,398.0,1230.0,7,"(0.7068928988390385, -0.18041124666693326, 0.031934104602832594, -0.24130622843332755, 0.9699328762617295, 0.031155576805254506, -0.00555425061222305)",-0.4700000286089999,0.0,-1.1900024414100001,0.0370000004768,-0.009999997913800011,-0.009999997913900008
1522692266.87,26003,1522663466,855587005,,1374128,1522663464,316689417,,0.7285846789849999,-0.160001664554,0.0866365303006,0.967750699337,0.250035877394,0.000995611639113,-0.030653755181900003,0.0318971886761,0.0015300261236699999,0.000108392895761,0.0235273587543,-0.08291480187469999,-0.0173160575058,3.2881927490200002,-1.32900774479,3.75256538391,0.648690104485,1.54933691025,0.31450805068000004,543444,1522663464,318000128,,['l_gripper_l_finger_joint'],"(0.0032494800670444966,)","(0.0,)","(0.0,)",1356853,1522663466,846829570,robotiq_force_torque_frame_id,0.53399990797,1.95299992561,-3.78099937439,-0.0500000007451,-0.0560000017285,-0.0759999975562,421.0,438.0,561.0,611.0,952.0,227.0,276.0,294.0,400.0,1217.0,7,"(0.7068928988390385, -0.18041124666693326, 0.031934104602832594, -0.24130622843332755, 0.9699328762617295, 0.031155576805254506, -0.00555425061222305)",-0.190000057221,0.14999985694999984,-0.84999847412,0.004999998956900002,-0.005000002682199987,0.0010000020265999998
1522692266.87,26004,1522663466,865606069,,1374129,1522663464,326699149,,0.728800389313,-0.160356718153,0.08665503491229999,0.967666228254,0.250353289765,0.00102926294135,-0.030728514756400004,0.0253941112663,-0.0174049848143,0.00512316370133,0.0119795823465,-0.062053165322,-0.059242141137899995,3.65624380112,-1.28518259525,3.7975625991800004,0.5906069874759999,1.7060782909399999,0.326811343431,543444,1522663464,318000128,,['l_gripper_l_finger_joint'],"(0.0032494800670444966,)","(0.0,)","(0.0,)",1356854,1522663466,859028314,robotiq_force_torque_frame_id,-0.0560000061989,2.69299993515,-3.6509983062699995,-0.059000000357599995,-0.052999999374199996,-0.082000002265,435.0,438.0,564.0,612.0,951.0,224.0,276.0,291.0,400.0,1204.0,7,"(0.7068928988390385, -0.18041124666693326, 0.031934104602832594, -0.24130622843332755, 0.9699328762617295, 0.031155576805254506, -0.00555425061222305)",-0.5899999141689,0.7400000095400001,0.13000106812000034,-0.008999999612499997,0.0030000023543000007,-0.006000004708799994
1522692266.88,26005,1522663466,875705003,,1374131,1522663464,346692935,,0.7288641178749999,-0.161106786271,0.0862714744101,0.968004131849,0.24904580416799998,0.00121363092806,-0.0307036683423,0.006465633974819999,-0.0217575963858,-0.00033894957483799996,0.0162048909422,-0.009141733776579999,-0.0466687809696,4.17196369171,-0.8607118129729999,4.05666589737,0.362292945385,1.947245121,0.333563745022,1374481,1522663464,344756836,,"['head_nod', 'head_pan', 'left_e0', 'left_e1', 'left_s0', 'left_s1', 'left_w0', 'left_w1', 'left_w2', 'right_e0', 'right_e1', 'right_s0', 'right_s1', 'right_w0', 'right_w1', 'right_w2', 'torso_t0']","(0.0, -0.10162622719740866, -0.9065826456402796, 1.50176719133982, 0.27880100819817394, 0.6450389213058165, 2.3408546823131413, -0.48742239535059023, -0.03298058693953639, 0.09510680884889565, 1.3821166898847579, 0.8306505966399516, -0.9326603190343316, 0.005752427954570301, 1.13054384067155, 2.7611654181937446, -12.565987119160338)","(0.0, 0.011780972448751823, 0.0047123889795007284, 0.0027488935713754254, -0.005497787142750851, -0.0027488935713754254, -0.003926990816250607, 0.019634954081253035, -0.004319689897875668, 0.008639379795751335, 0.006283185306000972, -0.04790928795825741, -0.0019634954081253035, 0.010995574285501701, -0.01531526418337737, 0.00039269908162506076, 0.0)","(0.0, 0.0, -14.556, 10.948, 0.124, 5.036, 0.104, -2.704, 0.296, 1.164, -14.932, -0.808, -29.348, 0.244, 0.448, -0.128, -20.48)",1356856,1522663466,875281480,robotiq_force_torque_frame_id,0.6740000128749999,2.2130000352900003,-2.0609981536900004,-0.0759999975562,-0.0500000007451,-0.06499999761580001,438.0,462.0,559.0,612.0,951.0,221.0,277.0,296.0,402.0,1204.0,7,"(0.7068928988390385, -0.18041124666693326, 0.031934104602832594, -0.24130622843332755, 0.9699328762617295, 0.031155576805254506, -0.00555425061222305)",0.7300000190738999,-0.4799998998599997,1.5900001525799992,-0.016999997198600007,0.002999998629099998,0.017000004649199985
1522692266.89,26006,1522663466,885637998,,1374131,1522663464,346692935,,0.7288641178749999,-0.161106786271,0.0862714744101,0.968004131849,0.24904580416799998,0.00121363092806,-0.0307036683423,0.006465633974819999,-0.0217575963858,-0.00033894957483799996,0.0162048909422,-0.009141733776579999,-0.0466687809696,4.17196369171,-0.8607118129729999,4.05666589737,0.362292945385,1.947245121,0.333563745022,1374481,1522663464,344756836,,"['head_nod', 'head_pan', 'left_e0', 'left_e1', 'left_s0', 'left_s1', 'left_w0', 'left_w1', 'left_w2', 'right_e0', 'right_e1', 'right_s0', 'right_s1', 'right_w0', 'right_w1', 'right_w2', 'torso_t0']","(0.0, -0.10162622719740866, -0.9065826456402796, 1.50176719133982, 0.27880100819817394, 0.6450389213058165, 2.3408546823131413, -0.48742239535059023, -0.03298058693953639, 0.09510680884889565, 1.3821166898847579, 0.8306505966399516, -0.9326603190343316, 0.005752427954570301, 1.13054384067155, 2.7611654181937446, -12.565987119160338)","(0.0, 0.011780972448751823, 0.0047123889795007284, 0.0027488935713754254, -0.005497787142750851, -0.0027488935713754254, -0.003926990816250607, 0.019634954081253035, -0.004319689897875668, 0.008639379795751335, 0.006283185306000972, -0.04790928795825741, -0.0019634954081253035, 0.010995574285501701, -0.01531526418337737, 0.00039269908162506076, 0.0)","(0.0, 0.0, -14.556, 10.948, 0.124, 5.036, 0.104, -2.704, 0.296, 1.164, -14.932, -0.808, -29.348, 0.244, 0.448, -0.128, -20.48)",1356856,1522663466,875281480,robotiq_force_torque_frame_id,0.6740000128749999,2.2130000352900003,-2.0609981536900004,-0.0759999975562,-0.0500000007451,-0.06499999761580001,431.0,462.0,559.0,609.0,958.0,221.0,289.0,296.0,402.0,1198.0,7,"(0.7068928988390385, -0.18041124666693326, 0.031934104602832594, -0.24130622843332755, 0.9699328762617295, 0.031155576805254506, -0.00555425061222305)",0.0,0.0,0.0,0.0,0.0,0.0
1522692266.93,26007,1522663466,895725011,,1374133,1522663464,366691140,,0.7297207467710001,-0.16231098454600001,0.0866964458355,0.968080584526,0.24881245805100002,0.00192242218737,-0.030143770076799997,0.00281790191994,-0.013324503084,-0.000662605085275,-0.00995851461124,-0.00223081412166,-0.019374772698400003,3.4908468723300006,-0.935322225094,4.00128364563,0.44738614559199996,1.5981315374399998,0.28723540902100003,1374482,1522663464,354768190,,"['head_nod', 'head_pan', 'left_e0', 'left_e1', 'left_s0', 'left_s1', 'left_w0', 'left_w1', 'left_w2', 'right_e0', 'right_e1', 'right_s0', 'right_s1', 'right_w0', 'right_w1', 'right_w2', 'torso_t0']","(0.0, -0.1012427320004373, -0.9073496360342223, 1.5021506865367915, 0.27880100819817394, 0.6450389213058165, 2.341621672707084, -0.48703890015361884, -0.03298058693953639, 0.0947233136519243, 1.3821166898847579, 0.8306505966399516, -0.9326603190343316, 0.006135923151541655, 1.1309273358685212, 2.7619324085876875, -12.565987119160338)","(0.0, -0.005890486224375911, 0.0011780972448751821, 0.0035342917346255468, -0.0047123889795007284, -0.001570796326500243, -0.0019634954081253035, 0.006675884387626033, -0.006675884387626033, -0.006283185306000972, -0.0027488935713754254, -0.014529866020127248, 0.008639379795751335, -0.0070685834692510935, -0.011780972448751823, 0.03337942193813016, 0.0)","(0.0, 0.0, -14.652, 11.012, 0.28, 5.1, 0.068, -2.696, 0.316, 1.1, -14.904, -0.808, -29.376, 0.268, 0.4, -0.128, -20.48)",1356858,1522663466,895641203,robotiq_force_torque_frame_id,1.5339999079700002,2.20299992561,-1.1409999847399999,-0.0560000017285,-0.0399999991059,-0.0560000017285,431.0,462.0,574.0,609.0,958.0,234.0,289.0,296.0,411.0,1198.0,7,"(0.7068928988390385, -0.18041124666693326, 0.031934104602832594, -0.24130622843332755, 0.9699328762617295, 0.031155576805254506, -0.00555425061222305)",0.8599998950950003,-0.010000109680000424,0.9199981689500005,0.019999995827700005,0.0100000016392,0.008999995887300015
1522692266.93,26008,1522663466,905704021,,1374133,1522663464,366691140,,0.7297207467710001,-0.16231098454600001,0.0866964458355,0.968080584526,0.24881245805100002,0.00192242218737,-0.030143770076799997,0.00281790191994,-0.013324503084,-0.000662605085275,-0.00995851461124,-0.00223081412166,-0.019374772698400003,3.4908468723300006,-0.935322225094,4.00128364563,0.44738614559199996,1.5981315374399998,0.28723540902100003,543446,1522663464,368000000,,['l_gripper_l_finger_joint'],"(0.0032494800670444966,)","(0.0,)","(0.0,)",1356858,1522663466,895641203,robotiq_force_torque_frame_id,1.5339999079700002,2.20299992561,-1.1409999847399999,-0.0560000017285,-0.0399999991059,-0.0560000017285,426.0,462.0,574.0,603.0,963.0,234.0,279.0,296.0,418.0,1189.0,7,"(0.7068928988390385, -0.18041124666693326, 0.031934104602832594, -0.24130622843332755, 0.9699328762617295, 0.031155576805254506, -0.00555425061222305)",0.0,0.0,0.0,0.0,0.0,0.0
1522692266.93,26009,1522663466,915608882,,1374134,1522663464,376685560,,0.729108055853,-0.16173449452400002,0.0862582334645,0.967978986751,0.24919040295000003,0.0011716636491500001,-0.0303224585296,0.0101887643066,-0.024318233983,-0.005364368354140001,-0.00689387137876,-0.017984737006400003,-0.0216003281163,3.4997930526699994,-1.1384505033499999,3.8538053035699997,0.5973920226100001,1.52251827717,0.306943207979,543446,1522663464,368000000,,['l_gripper_l_finger_joint'],"(0.0032494800670444966,)","(0.0,)","(0.0,)",1356859,1522663466,907848283,robotiq_force_torque_frame_id,1.45399998426,2.19299993515,-1.0809986114499999,-0.0670000016689,-0.052000001072899996,-0.0489999987185,422.0,474.0,585.0,599.0,959.0,240.0,279.0,303.0,418.0,1189.0,7,"(0.7068928988390385, -0.18041124666693326, 0.031934104602832594, -0.24130622843332755, 0.9699328762617295, 0.031155576805254506, -0.00555425061222305)",-0.0799999237100002,-0.009999990459999886,0.06000137328999999,-0.010999999940399997,-0.012000001966999997,0.0070000030099999985
1522692266.97,26010,1522663466,925698995,,1374135,1522663464,386691440,,0.7291138154269999,-0.16184944725,0.0862413971332,0.968042066506,0.24892796419799998,0.0013850725802300001,-0.0304550108935,-0.012567768689,-0.011798336639799999,-0.018066195420900003,-0.008481433234139999,0.0331957961247,0.0107728706758,3.90377116203,-1.0485184192700001,3.8103346824599997,0.542876899242,1.67137610912,0.288935273886,543447,1522663464,392999936,,['r_gripper_l_finger_joint'],"(0.001456406511887908,)","(0.0,)","(0.30215054750442505,)",1356860,1522663466,916000658,robotiq_force_torque_frame_id,0.894000041485,2.3829999923700003,-1.76099891663,-0.135000005364,0.0,-0.06599999964240001,422.0,456.0,558.0,599.0,959.0,245.0,276.0,313.0,431.0,1183.0,7,"(0.7068928988390385, -0.18041124666693326, 0.031934104602832594, -0.24130622843332755, 0.9699328762617295, 0.031155576805254506, -0.00555425061222305)",-0.559999942775,0.19000005722000024,-0.6800003051800001,-0.06800000369510001,0.052000001072899996,-0.017000000923900013
