time,.header.seq,.header.stamp.secs,.header.stamp.nsecs,.header.frame_id,.endpoint_state.header.seq,.endpoint_state.header.stamp.secs,.endpoint_state.header.stamp.nsecs,.endpoint_state.header.frame_id,.endpoint_state.pose.position.x,.endpoint_state.pose.position.y,.endpoint_state.pose.position.z,.endpoint_state.pose.orientation.x,.endpoint_state.pose.orientation.y,.endpoint_state.pose.orientation.z,.endpoint_state.pose.orientation.w,.endpoint_state.twist.linear.x,.endpoint_state.twist.linear.y,.endpoint_state.twist.linear.z,.endpoint_state.twist.angular.x,.endpoint_state.twist.angular.y,.endpoint_state.twist.angular.z,.endpoint_state.wrench.force.x,.endpoint_state.wrench.force.y,.endpoint_state.wrench.force.z,.endpoint_state.wrench.torque.x,.endpoint_state.wrench.torque.y,.endpoint_state.wrench.torque.z,.joint_state.header.seq,.joint_state.header.stamp.secs,.joint_state.header.stamp.nsecs,.joint_state.header.frame_id,.joint_state.name,.joint_state.position,.joint_state.velocity,.joint_state.effort,.wrench_stamped.header.seq,.wrench_stamped.header.stamp.secs,.wrench_stamped.header.stamp.nsecs,.wrench_stamped.header.frame_id,.wrench_stamped.wrench.force.x,.wrench_stamped.wrench.force.y,.wrench_stamped.wrench.force.z,.wrench_stamped.wrench.torque.x,.wrench_stamped.wrench.torque.y,.wrench_stamped.wrench.torque.z,.tactile_values.tactile_values_0,.tactile_values.tactile_values_1,.tactile_values.tactile_values_2,.tactile_values.tactile_values_3,.tactile_values.tactile_values_4,.tactile_values.tactile_values_5,.tactile_values.tactile_values_6,.tactile_values.tactile_values_7,.tactile_values.tactile_values_8,.tactile_values.tactile_values_9,.tag,.goal_vector,.delta_wrench.force.x,.delta_wrench.force.y,.delta_wrench.force.z,.delta_wrench.torque.x,.delta_wrench.torque.y,.delta_wrench.torque.z
1522692211.21,20435,1522663411,175582885,,1368557,1522663408,606767575,,0.7402137914820001,-0.18540381577,0.08303976959039999,0.9738735087100001,0.225755293503,0.00338358560153,-0.024361605786799998,-0.00146148006092,0.035430162095199995,0.0059961198431199994,0.0208276561783,-0.000163870615971,0.00979601970586,2.38764715195,0.7218968868260001,4.66089439392,0.182417213917,1.21327197552,0.26678982377099997,541239,1522663408,608000000,,['r_gripper_l_finger_joint'],"(0.019983251598477365,)","(0.0,)","(0.0,)",1351291,1522663411,168173123,robotiq_force_torque_frame_id,0.133999848366,-2.35500006676,0.420000457764,-0.0130000002682,-0.18999999761599998,-0.145999997854,335.0,345.0,347.0,403.0,422.0,55.0,57.0,61.0,61.0,85.0,7,"(0.318305573199064, -0.815553406738067, 0.13814275757049982, 0.9999377972961768, -0.0043522273979007264, -0.009388168303921661, 0.004161964805750741)",0.0,0.0,0.0,0.0,0.0,0.0
1522692211.21,20436,1522663411,185620069,,1368557,1522663408,606767575,,0.7402137914820001,-0.18540381577,0.08303976959039999,0.9738735087100001,0.225755293503,0.00338358560153,-0.024361605786799998,-0.00146148006092,0.035430162095199995,0.0059961198431199994,0.0208276561783,-0.000163870615971,0.00979601970586,2.38764715195,0.7218968868260001,4.66089439392,0.182417213917,1.21327197552,0.26678982377099997,1368909,1522663408,624808023,,"['head_nod', 'head_pan', 'left_e0', 'left_e1', 'left_s0', 'left_s1', 'left_w0', 'left_w1', 'left_w2', 'right_e0', 'right_e1', 'right_s0', 'right_s1', 'right_w0', 'right_w1', 'right_w2', 'torso_t0']","(0.0, -0.1004757416064946, -0.9069661408372509, 1.5021506865367915, 0.27880100819817394, 0.6454224165027879, 2.3420051679040554, -0.4881893857445329, -0.033364082136507746, 0.07669903939427068, 1.3560390164907057, 0.8122428271853266, -0.915786530367592, 0.002684466378799474, 1.1313108310654927, 2.7772722164665415, -12.565987119160338)","(0.0, -0.0070685834692510935, -0.00039269908162506076, 0.004319689897875668, -0.0070685834692510935, -0.010995574285501701, -0.00510508806112579, -0.012173671530376884, -0.009032078877376396, -0.005890486224375911, 0.01767145867312773, 0.03730641275438077, 0.001570796326500243, 0.014529866020127248, -0.007461282550876154, -0.0329867228565051, 0.0)","(0.0, 0.0, -14.652, 10.916, 0.124, 5.068, 0.076, -2.664, 0.26, 2.232, -14.872, 0.404, -30.256, 0.428, 0.348, -0.008, -20.48)",1351292,1522663411,180480976,robotiq_force_torque_frame_id,0.044000172615099996,-2.63499979973,0.729998016357,-0.016000000759999997,-0.19900000095400003,-0.15099999308599998,335.0,341.0,345.0,405.0,432.0,55.0,61.0,61.0,64.0,85.0,7,"(0.318305573199064, -0.815553406738067, 0.13814275757049982, 0.9999377972961768, -0.0043522273979007264, -0.009388168303921661, 0.004161964805750741)",-0.08999967575090001,-0.2799997329699999,0.309997558593,-0.0030000004917999975,-0.009000003338000051,-0.004999995231999982
1522692211.21,20437,1522663411,195594072,,1368560,1522663408,636759598,,0.740301374048,-0.18552533986699998,0.08347849294589998,0.9741373467610001,0.22461133238400002,0.00373682448389,-0.024335471087099998,-0.009962760630370002,0.005405488004930001,-0.00030167324492199997,-0.0054840482169,0.0185520430844,0.0136774790699,1.7255939245200003,1.0638601779899999,4.60623645782,0.00676964223385,0.9777528643610001,0.230139926076,1368910,1522663408,634813580,,"['head_nod', 'head_pan', 'left_e0', 'left_e1', 'left_s0', 'left_s1', 'left_w0', 'left_w1', 'left_w2', 'right_e0', 'right_e1', 'right_s0', 'right_s1', 'right_w0', 'right_w1', 'right_w2', 'torso_t0']","(0.0, -0.1012427320004373, -0.9073496360342223, 1.50176719133982, 0.27880100819817394, 0.6446554261088451, 2.3423886631010267, -0.48703890015361884, -0.03298058693953639, 0.07708253459124204, 1.3564225116876771, 0.8122428271853266, -0.9150195399736493, 0.0030679615757708274, 1.131694326262464, 2.778806197254427, -12.565987119160338)","(0.0, -0.003141592653000486, -0.008246680714126275, -0.0035342917346255468, -0.0027488935713754254, 0.007461282550876154, -0.009424777959001457, -0.0019634954081253035, 0.0007853981632501215, -0.02081305132612822, 0.009424777959001457, 0.024347343060753767, -0.005497787142750851, 0.01021017612225158, 0.014529866020127248, -0.009032078877376396, 0.0)","(0.0, 0.0, -14.556, 10.916, 0.28, 5.036, 0.084, -2.676, 0.24, 2.36, -14.844, 0.528, -30.196, 0.436, 0.36, 0.008, -20.48)",1351293,1522663411,188679665,robotiq_force_torque_frame_id,0.254000210762,-2.92500023842,0.65,-0.0250000003725,-0.190999999642,-0.155000001192,341.0,342.0,353.0,405.0,432.0,57.0,61.0,64.0,67.0,79.0,7,"(0.318305573199064, -0.815553406738067, 0.13814275757049982, 0.9999377972961768, -0.0043522273979007264, -0.009388168303921661, 0.004161964805750741)",0.21000003814690002,-0.2900004386899999,-0.07999801635699999,-0.008999999612500004,0.008000001312000016,-0.004000008106000014
1522692211.25,20438,1522663411,205637931,,1368560,1522663408,636759598,,0.740301374048,-0.18552533986699998,0.08347849294589998,0.9741373467610001,0.22461133238400002,0.00373682448389,-0.024335471087099998,-0.009962760630370002,0.005405488004930001,-0.00030167324492199997,-0.0054840482169,0.0185520430844,0.0136774790699,1.7255939245200003,1.0638601779899999,4.60623645782,0.00676964223385,0.9777528643610001,0.230139926076,541240,1522663408,646000128,,['l_gripper_l_finger_joint'],"(0.0032494800670444966,)","(0.0,)","(0.0,)",1351294,1522663411,201036161,robotiq_force_torque_frame_id,0.294000172615,-2.95499997139,0.589998626709,-0.035000000148999996,-0.186000004411,-0.14499999582800002,329.0,338.0,357.0,407.0,428.0,59.0,59.0,65.0,75.0,79.0,7,"(0.318305573199064, -0.815553406738067, 0.13814275757049982, 0.9999377972961768, -0.0043522273979007264, -0.009388168303921661, 0.004161964805750741)",0.03999996185299998,-0.029999732969999915,-0.06000137329099997,-0.009999999776499995,0.004999995231000004,0.010000005363999975
1522692211.25,20439,1522663411,215588092,,1368560,1522663408,636759598,,0.740301374048,-0.18552533986699998,0.08347849294589998,0.9741373467610001,0.22461133238400002,0.00373682448389,-0.024335471087099998,-0.009962760630370002,0.005405488004930001,-0.00030167324492199997,-0.0054840482169,0.0185520430844,0.0136774790699,1.7255939245200003,1.0638601779899999,4.60623645782,0.00676964223385,0.9777528643610001,0.230139926076,1368913,1522663408,664839077,,"['head_nod', 'head_pan', 'left_e0', 'left_e1', 'left_s0', 'left_s1', 'left_w0', 'left_w1', 'left_w2', 'right_e0', 'right_e1', 'right_s0', 'right_s1', 'right_w0', 'right_w1', 'right_w2', 'torso_t0']","(0.0, -0.10162622719740866, -0.9061991504433081, 1.5010002009458774, 0.2795679985921167, 0.6450389213058165, 2.3420051679040554, -0.48742239535059023, -0.03298058693953639, 0.07669903939427068, 1.3560390164907057, 0.813776807973212, -0.915786530367592, 0.0019174759848567672, 1.1313108310654927, 2.7776557116635128, -12.565987119160338)","(0.0, -0.007853981632501214, -0.0027488935713754254, -0.0035342917346255468, -0.008639379795751335, -0.003141592653000486, 0.022383847652628464, 0.007853981632501214, -0.004319689897875668, -0.005497787142750851, -0.01060287520387664, 0.04358959806038174, 0.00039269908162506076, -0.0035342917346255468, -0.008246680714126275, 0.03337942193813016, 0.0)","(0.0, 0.0, -14.62, 10.884, 0.28, 5.004, 0.084, -2.684, 0.268, 2.36, -14.964, 0.184, -30.168, 0.46, 0.38, 0.028, -20.48)",1351295,1522663411,209180506,robotiq_force_torque_frame_id,0.294000172615,-2.97499995232,0.4,-0.0399999991059,-0.184000000358,-0.136999994516,323.0,338.0,357.0,401.0,417.0,59.0,60.0,75.0,78.0,90.0,7,"(0.318305573199064, -0.815553406738067, 0.13814275757049982, 0.9999377972961768, -0.0043522273979007264, -0.009388168303921661, 0.004161964805750741)",0.0,-0.019999980930000216,-0.18999862670900003,-0.004999998956900002,0.0020000040530000207,0.008000001312000016
1522692211.25,20440,1522663411,225596904,,1368564,1522663408,676739326,,0.7410789213079999,-0.18481388822900002,0.08340230601149999,0.973963757537,0.225363860553,0.0044929539250800005,-0.0241979901322,-0.013273676354000001,0.005192339990350001,-0.00248335460686,-0.000424243889401,0.0233578874901,0.0069943703579,2.46271467209,0.348279237747,4.60292291641,0.45379909873,1.28983676434,0.32088926434500004,541241,1522663408,659000064,,['r_gripper_l_finger_joint'],"(0.019983251598477365,)","(0.0,)","(0.0,)",1351296,1522663411,221400863,robotiq_force_torque_frame_id,0.584000134468,-2.70499997139,0.24999847412099999,-0.0439999997616,-0.17599999904599997,-0.134000003338,315.0,320.0,331.0,401.0,417.0,60.0,64.0,77.0,77.0,90.0,7,"(0.318305573199064, -0.815553406738067, 0.13814275757049982, 0.9999377972961768, -0.0043522273979007264, -0.009388168303921661, 0.004161964805750741)",0.28999996185300003,0.2699999809300002,-0.15000152587900004,-0.004000000655700005,0.008000001312000016,0.002999991178000011
1522692211.25,20441,1522663411,235614061,,1368564,1522663408,676739326,,0.7410789213079999,-0.18481388822900002,0.08340230601149999,0.973963757537,0.225363860553,0.0044929539250800005,-0.0241979901322,-0.013273676354000001,0.005192339990350001,-0.00248335460686,-0.000424243889401,0.0233578874901,0.0069943703579,2.46271467209,0.348279237747,4.60292291641,0.45379909873,1.28983676434,0.32088926434500004,541241,1522663408,659000064,,['r_gripper_l_finger_joint'],"(0.019983251598477365,)","(0.0,)","(0.0,)",1351297,1522663411,229549102,robotiq_force_torque_frame_id,0.644000077248,-2.47499995232,0.510000610352,-0.0240000002086,-0.195999994874,-0.134000003338,314.0,320.0,331.0,408.0,417.0,58.0,60.0,77.0,77.0,85.0,7,"(0.318305573199064, -0.815553406738067, 0.13814275757049982, 0.9999377972961768, -0.0043522273979007264, -0.009388168303921661, 0.004161964805750741)",0.05999994277999998,0.23000001906999978,0.260002136231,0.019999999553000004,-0.019999995828000022,0.0
1522692211.25,20442,1522663411,245567083,,1368566,1522663408,696742496,,0.739756803628,-0.18436353081300003,0.08265614100980001,0.973895170852,0.225636753249,0.0031842822699299994,-0.0246193444581,-0.009277122117440001,0.0120175633672,0.00365648570389,-0.000941171361792,0.0146819511255,0.013961250074200002,2.0849480629,0.7563540935519999,4.4767203331,0.149554401636,1.06187045574,0.24256657064,541242,1522663408,696000000,,['l_gripper_l_finger_joint'],"(0.0032494800670444966,)","(0.0,)","(0.0,)",1351298,1522663411,241742428,robotiq_force_torque_frame_id,0.55399992466,-2.3950000286099997,0.6900009155269999,-0.0189999993891,-0.204999998212,-0.133000001311,315.0,318.0,330.0,408.0,417.0,60.0,60.0,69.0,79.0,85.0,7,"(0.318305573199064, -0.815553406738067, 0.13814275757049982, 0.9999377972961768, -0.0043522273979007264, -0.009388168303921661, 0.004161964805750741)",-0.09000015258799998,0.07999992371000042,0.18000030517499999,0.0050000008195,-0.009000003337999996,0.0010000020269999854
1522692211.26,20443,1522663411,255657911,,1368566,1522663408,696742496,,0.739756803628,-0.18436353081300003,0.08265614100980001,0.973895170852,0.225636753249,0.0031842822699299994,-0.0246193444581,-0.009277122117440001,0.0120175633672,0.00365648570389,-0.000941171361792,0.0146819511255,0.013961250074200002,2.0849480629,0.7563540935519999,4.4767203331,0.149554401636,1.06187045574,0.24256657064,1368917,1522663408,704805640,,"['head_nod', 'head_pan', 'left_e0', 'left_e1', 'left_s0', 'left_s1', 'left_w0', 'left_w1', 'left_w2', 'right_e0', 'right_e1', 'right_s0', 'right_s1', 'right_w0', 'right_w1', 'right_w2', 'torso_t0']","(0.0, -0.10085923680346595, -0.9069661408372509, 1.50176719133982, 0.2795679985921167, 0.6454224165027879, 2.3412381775101125, -0.48742239535059023, -0.03298058693953639, 0.07746602978821339, 1.3556555212937345, 0.813776807973212, -0.9150195399736493, 0.002684466378799474, 1.1309273358685212, 2.7772722164665415, -12.565987119160338)","(0.0, -0.003926990816250607, 0.001570796326500243, -0.004319689897875668, 0.0, 0.012173671530376884, 0.018456856836377853, 0.0, 0.01649336142825255, -0.0070685834692510935, 0.0070685834692510935, 0.006283185306000972, 0.014137166938502187, 0.0200276531628781, 0.0023561944897503642, -0.009424777959001457, 0.0)","(0.0, 0.0, -14.684, 10.98, 0.216, 5.036, 0.084, -2.684, 0.24, 2.36, -14.904, 0.372, -30.196, 0.412, 0.308, -0.008, -20.48)",1351299,1522663411,249885358,robotiq_force_torque_frame_id,0.033999943733200005,-1.8750000476800002,0.42999877929700003,-0.00999999977648,-0.209000006318,-0.138999998569,315.0,318.0,330.0,402.0,413.0,60.0,68.0,69.0,78.0,79.0,7,"(0.318305573199064, -0.815553406738067, 0.13814275757049982, 0.9999377972961768, -0.0043522273979007264, -0.009388168303921661, 0.004161964805750741)",-0.5199999809268,0.5199999809299996,-0.2600021362299999,0.008999999612619998,-0.004000008106000014,-0.005999997257999989
1522692211.27,20444,1522663411,265594959,,1368567,1522663408,706743313,,0.740896795659,-0.18431500425900002,0.0837407985334,0.973743622928,0.226315727111,0.00449344282185,-0.024173486316299998,-0.009844644550969998,0.00621496468606,-0.0108670218924,0.0124059608448,0.0249922190746,0.0020512081786099997,1.8765747547099998,0.841501057148,4.53648042679,0.13021351397,0.9930496215819999,0.269245862961,541243,1522663408,708999936,,['r_gripper_l_finger_joint'],"(0.019983251598477365,)","(0.0,)","(0.0,)",1351300,1522663411,262164883,robotiq_force_torque_frame_id,0.044000172615099996,-1.4050002574899998,0.159998321533,-0.008000000379979999,-0.20999999344300002,-0.15099999308599998,311.0,317.0,336.0,397.0,425.0,63.0,63.0,68.0,78.0,84.0,7,"(0.318305573199064, -0.815553406738067, 0.13814275757049982, 0.9999377972961768, -0.0043522273979007264, -0.009388168303921661, 0.004161964805750741)",0.01000022888189999,0.4699997901900004,-0.27000045776400006,0.001999999396500002,-0.000999987125000018,-0.011999994516999984
1522692211.28,20445,1522663411,275577068,,1368569,1522663408,727238609,,0.740426100048,-0.183943564865,0.0834779947973,0.973793617344,0.226096124983,0.00409717734311,-0.0242846911868,0.0012755742202,0.0263199690795,-0.00367528233106,0.0359922929842,-0.005990185156630001,0.0227283305337,2.50541234016,1.15064060688,4.65391254425,-0.061445135623199996,1.24841725826,0.243410944939,1368919,1522663408,725309927,,"['head_nod', 'head_pan', 'left_e0', 'left_e1', 'left_s0', 'left_s1', 'left_w0', 'left_w1', 'left_w2', 'right_e0', 'right_e1', 'right_s0', 'right_s1', 'right_w0', 'right_w1', 'right_w2', 'torso_t0']","(0.0, -0.10162622719740866, -0.9077331312311936, 1.50176719133982, 0.27880100819817394, 0.6442719309118737, 2.3412381775101125, -0.48857288094150425, -0.033364082136507746, 0.07708253459124204, 1.3564225116876771, 0.8145437983671547, -0.9150195399736493, 0.0030679615757708274, 1.1309273358685212, 2.7780392068604844, -12.565987119160338)","(0.0, -0.0011780972448751821, 0.0023561944897503642, 0.003926990816250607, -0.0007853981632501215, -0.00510508806112579, 0.0, 0.0, -0.01060287520387664, 0.027488935713754253, 0.00039269908162506076, 0.00039269908162506076, 0.007853981632501214, 0.0200276531628781, -0.01649336142825255, -0.009817477040626518, 0.0)","(0.0, 0.0, -14.684, 10.916, 0.152, 4.936, 0.084, -2.656, 0.232, 2.36, -15.024, 0.528, -30.196, 0.392, 0.328, 0.016, -20.48)",1351301,1522663411,270302059,robotiq_force_torque_frame_id,0.314000153542,-1.70499997139,-0.00999984741211,-0.0109999999404,-0.193000003695,-0.157000005245,300.0,304.0,333.0,397.0,425.0,63.0,65.0,67.0,72.0,81.0,7,"(0.318305573199064, -0.815553406738067, 0.13814275757049982, 0.9999377972961768, -0.0043522273979007264, -0.009388168303921661, 0.004161964805750741)",0.26999998092690003,-0.29999971390000013,-0.16999816894511,-0.002999999560420002,0.016999989748000016,-0.006000012159000007
1522692211.29,20446,1522663411,285608053,,1368569,1522663408,727238609,,0.740426100048,-0.183943564865,0.0834779947973,0.973793617344,0.226096124983,0.00409717734311,-0.0242846911868,0.0012755742202,0.0263199690795,-0.00367528233106,0.0359922929842,-0.005990185156630001,0.0227283305337,2.50541234016,1.15064060688,4.65391254425,-0.061445135623199996,1.24841725826,0.243410944939,1368919,1522663408,725309927,,"['head_nod', 'head_pan', 'left_e0', 'left_e1', 'left_s0', 'left_s1', 'left_w0', 'left_w1', 'left_w2', 'right_e0', 'right_e1', 'right_s0', 'right_s1', 'right_w0', 'right_w1', 'right_w2', 'torso_t0']","(0.0, -0.10162622719740866, -0.9077331312311936, 1.50176719133982, 0.27880100819817394, 0.6442719309118737, 2.3412381775101125, -0.48857288094150425, -0.033364082136507746, 0.07708253459124204, 1.3564225116876771, 0.8145437983671547, -0.9150195399736493, 0.0030679615757708274, 1.1309273358685212, 2.7780392068604844, -12.565987119160338)","(0.0, -0.0011780972448751821, 0.0023561944897503642, 0.003926990816250607, -0.0007853981632501215, -0.00510508806112579, 0.0, 0.0, -0.01060287520387664, 0.027488935713754253, 0.00039269908162506076, 0.00039269908162506076, 0.007853981632501214, 0.0200276531628781, -0.01649336142825255, -0.009817477040626518, 0.0)","(0.0, 0.0, -14.684, 10.916, 0.152, 4.936, 0.084, -2.656, 0.232, 2.36, -15.024, 0.528, -30.196, 0.392, 0.328, 0.016, -20.48)",1351302,1522663411,278438054,robotiq_force_torque_frame_id,-0.156000113487,-2.1550002574900002,-0.0799995422363,-0.016000000759999997,-0.194000005722,-0.137999996543,300.0,300.0,333.0,394.0,415.0,65.0,65.0,81.0,87.0,88.0,7,"(0.318305573199064, -0.815553406738067, 0.13814275757049982, 0.9999377972961768, -0.0043522273979007264, -0.009388168303921661, 0.004161964805750741)",-0.470000267029,-0.4500002861000003,-0.06999969482419,-0.0050000008195999965,-0.0010000020269999854,0.019000008702
1522692211.33,20447,1522663411,295633077,,1368570,1522663408,737222037,,0.74048942779,-0.18380912417300002,0.0836358601707,0.973765030768,0.226199501818,0.00393541477961,-0.024494136882700003,0.00463222989524,0.000184511339172,0.00622912793451,-0.007642514890939999,-0.015474109524399999,-0.000972502749012,2.21291232109,1.26996386051,4.5726990699800005,-0.114969618618,1.1532493829700001,0.231416478753,541244,1522663408,747000064,,['l_gripper_l_finger_joint'],"(0.0032494800670444966,)","(0.0,)","(0.0,)",1351303,1522663411,290645442,robotiq_force_torque_frame_id,-0.47600004673,-2.33500008583,-0.05999908447269999,-0.0020000000949900003,-0.19499999284699998,-0.134000003338,302.0,304.0,323.0,394.0,415.0,62.0,65.0,82.0,87.0,88.0,7,"(0.318305573199064, -0.815553406738067, 0.13814275757049982, 0.9999377972961768, -0.0043522273979007264, -0.009388168303921661, 0.004161964805750741)",-0.319999933243,-0.17999982833999972,0.02000045776360001,0.014000000665009997,-0.0009999871249999903,0.0039999932049999964
1522692211.33,20448,1522663411,305582046,,1368572,1522663408,757222425,,0.740335643857,-0.18355334520999997,0.08339167576550001,0.9735976783050001,0.226906014606,0.00396833354493,-0.0246063744411,0.00543326265607,0.009525276441790001,-0.00221443931768,-0.0111961881207,-0.010495546284700001,0.032328521981900005,1.04614901543,0.768048763275,4.40169668198,0.315434187651,0.7314056158069999,0.301104277372,1368922,1522663408,755318609,,"['head_nod', 'head_pan', 'left_e0', 'left_e1', 'left_s0', 'left_s1', 'left_w0', 'left_w1', 'left_w2', 'right_e0', 'right_e1', 'right_s0', 'right_s1', 'right_w0', 'right_w1', 'right_w2', 'torso_t0']","(0.0, -0.10085923680346595, -0.9065826456402796, 1.5025341817337627, 0.27880100819817394, 0.6446554261088451, 2.341621672707084, -0.48703890015361884, -0.03298058693953639, 0.07746602978821339, 1.3560390164907057, 0.8145437983671547, -0.9146360447766779, 0.003451456772742181, 1.1313108310654927, 2.776505226072599, -12.565987119160338)","(0.0, -0.0047123889795007284, 0.007853981632501214, 0.01688606050987761, -0.003926990816250607, 0.0023561944897503642, -0.006675884387626033, -0.009817477040626518, 0.010995574285501701, -0.021991148571003403, -0.013351768775252066, 0.03455751918300534, 0.009817477040626518, 0.0007853981632501215, -0.005890486224375911, -0.01649336142825255, 0.0)","(0.0, 0.0, -14.556, 10.884, 0.248, 5.068, 0.076, -2.664, 0.252, 2.612, -14.664, 0.34, -30.108, 0.46, 0.36, 0.0, -20.48)",1351304,1522663411,298821832,robotiq_force_torque_frame_id,-0.375999903679,-2.29500012398,-0.05999908447269999,-0.00899999961257,-0.195999994874,-0.138999998569,312.0,312.0,323.0,391.0,415.0,62.0,74.0,79.0,81.0,82.0,7,"(0.318305573199064, -0.815553406738067, 0.13814275757049982, 0.9999377972961768, -0.0043522273979007264, -0.009388168303921661, 0.004161964805750741)",0.10000014305100002,0.03999996184999999,0.0,-0.0069999995175799995,-0.0010000020270000132,-0.004999995231000004
1522692211.33,20449,1522663411,315601110,,1368572,1522663408,757222425,,0.740335643857,-0.18355334520999997,0.08339167576550001,0.9735976783050001,0.226906014606,0.00396833354493,-0.0246063744411,0.00543326265607,0.009525276441790001,-0.00221443931768,-0.0111961881207,-0.010495546284700001,0.032328521981900005,1.04614901543,0.768048763275,4.40169668198,0.315434187651,0.7314056158069999,0.301104277372,541245,1522663408,760000000,,['r_gripper_l_finger_joint'],"(0.019983251598477365,)","(0.0,)","(0.0,)",1351305,1522663411,311024943,robotiq_force_torque_frame_id,-0.825999951363,-1.9050002574900002,-0.169999694824,-0.0260000005364,-0.19499999284699998,-0.146999999881,312.0,316.0,323.0,377.0,403.0,62.0,62.0,68.0,79.0,79.0,7,"(0.318305573199064, -0.815553406738067, 0.13814275757049982, 0.9999377972961768, -0.0043522273979007264, -0.009388168303921661, 0.004161964805750741)",-0.450000047684,0.38999986648999974,-0.11000061035130002,-0.01700000092383,0.0010000020270000132,-0.008000001311999988
1522692211.37,20450,1522663411,325587987,,1368574,1522663408,777218425,,0.740556016727,-0.182867335057,0.0833862831939,0.9736512116689999,0.226668741184,0.00432204095795,-0.024615437172099998,-0.0239981346754,0.0101351423399,-0.018966527903900004,-0.0141980571693,0.0389051166948,0.029674783236599996,1.2495287656799998,0.754885494709,4.56337118149,0.283436357975,0.8713354468350001,0.293317943811,1368923,1522663408,765313030,,"['head_nod', 'head_pan', 'left_e0', 'left_e1', 'left_s0', 'left_s1', 'left_w0', 'left_w1', 'left_w2', 'right_e0', 'right_e1', 'right_s0', 'right_s1', 'right_w0', 'right_w1', 'right_w2', 'torso_t0']","(0.0, -0.10085923680346595, -0.9065826456402796, 1.5013836961428486, 0.27880100819817394, 0.6446554261088451, 2.3423886631010267, -0.48780589054756157, -0.033364082136507746, 0.07631554419729933, 1.3560390164907057, 0.8156942839580688, -0.9146360447766779, 0.002684466378799474, 1.1313108310654927, 2.7776557116635128, -12.565987119160338)","(0.0, 0.01767145867312773, -0.004319689897875668, -0.008639379795751335, -0.008639379795751335, 0.013744467856877126, -0.01727875959150267, -0.01060287520387664, -0.0007853981632501215, -0.001570796326500243, 0.021991148571003403, 0.027488935713754253, 0.006283185306000972, 0.023954643979128706, -0.0007853981632501215, 0.014529866020127248, 0.0)","(0.0, 0.0, -14.556, 10.884, 0.216, 5.1, 0.076, -2.648, 0.26, 2.452, -14.604, 0.28, -30.14, 0.452, 0.388, 0.0, -20.48)",1351306,1522663411,319169801,robotiq_force_torque_frame_id,-0.53599998951,-1.0949998378799999,-0.270001983643,-0.0240000002086,-0.184000000358,-0.153999999166,311.0,316.0,325.0,377.0,403.0,64.0,68.0,77.0,78.0,84.0,7,"(0.318305573199064, -0.815553406738067, 0.13814275757049982, 0.9999377972961768, -0.0043522273979007264, -0.009388168303921661, 0.004161964805750741)",0.2899999618529999,0.8100004196100004,-0.10000228881899997,0.0020000003278000007,0.010999992488999993,-0.006999999285000003
1522692211.37,20451,1522663411,335568904,,1368575,1522663408,787220241,,0.7399489893250001,-0.18201808344300002,0.0832773420905,0.973571033383,0.22698313799199998,0.00398435485688,-0.024944397003200003,-0.000619868317296,-0.014408164022899999,-0.00240418423043,-0.00519607152321,-0.012304407401900001,-0.0100349888382,1.9195816516900004,0.674980700016,4.7787694931,0.314940571785,1.15657234192,0.30156826973,1368925,1522663408,785312829,,"['head_nod', 'head_pan', 'left_e0', 'left_e1', 'left_s0', 'left_s1', 'left_w0', 'left_w1', 'left_w2', 'right_e0', 'right_e1', 'right_s0', 'right_s1', 'right_w0', 'right_w1', 'right_w2', 'torso_t0']","(0.0, -0.1004757416064946, -0.9069661408372509, 1.50176719133982, 0.2784175130012026, 0.6450389213058165, 2.3420051679040554, -0.4881893857445329, -0.033364082136507746, 0.07861651537912745, 1.3571895020816198, 0.8156942839580688, -0.9150195399736493, 0.003451456772742181, 1.13054384067155, 2.7784227020574557, -12.565987119160338)","(0.0, -0.0035342917346255468, -0.001570796326500243, 0.004319689897875668, 0.007853981632501214, -0.0070685834692510935, 0.007461282550876154, 0.007853981632501214, 0.001570796326500243, -0.0007853981632501215, 0.03259402377488004, -0.01767145867312773, -0.014137166938502187, -0.005497787142750851, -0.029845130203504617, -0.005890486224375911, 0.0)","(0.0, 0.0, -14.588, 10.884, 0.28, 5.068, 0.076, -2.684, 0.26, 2.516, -14.844, 0.216, -30.168, 0.46, 0.448, 0.016, -20.48)",1351307,1522663411,331376623,robotiq_force_torque_frame_id,-0.06599996089940001,-1.27500014305,-0.129998779297,-0.0189999993891,-0.179000005126,-0.143999993801,311.0,316.0,325.0,382.0,402.0,64.0,65.0,77.0,78.0,100.0,7,"(0.318305573199064, -0.815553406738067, 0.13814275757049982, 0.9999377972961768, -0.0043522273979007264, -0.009388168303921661, 0.004161964805750741)",0.47000002861060003,-0.1800003051700001,0.140003204346,0.0050000008195,0.004999995231999982,0.010000005364999981
1522692211.37,20452,1522663411,345611095,,1368575,1522663408,787220241,,0.7399489893250001,-0.18201808344300002,0.0832773420905,0.973571033383,0.22698313799199998,0.00398435485688,-0.024944397003200003,-0.000619868317296,-0.014408164022899999,-0.00240418423043,-0.00519607152321,-0.012304407401900001,-0.0100349888382,1.9195816516900004,0.674980700016,4.7787694931,0.314940571785,1.15657234192,0.30156826973,541246,1522663408,796999936,,['l_gripper_l_finger_joint'],"(0.0032494800670444966,)","(0.0,)","(0.0,)",1351308,1522663411,339512929,robotiq_force_torque_frame_id,0.20400002002700002,-1.20499997139,0.0300010681152,-0.016000000759999997,-0.17499999702,-0.135000005364,312.0,315.0,323.0,382.0,402.0,61.0,65.0,67.0,72.0,100.0,7,"(0.318305573199064, -0.815553406738067, 0.13814275757049982, 0.9999377972961768, -0.0043522273979007264, -0.009388168303921661, 0.004161964805750741)",0.26999998092640004,0.07000017166000005,0.1599998474122,0.0029999986291000015,0.004000008106000014,0.008999988437000006
1522692211.37,20453,1522663411,355583906,,1368576,1522663408,797218866,,0.7398286923280001,-0.18344187184,0.08300132865960001,0.973821340141,0.225938715237,0.00356239961671,-0.024718490095,0.0024192664537800003,0.025400136460700003,0.0043113628041300004,0.0187202822564,-0.015774596465499998,0.018084597948499998,2.4435429573099996,0.7798067331309999,4.76120424271,0.259079515934,1.34489762783,0.313515305519,541247,1522663408,811000064,,['r_gripper_l_finger_joint'],"(0.019983251598477365,)","(0.0,)","(0.0,)",1351309,1522663411,351721623,robotiq_force_torque_frame_id,-0.12599990367900002,-0.5250001430510001,0.0500015258789,-0.0170000009239,-0.173999994993,-0.145999997854,312.0,315.0,322.0,370.0,397.0,59.0,68.0,68.0,72.0,93.0,7,"(0.318305573199064, -0.815553406738067, 0.13814275757049982, 0.9999377972961768, -0.0043522273979007264, -0.009388168303921661, 0.004161964805750741)",-0.32999992370600006,0.6799998283389999,0.0200004577637,-0.001000000163900002,0.0010000020269999854,-0.010999992489999999
1522692211.41,20454,1522663411,365562915,,1368578,1522663408,817220041,,0.739270984105,-0.183388427449,0.08308587872880001,0.973643277579,0.226762668744,0.00292161109372,-0.024267762095300002,-0.017826246266700003,0.0253027534325,-0.000525733105963,0.00194156248601,0.028091052475999998,0.0682198151028,2.23041415215,0.990109205246,4.5504527092,0.09493137151,1.17272293568,0.256817519665,1368928,1522663408,815309127,,"['head_nod', 'head_pan', 'left_e0', 'left_e1', 'left_s0', 'left_s1', 'left_w0', 'left_w1', 'left_w2', 'right_e0', 'right_e1', 'right_s0', 'right_s1', 'right_w0', 'right_w1', 'right_w2', 'torso_t0']","(0.0, -0.10085923680346595, -0.9069661408372509, 1.5021506865367915, 0.2784175130012026, 0.6450389213058165, 2.3412381775101125, -0.48780589054756157, -0.03298058693953639, 0.07708253459124204, 1.3575729972785913, 0.8156942839580688, -0.9150195399736493, 0.002684466378799474, 1.1320778214594354, 2.7780392068604844, -12.565987119160338)","(0.0, 0.01531526418337737, -0.0027488935713754254, -0.027881634795379313, 0.0035342917346255468, -0.00510508806112579, 0.008639379795751335, -0.0070685834692510935, -0.01060287520387664, 0.006675884387626033, 0.01727875959150267, 0.03220132469325498, -0.008246680714126275, 0.0011780972448751821, 0.02042035224450316, -0.029452431121879556, 0.0)","(0.0, 0.0, -14.588, 10.948, 0.308, 5.036, 0.076, -2.636, 0.24, 2.392, -14.904, 0.436, -30.108, 0.452, 0.36, 0.008, -20.48)",1351310,1522663411,359871097,robotiq_force_torque_frame_id,-0.516000008583,-0.6950002193449999,0.08000030517580001,-0.0250000003725,-0.18000000715300002,-0.162000000477,310.0,313.0,322.0,370.0,417.0,59.0,67.0,72.0,77.0,93.0,7,"(0.318305573199064, -0.815553406738067, 0.13814275757049982, 0.9999377972961768, -0.0043522273979007264, -0.009388168303921661, 0.004161964805750741)",-0.39000010490399994,-0.17000007629399982,0.029998779296900008,-0.007999999448600002,-0.006000012160000012,-0.016000002622999998
1522692211.41,20455,1522663411,375613927,,1368578,1522663408,817220041,,0.739270984105,-0.183388427449,0.08308587872880001,0.973643277579,0.226762668744,0.00292161109372,-0.024267762095300002,-0.017826246266700003,0.0253027534325,-0.000525733105963,0.00194156248601,0.028091052475999998,0.0682198151028,2.23041415215,0.990109205246,4.5504527092,0.09493137151,1.17272293568,0.256817519665,1368928,1522663408,815309127,,"['head_nod', 'head_pan', 'left_e0', 'left_e1', 'left_s0', 'left_s1', 'left_w0', 'left_w1', 'left_w2', 'right_e0', 'right_e1', 'right_s0', 'right_s1', 'right_w0', 'right_w1', 'right_w2', 'torso_t0']","(0.0, -0.10085923680346595, -0.9069661408372509, 1.5021506865367915, 0.2784175130012026, 0.6450389213058165, 2.3412381775101125, -0.48780589054756157, -0.03298058693953639, 0.07708253459124204, 1.3575729972785913, 0.8156942839580688, -0.9150195399736493, 0.002684466378799474, 1.1320778214594354, 2.7780392068604844, -12.565987119160338)","(0.0, 0.01531526418337737, -0.0027488935713754254, -0.027881634795379313, 0.0035342917346255468, -0.00510508806112579, 0.008639379795751335, -0.0070685834692510935, -0.01060287520387664, 0.006675884387626033, 0.01727875959150267, 0.03220132469325498, -0.008246680714126275, 0.0011780972448751821, 0.02042035224450316, -0.029452431121879556, 0.0)","(0.0, 0.0, -14.588, 10.948, 0.308, 5.036, 0.076, -2.636, 0.24, 2.392, -14.904, 0.436, -30.108, 0.452, 0.36, 0.008, -20.48)",1351311,1522663411,372127321,robotiq_force_torque_frame_id,-0.19600007534000002,-1.1349997997299999,0.039999389648400004,-0.0120000001043,-0.19699999690099998,-0.149000003934,313.0,313.0,314.0,373.0,417.0,67.0,71.0,72.0,77.0,84.0,7,"(0.318305573199064, -0.815553406738067, 0.13814275757049982, 0.9999377972961768, -0.0043522273979007264, -0.009388168303921661, 0.004161964805750741)",0.31999993324299997,-0.439999580385,-0.040000915527400004,0.013000000268200002,-0.01699998974799996,0.012999996542999992
1522692211.41,20456,1522663411,385577917,,1368579,1522663408,827220472,,0.739645054106,-0.18177233527699999,0.0830183964925,0.9734715896100001,0.227434542764,0.0035589131236300003,-0.0247775526702,-0.0161405516579,0.0151807598691,-0.000594052836844,0.0061008748825399995,0.0351210189156,0.007202684477189999,1.6830660104799997,0.82290327549,4.51224565506,0.22220467031,0.958985388279,0.27781268954300004,1368929,1522663408,825321752,,"['head_nod', 'head_pan', 'left_e0', 'left_e1', 'left_s0', 'left_s1', 'left_w0', 'left_w1', 'left_w2', 'right_e0', 'right_e1', 'right_s0', 'right_s1', 'right_w0', 'right_w1', 'right_w2', 'torso_t0']","(0.0, -0.10085923680346595, -0.9069661408372509, 1.50176719133982, 0.27880100819817394, 0.6446554261088451, 2.3420051679040554, -0.48780589054756157, -0.032213596545593685, 0.07784952498518474, 1.3571895020816198, 0.8168447695489828, -0.9146360447766779, 0.003451456772742181, 1.1309273358685212, 2.7780392068604844, -12.565987119160338)","(0.0, -0.003926990816250607, 0.012959069693627005, 0.008639379795751335, 0.0027488935713754254, -0.0027488935713754254, -0.01727875959150267, 0.018064157754752792, -0.0070685834692510935, 0.0011780972448751821, 0.006675884387626033, 0.018064157754752792, -0.0023561944897503642, 0.009817477040626518, 0.029452431121879556, 0.009424777959001457, 0.0)","(0.0, 0.0, -14.72, 10.948, 0.28, 5.068, 0.096, -2.676, 0.26, 2.484, -14.812, 0.34, -30.14, 0.452, 0.348, 0.008, -20.48)",1351312,1522663411,380264926,robotiq_force_torque_frame_id,0.0240001916885,-1.35500006676,0.0699981689453,-0.0010000000474999998,-0.19699999690099998,-0.143000006676,297.0,313.0,314.0,375.0,405.0,61.0,64.0,78.0,84.0,84.0,7,"(0.318305573199064, -0.815553406738067, 0.13814275757049982, 0.9999377972961768, -0.0043522273979007264, -0.009388168303921661, 0.004161964805750741)",0.22000026702850004,-0.22000026703000009,0.0299987792969,0.0110000000568,0.0,0.005999997258000017
1522692211.41,20457,1522663411,395621061,,1368581,1522663408,847217877,,0.739186397965,-0.182866514107,0.0827489116887,0.97343978125,0.22760831372600002,0.00297522490162,-0.0245070569307,-0.0016466834935800001,0.0282708365624,0.00379858102089,0.0128157578862,0.006343059240270001,0.0131007843955,2.50052762032,0.717595160007,4.592887878419999,0.278867185116,1.25058889389,0.303825974464,1368931,1522663408,845305560,,"['head_nod', 'head_pan', 'left_e0', 'left_e1', 'left_s0', 'left_s1', 'left_w0', 'left_w1', 'left_w2', 'right_e0', 'right_e1', 'right_s0', 'right_s1', 'right_w0', 'right_w1', 'right_w2', 'torso_t0']","(0.0, -0.10085923680346595, -0.9065826456402796, 1.5021506865367915, 0.27880100819817394, 0.6450389213058165, 2.3420051679040554, -0.48742239535059023, -0.033364082136507746, 0.07784952498518474, 1.3579564924755625, 0.8156942839580688, -0.9146360447766779, 0.002684466378799474, 1.1313108310654927, 2.7768887212695703, -12.565987119160338)","(0.0, -0.0019634954081253035, 0.007853981632501214, 0.003926990816250607, -0.0007853981632501215, 0.0, -0.009424777959001457, 0.01688606050987761, -0.0023561944897503642, 0.009424777959001457, -0.01649336142825255, 0.028274333877004374, 0.0035342917346255468, 0.008246680714126275, 0.01727875959150267, 0.019242254999627974, 0.0)","(0.0, 0.0, -14.588, 10.916, 0.28, 5.004, 0.076, -2.676, 0.252, 2.452, -14.992, 0.216, -30.14, 0.436, 0.328, 0.008, -20.48)",1351313,1522663411,388406559,robotiq_force_torque_frame_id,0.24399998188000002,-1.6250000476800002,0.240000152588,-0.0020000000949900003,-0.19900000095400003,-0.141000002623,299.0,302.0,314.0,375.0,405.0,65.0,65.0,73.0,78.0,84.0,7,"(0.318305573199064, -0.815553406738067, 0.13814275757049982, 0.9999377972961768, -0.0043522273979007264, -0.009388168303921661, 0.004161964805750741)",0.2199997901915,-0.2699999809200002,0.1700019836427,-0.0010000000474900005,-0.0020000040530000485,0.002000004052999993
1522692211.45,20458,1522663411,405574083,,1368581,1522663408,847217877,,0.739186397965,-0.182866514107,0.0827489116887,0.97343978125,0.22760831372600002,0.00297522490162,-0.0245070569307,-0.0016466834935800001,0.0282708365624,0.00379858102089,0.0128157578862,0.006343059240270001,0.0131007843955,2.50052762032,0.717595160007,4.592887878419999,0.278867185116,1.25058889389,0.303825974464,1368931,1522663408,845305560,,"['head_nod', 'head_pan', 'left_e0', 'left_e1', 'left_s0', 'left_s1', 'left_w0', 'left_w1', 'left_w2', 'right_e0', 'right_e1', 'right_s0', 'right_s1', 'right_w0', 'right_w1', 'right_w2', 'torso_t0']","(0.0, -0.10085923680346595, -0.9065826456402796, 1.5021506865367915, 0.27880100819817394, 0.6450389213058165, 2.3420051679040554, -0.48742239535059023, -0.033364082136507746, 0.07784952498518474, 1.3579564924755625, 0.8156942839580688, -0.9146360447766779, 0.002684466378799474, 1.1313108310654927, 2.7768887212695703, -12.565987119160338)","(0.0, -0.0019634954081253035, 0.007853981632501214, 0.003926990816250607, -0.0007853981632501215, 0.0, -0.009424777959001457, 0.01688606050987761, -0.0023561944897503642, 0.009424777959001457, -0.01649336142825255, 0.028274333877004374, 0.0035342917346255468, 0.008246680714126275, 0.01727875959150267, 0.019242254999627974, 0.0)","(0.0, 0.0, -14.588, 10.916, 0.28, 5.004, 0.076, -2.676, 0.252, 2.452, -14.992, 0.216, -30.14, 0.436, 0.328, 0.008, -20.48)",1351314,1522663411,400634710,robotiq_force_torque_frame_id,0.20400002002700002,-1.9050002574900002,0.22999801635699998,-0.00499999988824,-0.207000002265,-0.143000006676,299.0,309.0,314.0,384.0,400.0,68.0,72.0,73.0,78.0,86.0,7,"(0.318305573199064, -0.815553406738067, 0.13814275757049982, 0.9999377972961768, -0.0043522273979007264, -0.009388168303921661, 0.004161964805750741)",-0.039999961853000005,-0.28000020981000007,-0.01000213623100002,-0.00299999979325,-0.008000001310999982,-0.002000004052999993
1522692211.45,20459,1522663411,415652036,,1368582,1522663408,857217063,,0.7385670394310001,-0.18157394805500002,0.08241533305589999,0.973408364986,0.227663569131,0.00247283884474,-0.025285160367799996,-0.000578076273268,-0.005593969614220001,0.00483240702194,-0.00546897743088,-0.00281771671597,0.00747477293802,2.17752790451,0.807918667793,4.60059642792,0.280115962029,1.0960741043100002,0.29796653986,1368932,1522663408,855272929,,"['head_nod', 'head_pan', 'left_e0', 'left_e1', 'left_s0', 'left_s1', 'left_w0', 'left_w1', 'left_w2', 'right_e0', 'right_e1', 'right_s0', 'right_s1', 'right_w0', 'right_w1', 'right_w2', 'torso_t0']","(0.0, -0.10085923680346595, -0.9065826456402796, 1.50176719133982, 0.2784175130012026, 0.6450389213058165, 2.3412381775101125, -0.48780589054756157, -0.03259709174256504, 0.07784952498518474, 1.358339987672534, 0.8168447695489828, -0.9142525495797066, 0.004218447166684887, 1.131694326262464, 2.7772722164665415, -12.565987119160338)","(0.0, -0.014529866020127248, 0.001570796326500243, 0.005497787142750851, 0.007461282550876154, 0.014137166938502187, 0.022776546734253524, -0.014529866020127248, -0.00039269908162506076, 0.003926990816250607, 0.005497787142750851, -0.007461282550876154, -0.010995574285501701, -0.008246680714126275, 0.003926990816250607, -0.007853981632501214, 0.0)","(0.0, 0.0, -14.72, 10.852, 0.28, 5.1, 0.084, -2.664, 0.26, 2.548, -14.964, 0.28, -30.196, 0.46, 0.3, 0.016, -20.48)",1351315,1522663411,408771212,robotiq_force_torque_frame_id,-0.156000113487,-1.5949998378799999,0.26999893188499996,-0.0130000002682,-0.211999997497,-0.148000001907,302.0,302.0,309.0,384.0,400.0,68.0,72.0,76.0,78.0,86.0,7,"(0.318305573199064, -0.815553406738067, 0.13814275757049982, 0.9999377972961768, -0.0043522273979007264, -0.009388168303921661, 0.004161964805750741)",-0.360000133514,0.31000041961000036,0.040000915527999975,-0.00800000037996,-0.004999995231999982,-0.004999995231000004
1522692211.45,20460,1522663411,425612926,,1368584,1522663408,877220952,,0.7389773389129999,-0.181557679722,0.0826339970847,0.973337713319,0.22800675265599998,0.00299347695878,-0.0248526793367,-0.00756335461254,0.016519697498399998,-0.0083440569907,0.0036349945107199996,0.00320354764287,0.038332346354800005,2.46283864975,1.26821923256,4.67907619476,0.011829674243900001,1.25316786766,0.272381424904,1368934,1522663408,875308659,,"['head_nod', 'head_pan', 'left_e0', 'left_e1', 'left_s0', 'left_s1', 'left_w0', 'left_w1', 'left_w2', 'right_e0', 'right_e1', 'right_s0', 'right_s1', 'right_w0', 'right_w1', 'right_w2', 'torso_t0']","(0.0, -0.10085923680346595, -0.9073496360342223, 1.50176719133982, 0.2795679985921167, 0.6450389213058165, 2.3412381775101125, -0.48780589054756157, -0.03259709174256504, 0.07784952498518474, 1.358339987672534, 0.8172282647459542, -0.9146360447766779, 0.003451456772742181, 1.1309273358685212, 2.7772722164665415, -12.565987119160338)","(0.0, 0.009032078877376396, -0.011388273367126762, -0.01727875959150267, -0.0011780972448751821, -0.011780972448751823, 0.022383847652628464, 0.008639379795751335, 0.0, 0.01060287520387664, 0.02513274122400389, 0.015707963265002428, 0.00039269908162506076, -0.0027488935713754254, -0.021598449489378342, -0.012959069693627005, 0.0)","(0.0, 0.0, -14.684, 10.98, 0.216, 5.068, 0.052, -2.656, 0.26, 2.58, -14.992, 0.592, -30.168, 0.452, 0.348, 0.016, -20.48)",1351316,1522663411,420980715,robotiq_force_torque_frame_id,-0.305999970436,-1.5349998951,0.120001220703,-0.00600000005215,-0.203999996185,-0.151999995112,302.0,302.0,307.0,384.0,400.0,70.0,74.0,76.0,76.0,85.0,7,"(0.318305573199064, -0.815553406738067, 0.13814275757049982, 0.9999377972961768, -0.0043522273979007264, -0.009388168303921661, 0.004161964805750741)",-0.14999985694900003,0.05999994277999998,-0.14999771118199995,0.00700000021605,0.008000001311999988,-0.0039999932049999964
1522692211.45,20461,1522663411,435561895,,1368584,1522663408,877220952,,0.7389773389129999,-0.181557679722,0.0826339970847,0.973337713319,0.22800675265599998,0.00299347695878,-0.0248526793367,-0.00756335461254,0.016519697498399998,-0.0083440569907,0.0036349945107199996,0.00320354764287,0.038332346354800005,2.46283864975,1.26821923256,4.67907619476,0.011829674243900001,1.25316786766,0.272381424904,1368934,1522663408,875308659,,"['head_nod', 'head_pan', 'left_e0', 'left_e1', 'left_s0', 'left_s1', 'left_w0', 'left_w1', 'left_w2', 'right_e0', 'right_e1', 'right_s0', 'right_s1', 'right_w0', 'right_w1', 'right_w2', 'torso_t0']","(0.0, -0.10085923680346595, -0.9073496360342223, 1.50176719133982, 0.2795679985921167, 0.6450389213058165, 2.3412381775101125, -0.48780589054756157, -0.03259709174256504, 0.07784952498518474, 1.358339987672534, 0.8172282647459542, -0.9146360447766779, 0.003451456772742181, 1.1309273358685212, 2.7772722164665415, -12.565987119160338)","(0.0, 0.009032078877376396, -0.011388273367126762, -0.01727875959150267, -0.0011780972448751821, -0.011780972448751823, 0.022383847652628464, 0.008639379795751335, 0.0, 0.01060287520387664, 0.02513274122400389, 0.015707963265002428, 0.00039269908162506076, -0.0027488935713754254, -0.021598449489378342, -0.012959069693627005, 0.0)","(0.0, 0.0, -14.684, 10.98, 0.216, 5.068, 0.052, -2.656, 0.26, 2.58, -14.992, 0.592, -30.168, 0.452, 0.348, 0.016, -20.48)",1351317,1522663411,429132295,robotiq_force_torque_frame_id,-0.44600007533999997,-1.5650001049000002,-0.00999984741211,-0.0040000001899899995,-0.195999994874,-0.153999999166,296.0,300.0,307.0,372.0,392.0,70.0,76.0,78.0,78.0,95.0,7,"(0.318305573199064, -0.815553406738067, 0.13814275757049982, 0.9999377972961768, -0.0043522273979007264, -0.009388168303921661, 0.004161964805750741)",-0.14000010490399994,-0.030000209800000288,-0.13000106811511,0.00199999986216,0.00800000131100001,-0.0020000040539999986
1522692211.49,20462,1522663411,445710897,,1368585,1522663408,887225277,,0.7391293086049999,-0.18181446022300002,0.0828799232146,0.9733867473700001,0.22778593868,0.0032101019076799997,-0.0249299304085,-0.0206257714536,-0.0134151908234,-0.0272444367582,-0.020664550145199998,0.0413852109316,0.00412748827913,2.73435211182,1.1653842926,4.726883411409999,0.0334703326225,1.3894822597499998,0.28924086689899997,541250,1522663408,897999872,,['l_gripper_l_finger_joint'],"(0.0032494800670444966,)","(0.0,)","(0.0,)",1351318,1522663411,441343562,robotiq_force_torque_frame_id,-0.305999970436,-1.47499995232,0.039999389648400004,-0.0130000002682,-0.194000005722,-0.155000001192,305.0,307.0,325.0,372.0,392.0,65.0,72.0,75.0,78.0,95.0,7,"(0.318305573199064, -0.815553406738067, 0.13814275757049982, 0.9999377972961768, -0.0043522273979007264, -0.009388168303921661, 0.004161964805750741)",0.14000010490399994,0.09000015258000027,0.04999923706051,-0.00900000007821,0.0019999891520000035,-0.0010000020260000075
1522692211.49,20463,1522663411,455579042,,1368587,1522663408,907241995,,0.739042283477,-0.181288638361,0.0825285885866,0.973383201911,0.22781121437399998,0.0029809770974600002,-0.0248657720365,-0.030763769770400004,0.040059805505,-0.011219783634600002,0.013189029635299998,0.050882679215799996,0.0568228589951,2.9724376201599996,1.15324759483,4.81877565384,-0.0053088888526000005,1.4579329490700002,0.25474292039900004,541251,1522663408,912000000,,['r_gripper_l_finger_joint'],"(0.019983251598477365,)","(0.0,)","(0.0,)",1351319,1522663411,449481640,robotiq_force_torque_frame_id,0.08400013446810002,-1.7849998951,0.30000152587900003,-0.0130000002682,-0.20000000298,-0.149000003934,299.0,307.0,325.0,378.0,397.0,66.0,68.0,72.0,77.0,83.0,7,"(0.318305573199064, -0.815553406738067, 0.13814275757049982, 0.9999377972961768, -0.0043522273979007264, -0.009388168303921661, 0.004161964805750741)",0.39000010490410003,-0.30999994278,0.26000213623060003,0.0,-0.005999997258000017,0.005999997257999989
1522692211.49,20464,1522663411,465579032,,1368587,1522663408,907241995,,0.739042283477,-0.181288638361,0.0825285885866,0.973383201911,0.22781121437399998,0.0029809770974600002,-0.0248657720365,-0.030763769770400004,0.040059805505,-0.011219783634600002,0.013189029635299998,0.050882679215799996,0.0568228589951,2.9724376201599996,1.15324759483,4.81877565384,-0.0053088888526000005,1.4579329490700002,0.25474292039900004,541251,1522663408,912000000,,['r_gripper_l_finger_joint'],"(0.019983251598477365,)","(0.0,)","(0.0,)",1351320,1522663411,461707387,robotiq_force_torque_frame_id,0.16400005817399999,-2.12500004768,0.39000167846699996,-0.0140000004321,-0.204999998212,-0.149000003934,299.0,311.0,334.0,378.0,397.0,66.0,68.0,75.0,77.0,83.0,7,"(0.318305573199064, -0.815553406738067, 0.13814275757049982, 0.9999377972961768, -0.0043522273979007264, -0.009388168303921661, 0.004161964805750741)",0.07999992370589996,-0.34000015258000005,0.09000015258799993,-0.0010000001639000004,-0.004999995231999982,0.0
1522692211.49,20465,1522663411,475578069,,1368588,1522663408,917216909,,0.7381708997830001,-0.180843069612,0.08239090794750001,0.9732079007700001,0.228545093741,0.00224232260602,-0.0250697825014,0.0015202490137599999,-0.00810167293771,-0.00238759004338,-0.010515690627600001,0.0029788217551799997,-0.012034109886399998,2.8214070797,0.9709517955779999,4.8092832565300005,0.22310180962099999,1.37295532227,0.315181642771,1368938,1522663408,915266695,,"['head_nod', 'head_pan', 'left_e0', 'left_e1', 'left_s0', 'left_s1', 'left_w0', 'left_w1', 'left_w2', 'right_e0', 'right_e1', 'right_s0', 'right_s1', 'right_w0', 'right_w1', 'right_w2', 'torso_t0']","(0.0, -0.1012427320004373, -0.9069661408372509, 1.5021506865367915, 0.2784175130012026, 0.6450389213058165, 2.341621672707084, -0.48742239535059023, -0.033364082136507746, 0.0782330201821561, 1.3591069780664766, 0.8179952551398969, -0.9146360447766779, 0.003451456772742181, 1.131694326262464, 2.7772722164665415, -12.565987119160338)","(0.0, 0.00510508806112579, 0.001570796326500243, 0.011780972448751823, -0.006675884387626033, 0.009032078877376396, -0.005497787142750851, 0.02042035224450316, 0.012959069693627005, -0.019242254999627974, -0.008246680714126275, 0.006283185306000972, 0.007461282550876154, 0.0011780972448751821, 0.003926990816250607, 0.0023561944897503642, 0.0)","(0.0, 0.0, -14.524, 10.916, 0.308, 5.1, 0.096, -2.676, 0.232, 2.58, -15.112, 0.372, -30.228, 0.488, 0.328, 0.0, -20.48)",1351321,1522663411,469846718,robotiq_force_torque_frame_id,-0.23600003719300003,-1.67500023842,0.109999084473,-0.016000000759999997,-0.20800000429200002,-0.149000003934,311.0,318.0,320.0,383.0,401.0,68.0,70.0,70.0,75.0,76.0,7,"(0.318305573199064, -0.815553406738067, 0.13814275757049982, 0.9999377972961768, -0.0043522273979007264, -0.009388168303921661, 0.004161964805750741)",-0.400000095367,0.44999980925999994,-0.28000259399399996,-0.002000000327899997,-0.003000006080000034,0.0
1522692211.49,20466,1522663411,485666036,,1368591,1522663408,947222991,,0.738783188482,-0.181460771943,0.0828604081053,0.9732764651019999,0.22828792708099999,0.00277555201129,-0.024694961798099997,-0.0067201227998,-0.005116096154029999,-0.00178028260578,0.0018544817498499999,0.0159284482838,-0.0266294121815,2.05569124222,1.1167891025499999,4.651398181919999,0.06391453742980001,1.0451225042299999,0.271238088608,1368941,1522663408,945266277,,"['head_nod', 'head_pan', 'left_e0', 'left_e1', 'left_s0', 'left_s1', 'left_w0', 'left_w1', 'left_w2', 'right_e0', 'right_e1', 'right_s0', 'right_s1', 'right_w0', 'right_w1', 'right_w2', 'torso_t0']","(0.0, -0.1012427320004373, -0.9073496360342223, 1.50176719133982, 0.2791845033951453, 0.6450389213058165, 2.3423886631010267, -0.4881893857445329, -0.033364082136507746, 0.07784952498518474, 1.358339987672534, 0.8176117599429256, -0.9150195399736493, 0.0030679615757708274, 1.131694326262464, 2.7772722164665415, -12.565987119160338)","(0.0, 0.01060287520387664, 0.001570796326500243, -0.02042035224450316, -0.0047123889795007284, 0.001570796326500243, 0.011780972448751823, -0.005890486224375911, -0.00510508806112579, -0.008246680714126275, 0.008639379795751335, -0.0035342917346255468, -0.0019634954081253035, 0.009424777959001457, 0.007853981632501214, 0.013351768775252066, 0.0)","(0.0, 0.0, -14.684, 10.916, 0.216, 5.1, 0.096, -2.676, 0.252, 2.516, -14.964, 0.528, -30.228, 0.444, 0.3, 0.0, -20.48)",1351322,1522663411,482070869,robotiq_force_torque_frame_id,-1.21600005627,-2.22499995232,0.039999389648400004,-0.016000000759999997,-0.20800000429200002,-0.141000002623,311.0,318.0,320.0,390.0,401.0,68.0,70.0,74.0,76.0,76.0,7,"(0.318305573199064, -0.815553406738067, 0.13814275757049982, 0.9999377972961768, -0.0043522273979007264, -0.009388168303921661, 0.004161964805750741)",-0.980000019077,-0.5499997139000001,-0.0699996948246,0.0,0.0,0.00800000131100001
1522692211.5,20467,1522663411,495568990,,1368593,1522663408,967217228,,0.7385617862630001,-0.181187617922,0.0824900627906,0.973305737921,0.228125141814,0.0028176899897899995,-0.025038387055,0.00408560373973,-0.0067538092352499995,-0.00663441365167,-0.00129139684049,-0.0101406712487,-0.0500203743977,1.6917005777399998,0.797987163067,4.69825124741,0.293332219124,0.980319797993,0.310200899839,541253,1522663408,961999872,,['r_gripper_l_finger_joint'],"(0.019983251598477365,)","(0.0,)","(0.0,)",1351323,1522663411,490391721,robotiq_force_torque_frame_id,-1.2060000658,-3.24499993324,0.08000030517580001,-0.0040000001899899995,-0.20999999344300002,-0.14499999582800002,307.0,314.0,325.0,390.0,401.0,65.0,65.0,76.0,76.0,89.0,7,"(0.318305573199064, -0.815553406738067, 0.13814275757049982, 0.9999377972961768, -0.0043522273979007264, -0.009388168303921661, 0.004161964805750741)",0.009999990469999886,-1.0199999809199998,0.040000915527400004,0.012000000570009998,-0.001999989150999998,-0.003999993205000024
1522692211.51,20468,1522663411,506140947,,1368594,1522663408,977217271,,0.738309121664,-0.181343602943,0.08225033268410001,0.9734655112639999,0.227459000485,0.00239938771296,-0.024930792548500003,0.0075684792431999996,-0.0153999559084,-0.00360409033252,-0.024332648901499998,-0.0254843283453,0.0027069315774299997,2.33368015289,0.878392517567,4.76664066315,0.19720964133699997,1.26089560986,0.291131079197,541253,1522663408,961999872,,['r_gripper_l_finger_joint'],"(0.019983251598477365,)","(0.0,)","(0.0,)",1351324,1522663411,498533533,robotiq_force_torque_frame_id,-0.295999979973,-2.4150000095400004,0.19999923706099998,-0.008000000379979999,-0.20999999344300002,-0.146999999881,313.0,314.0,325.0,392.0,397.0,60.0,61.0,68.0,82.0,89.0,7,"(0.318305573199064, -0.815553406738067, 0.13814275757049982, 0.9999377972961768, -0.0043522273979007264, -0.009388168303921661, 0.004161964805750741)",0.9100000858270001,0.8299999236999995,0.11999893188519997,-0.0040000001899899995,0.0,-0.002000004052999965
1522692211.52,20469,1522663411,515651941,,1368595,1522663408,987211506,,0.73870228796,-0.180537059251,0.0826231429216,0.9732547361499999,0.228349348605,0.00298583058876,-0.0249575313184,-0.007740893919140001,0.024894847430599998,-0.018408297949,0.0329607171133,0.00887945428682,0.0102102414216,2.55666089058,0.824602603912,4.93496894836,0.26949068903900003,1.3964765071899998,0.326214402914,1368945,1522663408,985308607,,"['head_nod', 'head_pan', 'left_e0', 'left_e1', 'left_s0', 'left_s1', 'left_w0', 'left_w1', 'left_w2', 'right_e0', 'right_e1', 'right_s0', 'right_s1', 'right_w0', 'right_w1', 'right_w2', 'torso_t0']","(0.0, -0.10162622719740866, -0.9073496360342223, 1.5021506865367915, 0.27880100819817394, 0.6454224165027879, 2.3427721582979983, -0.48780589054756157, -0.03298058693953639, 0.0782330201821561, 1.3591069780664766, 0.8183787503368682, -0.9150195399736493, 0.003451456772742181, 1.13054384067155, 2.7780392068604844, -12.565987119160338)","(0.0, 0.012959069693627005, 0.001570796326500243, 0.0027488935713754254, -0.006675884387626033, 0.007853981632501214, -0.007461282550876154, -0.008639379795751335, 0.010995574285501701, 0.03377212101975522, 0.02552544030562895, -0.003926990816250607, 0.018456856836377853, 0.013351768775252066, -0.03769911183600583, 0.006283185306000972, 0.0)","(0.0, 0.0, -14.556, 10.884, 0.216, 5.036, 0.076, -2.628, 0.232, 2.58, -14.992, 0.28, -30.196, 0.46, 0.448, 0.008, -20.48)",1351325,1522663411,510729724,robotiq_force_torque_frame_id,-0.405999875069,-1.5650001049000002,0.19000091552700002,-0.00999999977648,-0.20999999344300002,-0.16400000453,303.0,303.0,320.0,392.0,397.0,58.0,60.0,68.0,82.0,85.0,7,"(0.318305573199064, -0.815553406738067, 0.13814275757049982, 0.9999377972961768, -0.0043522273979007264, -0.009388168303921661, 0.004161964805750741)",-0.109999895096,0.8499999046400002,-0.00999832153399996,-0.001999999396500002,0.0,-0.017000004649000006
1522692211.53,20470,1522663411,525655984,,1368596,1522663408,997224575,,0.7383286811990001,-0.182116858355,0.0821102874883,0.973590221849,0.226937356085,0.00239054148017,-0.0248153510067,-0.0188592931858,0.00910942810658,-0.011283804973799999,0.021211780447999998,0.0405537901555,0.012167288813399998,2.6123394966099998,0.8734227418899999,4.84486055374,0.257102787495,1.38375043869,0.33244112134,1368945,1522663408,985308607,,"['head_nod', 'head_pan', 'left_e0', 'left_e1', 'left_s0', 'left_s1', 'left_w0', 'left_w1', 'left_w2', 'right_e0', 'right_e1', 'right_s0', 'right_s1', 'right_w0', 'right_w1', 'right_w2', 'torso_t0']","(0.0, -0.10162622719740866, -0.9073496360342223, 1.5021506865367915, 0.27880100819817394, 0.6454224165027879, 2.3427721582979983, -0.48780589054756157, -0.03298058693953639, 0.0782330201821561, 1.3591069780664766, 0.8183787503368682, -0.9150195399736493, 0.003451456772742181, 1.13054384067155, 2.7780392068604844, -12.565987119160338)","(0.0, 0.012959069693627005, 0.001570796326500243, 0.0027488935713754254, -0.006675884387626033, 0.007853981632501214, -0.007461282550876154, -0.008639379795751335, 0.010995574285501701, 0.03377212101975522, 0.02552544030562895, -0.003926990816250607, 0.018456856836377853, 0.013351768775252066, -0.03769911183600583, 0.006283185306000972, 0.0)","(0.0, 0.0, -14.556, 10.884, 0.216, 5.036, 0.076, -2.628, 0.232, 2.58, -14.992, 0.28, -30.196, 0.46, 0.448, 0.008, -20.48)",1351326,1522663411,518871842,robotiq_force_torque_frame_id,-0.75600001812,-1.6550002574899998,0.100000762939,-0.00300000002608,-0.203999996185,-0.163000002503,303.0,304.0,320.0,393.0,397.0,58.0,58.0,63.0,75.0,85.0,7,"(0.318305573199064, -0.815553406738067, 0.13814275757049982, 0.9999377972961768, -0.0043522273979007264, -0.009388168303921661, 0.004161964805750741)",-0.35000014305099997,-0.0900001525899996,-0.09000015258800002,0.006999999750400001,0.005999997258000017,0.0010000020269999854
1522692211.57,20471,1522663411,535568952,,1368597,1522663409,7211466,,0.738615435864,-0.180818494172,0.0823887775708,0.973188890043,0.228653356174,0.00278410614511,-0.0247644051221,-0.0179608297815,0.015571737337799998,-0.00574191586537,-0.0191453319069,0.0326440978388,0.0370578538985,2.04312515259,0.841755151749,4.82413291931,0.194641813636,1.15072572231,0.292561233044,1368947,1522663409,5327962,,"['head_nod', 'head_pan', 'left_e0', 'left_e1', 'left_s0', 'left_s1', 'left_w0', 'left_w1', 'left_w2', 'right_e0', 'right_e1', 'right_s0', 'right_s1', 'right_w0', 'right_w1', 'right_w2', 'torso_t0']","(0.0, -0.1012427320004373, -0.9069661408372509, 1.50176719133982, 0.2784175130012026, 0.6450389213058165, 2.3420051679040554, -0.48703890015361884, -0.03298058693953639, 0.07861651537912745, 1.3591069780664766, 0.8179952551398969, -0.9146360447766779, 0.002684466378799474, 1.13054384067155, 2.7776557116635128, -12.565987119160338)","(0.0, -0.005497787142750851, 0.011780972448751823, -0.021991148571003403, -0.013744467856877126, -0.01767145867312773, 0.012959069693627005, 0.018456856836377853, -0.019242254999627974, -0.009032078877376396, 0.015707963265002428, 0.0400553063257562, 0.0, -0.011388273367126762, 0.018456856836377853, 0.0023561944897503642, 0.0)","(0.0, 0.0, -14.684, 10.916, 0.308, 5.068, 0.096, -2.664, 0.24, 2.484, -14.904, 0.34, -30.228, 0.444, 0.408, 0.0, -20.48)",1351327,1522663411,531078953,robotiq_force_torque_frame_id,-0.305999970436,-2.2849998951,0.289999389648,-0.0130000002682,-0.193000003695,-0.14000000059599998,302.0,304.0,325.0,393.0,394.0,58.0,60.0,73.0,75.0,85.0,7,"(0.318305573199064, -0.815553406738067, 0.13814275757049982, 0.9999377972961768, -0.0043522273979007264, -0.009388168303921661, 0.004161964805750741)",0.4500000476839999,-0.6299996376100001,0.18999862670899997,-0.01000000024212,0.010999992489999999,0.023000001907000023
1522692211.57,20472,1522663411,545589923,,1368598,1522663409,17223721,,0.73806569904,-0.18071663163600002,0.0819176537745,0.973195985644,0.228611320884,0.0020253669858,-0.024946650641900003,0.0089057252235,0.0045950280427,0.0076122903964899995,-0.012286203296000001,-0.00886593496564,-0.00577422013653,1.62382209301,0.758516609669,4.6297678947400005,0.317171245813,0.9401483535770001,0.327546954155,541255,1522663409,12000000,,['r_gripper_l_finger_joint'],"(0.019983251598477365,)","(0.0,)","(0.0,)",1351328,1522663411,539263077,robotiq_force_torque_frame_id,-0.795999979973,-3.37500004768,0.359999084473,-0.019999999553,-0.187000006437,-0.129999995232,299.0,312.0,325.0,394.0,398.0,59.0,60.0,62.0,73.0,85.0,7,"(0.318305573199064, -0.815553406738067, 0.13814275757049982, 0.9999377972961768, -0.0043522273979007264, -0.009388168303921661, 0.004161964805750741)",-0.49000000953699996,-1.09000015258,0.06999969482500001,-0.006999999284800001,0.005999997258000017,0.010000005363999975
