time,.header.seq,.header.stamp.secs,.header.stamp.nsecs,.header.frame_id,.endpoint_state.header.seq,.endpoint_state.header.stamp.secs,.endpoint_state.header.stamp.nsecs,.endpoint_state.header.frame_id,.endpoint_state.pose.position.x,.endpoint_state.pose.position.y,.endpoint_state.pose.position.z,.endpoint_state.pose.orientation.x,.endpoint_state.pose.orientation.y,.endpoint_state.pose.orientation.z,.endpoint_state.pose.orientation.w,.endpoint_state.twist.linear.x,.endpoint_state.twist.linear.y,.endpoint_state.twist.linear.z,.endpoint_state.twist.angular.x,.endpoint_state.twist.angular.y,.endpoint_state.twist.angular.z,.endpoint_state.wrench.force.x,.endpoint_state.wrench.force.y,.endpoint_state.wrench.force.z,.endpoint_state.wrench.torque.x,.endpoint_state.wrench.torque.y,.endpoint_state.wrench.torque.z,.joint_state.header.seq,.joint_state.header.stamp.secs,.joint_state.header.stamp.nsecs,.joint_state.header.frame_id,.joint_state.name,.joint_state.position,.joint_state.velocity,.joint_state.effort,.wrench_stamped.header.seq,.wrench_stamped.header.stamp.secs,.wrench_stamped.header.stamp.nsecs,.wrench_stamped.header.frame_id,.wrench_stamped.wrench.force.x,.wrench_stamped.wrench.force.y,.wrench_stamped.wrench.force.z,.wrench_stamped.wrench.torque.x,.wrench_stamped.wrench.torque.y,.wrench_stamped.wrench.torque.z,.tactile_values.tactile_values_0,.tactile_values.tactile_values_1,.tactile_values.tactile_values_2,.tactile_values.tactile_values_3,.tactile_values.tactile_values_4,.tactile_values.tactile_values_5,.tactile_values.tactile_values_6,.tactile_values.tactile_values_7,.tactile_values.tactile_values_8,.tactile_values.tactile_values_9,.tag,.goal_vector,.delta_wrench.force.x,.delta_wrench.force.y,.delta_wrench.force.z,.delta_wrench.torque.x,.delta_wrench.torque.y,.delta_wrench.torque.z
1522084234.65,27766,1522055434,642668962,,949084,1522055431,961967647,,0.7992149631700001,-0.23847067715999998,0.065641538283,0.9959107226430001,0.07797263093489999,0.04440462434769999,0.010503841510700001,0.00731607154446,0.004096733116170001,0.0238513043787,-0.012059125158799998,-0.0304981202544,0.022337263634099998,3.03878068924,0.998692631721,7.4614906311,0.276267945766,1.72955942154,0.583685576916,375368,1522055431,953999872,,['r_gripper_l_finger_joint'],"(0.0015241464398801328,)","(0.0,)","(0.30215054750442505,)",413829,1522055434,632994130,robotiq_force_torque_frame_id,2.52200011909,-0.152999975719,8.4310005188,-0.12099999934399999,-0.153999999166,-0.122000001371,298.0,304.0,353.0,571.0,642.0,0.0,0.0,0.0,0.0,0.0,7,"(0.7999724687130445, -0.2345050012971506, 0.061690072776741864, 0.9957899307785925, 0.07960511548218283, 0.04477317085052532, 0.007797597131440185)",0.0,0.0,0.0,0.0,0.0,0.0
1522084234.69,27767,1522055434,652648925,,949084,1522055431,961967647,,0.7992149631700001,-0.23847067715999998,0.065641538283,0.9959107226430001,0.07797263093489999,0.04440462434769999,0.010503841510700001,0.00731607154446,0.004096733116170001,0.0238513043787,-0.012059125158799998,-0.0304981202544,0.022337263634099998,3.03878068924,0.998692631721,7.4614906311,0.276267945766,1.72955942154,0.583685576916,949481,1522055431,960076740,,"['head_nod', 'head_pan', 'left_e0', 'left_e1', 'left_s0', 'left_s1', 'left_w0', 'left_w1', 'left_w2', 'right_e0', 'right_e1', 'right_s0', 'right_s1', 'right_w0', 'right_w1', 'right_w2', 'torso_t0']","(0.0, -0.10200972239438001, -0.9146360447766779, 1.509437095279247, 0.28608741694062967, 0.6519418348513009, 2.3473741006616544, -0.476301034638421, -0.026461168591023387, 0.5499321124569209, 1.3391652278239663, 0.47821851062327775, -0.877820505867428, -0.40573791839569195, 1.1282428694897217, 0.13115535736420286, -12.565987119160338)","(0.0, -0.0023561944897503642, 0.003926990816250607, 0.01531526418337737, 0.013351768775252066, -0.006675884387626033, -0.00039269908162506076, -0.00039269908162506076, -0.0035342917346255468, -0.0007853981632501215, 0.008246680714126275, 0.009032078877376396, -0.04358959806038174, 0.0047123889795007284, 0.0019634954081253035, -0.012959069693627005, 0.0)","(0.0, 0.0, -14.62, 11.076, 0.124, 4.216, 0.06, -2.588, 0.344, 10.136, -18.26, 0.9, -33.248, -0.092, -0.56, -0.316, -20.48)",413830,1522055434,645200823,robotiq_force_torque_frame_id,3.55199985206,0.19700001087000002,8.291001129149999,-0.115999996662,-0.151999995112,-0.12099999934399999,298.0,304.0,353.0,571.0,642.0,0.0,0.0,0.0,0.0,0.0,7,"(0.7999724687130445, -0.2345050012971506, 0.061690072776741864, 0.9957899307785925, 0.07960511548218283, 0.04477317085052532, 0.007797597131440185)",1.02999973297,0.349999986589,-0.1399993896500007,0.005000002681999988,0.0020000040539999986,0.0010000020270000132
1522084234.69,27768,1522055434,662661075,,949085,1522055431,971997027,,0.799461837659,-0.237387648712,0.0655685814596,0.9958699053129999,0.07833572006589999,0.0447385445223,0.010252282079700002,0.00747357054653,0.00562884065912,0.016934746463,0.00473727433906,-0.024210839268799998,0.00649767254875,3.00788617134,1.14037108421,7.205796241760001,0.163965269923,1.72134423256,0.5502118468280001,949481,1522055431,960076740,,"['head_nod', 'head_pan', 'left_e0', 'left_e1', 'left_s0', 'left_s1', 'left_w0', 'left_w1', 'left_w2', 'right_e0', 'right_e1', 'right_s0', 'right_s1', 'right_w0', 'right_w1', 'right_w2', 'torso_t0']","(0.0, -0.10200972239438001, -0.9146360447766779, 1.509437095279247, 0.28608741694062967, 0.6519418348513009, 2.3473741006616544, -0.476301034638421, -0.026461168591023387, 0.5499321124569209, 1.3391652278239663, 0.47821851062327775, -0.877820505867428, -0.40573791839569195, 1.1282428694897217, 0.13115535736420286, -12.565987119160338)","(0.0, -0.0023561944897503642, 0.003926990816250607, 0.01531526418337737, 0.013351768775252066, -0.006675884387626033, -0.00039269908162506076, -0.00039269908162506076, -0.0035342917346255468, -0.0007853981632501215, 0.008246680714126275, 0.009032078877376396, -0.04358959806038174, 0.0047123889795007284, 0.0019634954081253035, -0.012959069693627005, 0.0)","(0.0, 0.0, -14.62, 11.076, 0.124, 4.216, 0.06, -2.588, 0.344, 10.136, -18.26, 0.9, -33.248, -0.092, -0.56, -0.316, -20.48)",413831,1522055434,653336795,robotiq_force_torque_frame_id,3.40200023353,0.937000027858,7.960999298099999,-0.142000004649,-0.133000001311,-0.127000004053,298.0,304.0,347.0,567.0,641.0,0.0,0.0,0.0,0.0,0.0,7,"(0.7999724687130445, -0.2345050012971506, 0.061690072776741864, 0.9957899307785925, 0.07960511548218283, 0.04477317085052532, 0.007797597131440185)",-0.14999961852999988,0.7400000169879999,-0.3300018310499997,-0.026000007987,0.01899999380099998,-0.006000004709000001
1522084234.69,27769,1522055434,672667026,,949086,1522055431,981971897,,0.800017863647,-0.238400949049,0.0661500741959,0.9958190830220001,0.0785138911417,0.0454242962789,0.0107961148136,0.032057135513200004,-0.0223129933177,0.0256678352181,-0.021611562186099997,-0.06997990203860001,-0.024002716217,3.0773203373,1.04557418823,7.100052356719999,0.306984752417,1.81318938732,0.596619606018,949483,1522055431,980022737,,"['head_nod', 'head_pan', 'left_e0', 'left_e1', 'left_s0', 'left_s1', 'left_w0', 'left_w1', 'left_w2', 'right_e0', 'right_e1', 'right_s0', 'right_s1', 'right_w0', 'right_w1', 'right_w2', 'torso_t0']","(0.0, -0.10200972239438001, -0.9154030351706206, 1.5086701048853044, 0.28608741694062967, 0.6527088252452435, 2.346990605464683, -0.47668452983539233, -0.026077673394052033, 0.5510825980478349, 1.3391652278239663, 0.4778350154263064, -0.8782040010643993, -0.40727189918357737, 1.1270923838988078, 0.13115535736420286, -12.565987119160338)","(0.0, 0.003141592653000486, -0.014922565101752308, 0.008639379795751335, -0.003141592653000486, 0.004319689897875668, 0.021991148571003403, 0.019242254999627974, 0.0, -0.014922565101752308, -0.024347343060753767, -0.005890486224375911, -0.027488935713754253, -0.01531526418337737, -0.02081305132612822, 0.0047123889795007284, 0.0)","(0.0, 0.0, -14.492, 11.044, 0.248, 4.184, 0.076, -2.628, 0.324, 10.168, -18.08, 0.932, -32.924, -0.056, -0.5, -0.316, -20.48)",413832,1522055434,665536508,robotiq_force_torque_frame_id,2.88199977577,0.337000011466,7.94099884033,-0.15000000596,-0.127000004053,-0.119999997318,301.0,312.0,347.0,575.0,641.0,0.0,0.0,0.0,0.0,0.0,7,"(0.7999724687130445, -0.2345050012971506, 0.061690072776741864, 0.9957899307785925, 0.07960511548218283, 0.04477317085052532, 0.007797597131440185)",-0.5200004577599997,-0.600000016392,-0.020000457769999258,-0.008000001310999982,0.005999997258000017,0.0070000067349999945
1522084234.69,27770,1522055434,682648897,,949087,1522055431,991983982,,0.800304044018,-0.238061529332,0.066136786063,0.9958629244120001,0.07794371702719999,0.0456054669449,0.0100972343549,0.031865228639500004,0.019226366368099997,0.0314003419946,0.011342291959,-0.08547126672360002,0.019853048146799997,3.33986544609,1.10003805161,6.77131748199,0.22238381207,1.8980637788799999,0.571197271347,949484,1522055431,990052029,,"['head_nod', 'head_pan', 'left_e0', 'left_e1', 'left_s0', 'left_s1', 'left_w0', 'left_w1', 'left_w2', 'right_e0', 'right_e1', 'right_s0', 'right_s1', 'right_w0', 'right_w1', 'right_w2', 'torso_t0']","(0.0, -0.1012427320004373, -0.9142525495797066, 1.5090536000822758, 0.28608741694062967, 0.6523253300482722, 2.3473741006616544, -0.4770680250323637, -0.026461168591023387, 0.5506991028508635, 1.3383982374300234, 0.4778350154263064, -0.877820505867428, -0.40573791839569195, 1.1267088887018364, 0.13115535736420286, -12.565987119160338)","(0.0, 0.0019634954081253035, 0.009817477040626518, -0.001570796326500243, -0.022383847652628464, 0.01021017612225158, -0.013351768775252066, -0.014137166938502187, -0.006283185306000972, 0.01060287520387664, -0.0019634954081253035, 0.011388273367126762, -0.04241150081550656, 0.005497787142750851, -0.04437499622363186, -0.0011780972448751821, 0.0)","(0.0, 0.0, -14.524, 11.044, 0.216, 4.216, 0.04, -2.616, 0.336, 10.04, -18.02, 0.964, -32.776, -0.064, -0.5, -0.316, -20.48)",413833,1522055434,673678424,robotiq_force_torque_frame_id,2.34199981391,0.44700001832099995,8.021000671389999,-0.162000000477,-0.129999995232,-0.11699999868899999,310.0,312.0,347.0,575.0,640.0,0.0,0.0,0.0,0.0,0.0,7,"(0.7999724687130445, -0.2345050012971506, 0.061690072776741864, 0.9957899307785925, 0.07960511548218283, 0.04477317085052532, 0.007797597131440185)",-0.5399999618600004,0.11000000685499994,0.08000183105999881,-0.011999994517000012,-0.0029999911790000167,0.0029999986290000086
1522084234.73,27771,1522055434,692601919,,949089,1522055432,11996732,,0.800048264093,-0.23807711841899998,0.0664352060311,0.995855565012,0.0780799782467,0.04544565948630001,0.0104834472206,0.00956814537138,-0.0036223225530000003,0.021037912443400003,-0.006749812155159999,-0.0271620775362,-0.0029805453558200004,3.01936125755,0.848573446274,6.37075185776,0.418113440275,1.7295571565599999,0.630802989006,949485,1522055432,47325,,"['head_nod', 'head_pan', 'left_e0', 'left_e1', 'left_s0', 'left_s1', 'left_w0', 'left_w1', 'left_w2', 'right_e0', 'right_e1', 'right_s0', 'right_s1', 'right_w0', 'right_w1', 'right_w2', 'torso_t0']","(0.0, -0.10200972239438001, -0.9150195399736493, 1.509437095279247, 0.286470912137601, 0.6523253300482722, 2.348141091055597, -0.4759175394414496, -0.02569417819708068, 0.5499321124569209, 1.3387817326269948, 0.4793689962141918, -0.8793544866553135, -0.40535442319872056, 1.1270923838988078, 0.13115535736420286, -12.565987119160338)","(0.0, -0.006675884387626033, -0.003141592653000486, 0.009817477040626518, -0.006283185306000972, -0.01767145867312773, 0.005497787142750851, 0.009424777959001457, 0.0035342917346255468, 0.028274333877004374, -0.029059732040254495, -0.01060287520387664, -0.03259402377488004, 0.02081305132612822, -0.0200276531628781, -0.005890486224375911, 0.0)","(0.0, 0.0, -14.652, 11.044, 0.152, 4.152, 0.068, -2.648, 0.324, 10.04, -17.932, 0.872, -32.688, -0.072, -0.488, -0.336, -20.48)",413834,1522055434,685874641,robotiq_force_torque_frame_id,2.3120000809400003,0.6770000075920001,7.89099960327,-0.136999994516,-0.112000003457,-0.123000003397,308.0,310.0,350.0,566.0,640.0,0.0,0.0,0.0,0.0,0.0,7,"(0.7999724687130445, -0.2345050012971506, 0.061690072776741864, 0.9957899307785925, 0.07960511548218283, 0.04477317085052532, 0.007797597131440185)",-0.02999973296999947,0.22999998927100013,-0.13000106811999856,0.025000005960999994,0.017999991775000015,-0.006000004708000009
1522084234.73,27772,1522055434,702658891,,949089,1522055432,11996732,,0.800048264093,-0.23807711841899998,0.0664352060311,0.995855565012,0.0780799782467,0.04544565948630001,0.0104834472206,0.00956814537138,-0.0036223225530000003,0.021037912443400003,-0.006749812155159999,-0.0271620775362,-0.0029805453558200004,3.01936125755,0.848573446274,6.37075185776,0.418113440275,1.7295571565599999,0.630802989006,949485,1522055432,47325,,"['head_nod', 'head_pan', 'left_e0', 'left_e1', 'left_s0', 'left_s1', 'left_w0', 'left_w1', 'left_w2', 'right_e0', 'right_e1', 'right_s0', 'right_s1', 'right_w0', 'right_w1', 'right_w2', 'torso_t0']","(0.0, -0.10200972239438001, -0.9150195399736493, 1.509437095279247, 0.286470912137601, 0.6523253300482722, 2.348141091055597, -0.4759175394414496, -0.02569417819708068, 0.5499321124569209, 1.3387817326269948, 0.4793689962141918, -0.8793544866553135, -0.40535442319872056, 1.1270923838988078, 0.13115535736420286, -12.565987119160338)","(0.0, -0.006675884387626033, -0.003141592653000486, 0.009817477040626518, -0.006283185306000972, -0.01767145867312773, 0.005497787142750851, 0.009424777959001457, 0.0035342917346255468, 0.028274333877004374, -0.029059732040254495, -0.01060287520387664, -0.03259402377488004, 0.02081305132612822, -0.0200276531628781, -0.005890486224375911, 0.0)","(0.0, 0.0, -14.652, 11.044, 0.152, 4.152, 0.068, -2.648, 0.324, 10.04, -17.932, 0.872, -32.688, -0.072, -0.488, -0.336, -20.48)",413836,1522055434,702190187,robotiq_force_torque_frame_id,2.7019999474299996,-1.09300000314,8.600998687739999,-0.0790000036359,-0.165000006557,-0.108999997377,308.0,313.0,350.0,566.0,640.0,0.0,0.0,0.0,0.0,0.0,7,"(0.7999724687130445, -0.2345050012971506, 0.061690072776741864, 0.9957899307785925, 0.07960511548218283, 0.04477317085052532, 0.007797597131440185)",0.3899998664899993,-1.7700000107320002,0.7099990844699988,0.05799999088010001,-0.05300000310000001,0.014000006019999997
1522084234.73,27773,1522055434,712651014,,949090,1522055432,21964143,,0.800379646374,-0.23737323807500002,0.0669303367337,0.995763228293,0.0789648701524,0.0459511529107,0.010422763931399999,0.0064288640490500005,-0.00505386081028,0.0149303088417,-0.0162322028621,-0.0146697047431,-0.00457466102625,3.37948298454,1.1153552532200002,6.22273159027,0.283630251884,1.88037216663,0.585018992424,949487,1522055432,20071786,,"['head_nod', 'head_pan', 'left_e0', 'left_e1', 'left_s0', 'left_s1', 'left_w0', 'left_w1', 'left_w2', 'right_e0', 'right_e1', 'right_s0', 'right_s1', 'right_w0', 'right_w1', 'right_w2', 'torso_t0']","(0.0, -0.10162622719740866, -0.9142525495797066, 1.5090536000822758, 0.28685440733457235, 0.6527088252452435, 2.3473741006616544, -0.47668452983539233, -0.025310683000109326, 0.5506991028508635, 1.3387817326269948, 0.4789855010172204, -0.8793544866553135, -0.40573791839569195, 1.1270923838988078, 0.13038836697026016, -12.565987119160338)","(0.0, 0.00510508806112579, 0.01060287520387664, 0.009817477040626518, 0.0007853981632501215, 0.00510508806112579, -0.013351768775252066, 0.014137166938502187, -0.00039269908162506076, -0.001570796326500243, -0.012173671530376884, 0.00510508806112579, -0.018064157754752792, -0.008246680714126275, 0.01649336142825255, 0.006675884387626033, 0.0)","(0.0, 0.0, -14.588, 11.044, 0.184, 4.184, 0.06, -2.616, 0.308, 10.04, -17.872, 0.964, -32.396, -0.04, -0.52, -0.308, -20.48)",413836,1522055434,702190187,robotiq_force_torque_frame_id,2.7019999474299996,-1.09300000314,8.600998687739999,-0.0790000036359,-0.165000006557,-0.108999997377,300.0,308.0,349.0,575.0,636.0,0.0,0.0,0.0,0.0,0.0,7,"(0.7999724687130445, -0.2345050012971506, 0.061690072776741864, 0.9957899307785925, 0.07960511548218283, 0.04477317085052532, 0.007797597131440185)",0.0,0.0,0.0,0.0,0.0,0.0
1522084234.73,27774,1522055434,722718000,,949091,1522055432,31968648,,0.8004662419399999,-0.237667605454,0.0669444200528,0.995759658051,0.0789225501757,0.0460234587493,0.010759912443799998,0.00445621721908,0.00706715119654,0.00407132405617,0.0111533387974,-0.0077578584206900005,0.00014825825813999998,3.4578673839599996,1.07933151722,6.05749320984,0.341662883759,1.91889250278,0.6382092237470001,949489,1522055432,40034740,,"['head_nod', 'head_pan', 'left_e0', 'left_e1', 'left_s0', 'left_s1', 'left_w0', 'left_w1', 'left_w2', 'right_e0', 'right_e1', 'right_s0', 'right_s1', 'right_w0', 'right_w1', 'right_w2', 'torso_t0']","(0.0, -0.10200972239438001, -0.9142525495797066, 1.5102040856731898, 0.28685440733457235, 0.6527088252452435, 2.3473741006616544, -0.476301034638421, -0.026077673394052033, 0.5510825980478349, 1.3383982374300234, 0.4786020058202491, -0.8793544866553135, -0.4061214135926633, 1.1270923838988078, 0.13153885256117423, -12.565987119160338)","(0.0, 0.0035342917346255468, 0.0027488935713754254, -0.0035342917346255468, 0.0035342917346255468, -0.0011780972448751821, 0.0011780972448751821, 0.0047123889795007284, -0.01727875959150267, -0.003926990816250607, 0.013351768775252066, -0.0027488935713754254, -0.028667032958629435, -0.003926990816250607, -0.029452431121879556, 0.03377212101975522, 0.0)","(0.0, 0.0, -14.524, 11.012, 0.092, 4.184, 0.04, -2.616, 0.336, 10.04, -17.812, 0.872, -32.164, -0.056, -0.46, -0.336, -20.48)",413838,1522055434,722532202,robotiq_force_torque_frame_id,2.01199989021,-0.703000017442,8.14099960327,-0.08500000089410001,-0.202000007033,-0.09000000357629999,300.0,308.0,349.0,570.0,636.0,0.0,0.0,0.0,0.0,0.0,7,"(0.7999724687130445, -0.2345050012971506, 0.061690072776741864, 0.9957899307785925, 0.07960511548218283, 0.04477317085052532, 0.007797597131440185)",-0.6900000572199998,0.389999985698,-0.4599990844699988,-0.00599999725820001,-0.037000000475999995,0.018999993800700013
1522084234.77,27775,1522055434,732686996,,949093,1522055432,51972758,,0.800727714913,-0.237037063618,0.0670926212248,0.9957822959579999,0.07849042084169999,0.046423743120499995,0.0100850863939,0.0156259140907,0.0222565721916,0.011742243017599999,0.005887408411919999,-0.0417665122427,0.0412603839715,3.7344944477099995,0.9708181619640001,5.99896240234,0.35693004727399996,2.1095995903,0.6202529668810001,375371,1522055432,48999936,,['l_gripper_l_finger_joint'],"(0.02083,)","(0.0,)","(0.0,)",413838,1522055434,722532202,robotiq_force_torque_frame_id,2.01199989021,-0.703000017442,8.14099960327,-0.08500000089410001,-0.202000007033,-0.09000000357629999,300.0,304.0,344.0,570.0,621.0,0.0,0.0,0.0,0.0,0.0,7,"(0.7999724687130445, -0.2345050012971506, 0.061690072776741864, 0.9957899307785925, 0.07960511548218283, 0.04477317085052532, 0.007797597131440185)",0.0,0.0,0.0,0.0,0.0,0.0
1522084234.77,27776,1522055434,742691040,,949093,1522055432,51972758,,0.800727714913,-0.237037063618,0.0670926212248,0.9957822959579999,0.07849042084169999,0.046423743120499995,0.0100850863939,0.0156259140907,0.0222565721916,0.011742243017599999,0.005887408411919999,-0.0417665122427,0.0412603839715,3.7344944477099995,0.9708181619640001,5.99896240234,0.35693004727399996,2.1095995903,0.6202529668810001,375372,1522055432,55000064,,['r_gripper_l_finger_joint'],"(0.0015241464398801328,)","(0.0,)","(0.30215054750442505,)",413839,1522055434,734735682,robotiq_force_torque_frame_id,2.37200002372,-0.902999945916,8.220997619630001,-0.097999997437,-0.19200000166900003,-0.10000000149,300.0,304.0,337.0,570.0,621.0,0.0,0.0,0.0,0.0,0.0,7,"(0.7999724687130445, -0.2345050012971506, 0.061690072776741864, 0.9957899307785925, 0.07960511548218283, 0.04477317085052532, 0.007797597131440185)",0.36000013351000026,-0.19999992847399994,0.07999801636000115,-0.012999996542899989,0.010000005363999975,-0.009999997913700015
1522084234.77,27777,1522055434,752676010,,949094,1522055432,61973506,,0.801128999507,-0.23736199381499998,0.0672678464858,0.995815277155,0.0778831867256,0.0466949249058,0.010282363452,0.020072538734099997,0.014537803908500001,0.00823766245846,-0.00609168775797,-0.047492790953,0.0373275450011,3.8951847553300003,0.94653648138,6.00407934189,0.38739335537,2.22102212906,0.634692788124,949491,1522055432,60067331,,"['head_nod', 'head_pan', 'left_e0', 'left_e1', 'left_s0', 'left_s1', 'left_w0', 'left_w1', 'left_w2', 'right_e0', 'right_e1', 'right_s0', 'right_s1', 'right_w0', 'right_w1', 'right_w2', 'torso_t0']","(0.0, -0.10239321759135137, -0.9146360447766779, 1.5105875808701612, 0.28685440733457235, 0.6527088252452435, 2.3489080814495398, -0.4759175394414496, -0.025310683000109326, 0.5506991028508635, 1.3380147422330522, 0.4789855010172204, -0.8793544866553135, -0.40573791839569195, 1.126325393504865, 0.13230584295511694, -12.565987119160338)","(0.0, 0.0007853981632501215, -0.01060287520387664, -0.014137166938502187, 0.006283185306000972, -0.0035342917346255468, 0.0019634954081253035, -0.02631083846887907, 0.024347343060753767, -0.007853981632501214, -0.0047123889795007284, 0.027096236632129192, -0.008639379795751335, -0.009032078877376396, -0.03573561642788053, -0.013351768775252066, 0.0)","(0.0, 0.0, -14.556, 10.98, 0.308, 4.216, 0.052, -2.58, 0.344, 10.008, -17.784, 0.84, -32.076, -0.048, -0.4, -0.316, -20.48)",413840,1522055434,742873571,robotiq_force_torque_frame_id,2.5020001381599997,-1.07300002221,8.4009979248,-0.097000002861,-0.19200000166900003,-0.12099999934399999,292.0,297.0,337.0,570.0,621.0,0.0,0.0,0.0,0.0,0.0,7,"(0.7999724687130445, -0.2345050012971506, 0.061690072776741864, 0.9957899307785925, 0.07960511548218283, 0.04477317085052532, 0.007797597131440185)",0.1300001144399996,-0.17000007629400005,0.1800003051699992,0.0009999945760000017,0.0,-0.020999997853999988
1522084234.77,27778,1522055434,762710094,,949095,1522055432,71973616,,0.800626941312,-0.237569182505,0.0673542776482,0.9958085620559999,0.0781062828465,0.046404681661700004,0.0105509163796,0.00994150223827,0.00376598443128,0.00398932121394,-0.00717615595738,-0.0224459204368,0.026972109337599998,3.4829022884400005,0.841809689999,6.0287566185,0.424795389175,2.04464316368,0.659213662148,949491,1522055432,60067331,,"['head_nod', 'head_pan', 'left_e0', 'left_e1', 'left_s0', 'left_s1', 'left_w0', 'left_w1', 'left_w2', 'right_e0', 'right_e1', 'right_s0', 'right_s1', 'right_w0', 'right_w1', 'right_w2', 'torso_t0']","(0.0, -0.10239321759135137, -0.9146360447766779, 1.5105875808701612, 0.28685440733457235, 0.6527088252452435, 2.3489080814495398, -0.4759175394414496, -0.025310683000109326, 0.5506991028508635, 1.3380147422330522, 0.4789855010172204, -0.8793544866553135, -0.40573791839569195, 1.126325393504865, 0.13230584295511694, -12.565987119160338)","(0.0, 0.0007853981632501215, -0.01060287520387664, -0.014137166938502187, 0.006283185306000972, -0.0035342917346255468, 0.0019634954081253035, -0.02631083846887907, 0.024347343060753767, -0.007853981632501214, -0.0047123889795007284, 0.027096236632129192, -0.008639379795751335, -0.009032078877376396, -0.03573561642788053, -0.013351768775252066, 0.0)","(0.0, 0.0, -14.556, 10.98, 0.308, 4.216, 0.052, -2.58, 0.344, 10.008, -17.784, 0.84, -32.076, -0.048, -0.4, -0.316, -20.48)",413841,1522055434,755109710,robotiq_force_torque_frame_id,2.47199992836,-0.502999969758,8.69099884033,-0.08900000154969999,-0.209000006318,-0.115999996662,296.0,297.0,343.0,566.0,625.0,0.0,0.0,0.0,0.0,0.0,7,"(0.7999724687130445, -0.2345050012971506, 0.061690072776741864, 0.9957899307785925, 0.07960511548218283, 0.04477317085052532, 0.007797597131440185)",-0.030000209799999844,0.570000052452,0.2900009155299994,0.008000001311300006,-0.017000004648999978,0.005000002681999988
1522084234.77,27779,1522055434,772658109,,949097,1522055432,91967514,,0.800936528027,-0.23689500219999998,0.0671276622412,0.995733849108,0.07897887718239999,0.0465484048171,0.0104730467586,-0.0110282378855,0.0018063127547699998,-0.0158542060729,0.0286787898134,0.027724428068400003,-0.0136026944443,3.2715382576,0.9933854341509999,5.77738142014,0.293625503778,1.87348902225,0.587155997753,949493,1522055432,80065269,,"['head_nod', 'head_pan', 'left_e0', 'left_e1', 'left_s0', 'left_s1', 'left_w0', 'left_w1', 'left_w2', 'right_e0', 'right_e1', 'right_s0', 'right_s1', 'right_w0', 'right_w1', 'right_w2', 'torso_t0']","(0.0, -0.10162622719740866, -0.9150195399736493, 1.5090536000822758, 0.28608741694062967, 0.6519418348513009, 2.346990605464683, -0.47553404424447826, -0.026461168591023387, 0.5514660932448062, 1.3387817326269948, 0.47821851062327775, -0.8789709914583421, -0.40573791839569195, 1.126325393504865, 0.13115535736420286, -12.565987119160338)","(0.0, 0.0023561944897503642, 0.01021017612225158, 0.021991148571003403, -0.012173671530376884, -0.009817477040626518, 0.0023561944897503642, -0.001570796326500243, -0.0019634954081253035, -0.0019634954081253035, -0.027096236632129192, -0.0047123889795007284, 0.0011780972448751821, 0.0, 0.006675884387626033, 0.00510508806112579, 0.0)","(0.0, 0.0, -14.46, 11.044, 0.28, 4.252, 0.068, -2.636, 0.336, 10.008, -17.664, 0.872, -32.104, -0.032, -0.408, -0.316, -20.48)",413842,1522055434,763250866,robotiq_force_torque_frame_id,1.66199998558,-1.5830000126700001,8.94099884033,-0.0619999989867,-0.211999997497,-0.101999998093,296.0,297.0,343.0,566.0,625.0,0.0,0.0,0.0,0.0,0.0,7,"(0.7999724687130445, -0.2345050012971506, 0.061690072776741864, 0.9957899307785925, 0.07960511548218283, 0.04477317085052532, 0.007797597131440185)",-0.8099999427799998,-1.0800000429120002,0.25,0.02700000256299999,-0.002999991178999989,0.013999998569
1522084234.78,27780,1522055434,782655000,,949098,1522055432,101963731,,0.8009475133149999,-0.237796233695,0.06684404046140001,0.99581597824,0.07800164033819999,0.04647214130419999,0.0103257769104,0.014433597523100002,0.0184402435701,0.0123807372886,0.00826609154485,-0.0374233076055,0.025016646868199998,3.4281513690900005,1.2550950050399998,5.74133014679,0.218172758818,1.8871138095900002,0.603474795818,949495,1522055432,100060164,,"['head_nod', 'head_pan', 'left_e0', 'left_e1', 'left_s0', 'left_s1', 'left_w0', 'left_w1', 'left_w2', 'right_e0', 'right_e1', 'right_s0', 'right_s1', 'right_w0', 'right_w1', 'right_w2', 'torso_t0']","(0.0, -0.10200972239438001, -0.9150195399736493, 1.5090536000822758, 0.286470912137601, 0.6523253300482722, 2.3477575958586256, -0.47553404424447826, -0.02569417819708068, 0.5503156076538922, 1.3383982374300234, 0.4786020058202491, -0.8789709914583421, -0.40573791839569195, 1.1259418983078937, 0.13153885256117423, -12.565987119160338)","(0.0, -0.0023561944897503642, -0.003926990816250607, -0.029845130203504617, 0.005497787142750851, -0.00510508806112579, -0.012959069693627005, -0.0200276531628781, 0.0070685834692510935, 0.004319689897875668, -0.003141592653000486, 0.01688606050987761, -0.014922565101752308, 0.0047123889795007284, -0.021598449489378342, -0.006675884387626033, 0.0)","(0.0, 0.0, -14.556, 11.044, 0.216, 4.216, 0.052, -2.648, 0.324, 10.04, -17.692, 1.088, -32.132, -0.048, -0.512, -0.336, -20.48)",413843,1522055434,775465668,robotiq_force_torque_frame_id,1.12200002372,-2.00299996976,9.00100021362,-0.0680000036955,-0.228000000119,-0.097000002861,301.0,306.0,340.0,559.0,628.0,0.0,0.0,0.0,0.0,0.0,7,"(0.7999724687130445, -0.2345050012971506, 0.061690072776741864, 0.9957899307785925, 0.07960511548218283, 0.04477317085052532, 0.007797597131440185)",-0.53999996186,-0.4199999570899997,0.06000137328999955,-0.006000004708799994,-0.01600000262200002,0.00499999523200001
1522084234.82,27781,1522055434,792642116,,949099,1522055432,111970677,,0.801497124889,-0.237168445249,0.0671520609637,0.995756401422,0.0784150406302,0.047118284852900004,0.0100068807853,0.0107175313125,0.026975942311200003,8.92204029194e-05,0.0222658241024,-0.0326741068367,0.025339981692400003,3.91114401817,1.39551997185,5.7103943824800005,0.140023499727,2.06807160378,0.568078637123,949496,1522055432,110038519,,"['head_nod', 'head_pan', 'left_e0', 'left_e1', 'left_s0', 'left_s1', 'left_w0', 'left_w1', 'left_w2', 'right_e0', 'right_e1', 'right_s0', 'right_s1', 'right_w0', 'right_w1', 'right_w2', 'torso_t0']","(0.0, -0.10162622719740866, -0.9146360447766779, 1.5098205904762185, 0.286470912137601, 0.6527088252452435, 2.348141091055597, -0.47668452983539233, -0.026461168591023387, 0.5510825980478349, 1.3380147422330522, 0.4786020058202491, -0.8789709914583421, -0.40573791839569195, 1.125174907913951, 0.13115535736420286, -12.565987119160338)","(0.0, -0.0027488935713754254, -0.003926990816250607, 0.008639379795751335, 0.003141592653000486, 0.005890486224375911, -0.006675884387626033, -0.018456856836377853, -0.018849555918002914, 0.010995574285501701, 0.013351768775252066, 0.014922565101752308, -0.001570796326500243, 0.005497787142750851, -0.04476769530525693, 0.0023561944897503642, 0.0)","(0.0, 0.0, -14.556, 11.14, 0.248, 4.216, 0.068, -2.608, 0.352, 10.04, -17.784, 1.152, -32.104, -0.048, -0.54, -0.316, -20.48)",413844,1522055434,783599889,robotiq_force_torque_frame_id,1.32200007141,-1.6629999363799999,8.86100082397,-0.06599999964240001,-0.228000000119,-0.103000000119,301.0,306.0,340.0,565.0,646.0,0.0,0.0,0.0,0.0,0.0,7,"(0.7999724687130445, -0.2345050012971506, 0.061690072776741864, 0.9957899307785925, 0.07960511548218283, 0.04477317085052532, 0.007797597131440185)",0.2000000476899999,0.34000003337999996,-0.13999938964999892,0.0020000040530999824,0.0,-0.005999997258000003
1522084234.82,27782,1522055434,802684068,,949100,1522055432,121986744,,0.8010686206290001,-0.236384258246,0.0669692984605,0.995727053725,0.0789262131402,0.0469129936418,0.00987210142348,0.035139653388699996,-0.016040788866299997,0.00405797311274,-0.000695176940381,-0.0843212550994,-0.0242952375598,4.1675071716300005,1.3095288276700001,5.83224010468,0.14025630056900001,2.14788103104,0.5466856956480001,949496,1522055432,110038519,,"['head_nod', 'head_pan', 'left_e0', 'left_e1', 'left_s0', 'left_s1', 'left_w0', 'left_w1', 'left_w2', 'right_e0', 'right_e1', 'right_s0', 'right_s1', 'right_w0', 'right_w1', 'right_w2', 'torso_t0']","(0.0, -0.10162622719740866, -0.9146360447766779, 1.5098205904762185, 0.286470912137601, 0.6527088252452435, 2.348141091055597, -0.47668452983539233, -0.026461168591023387, 0.5510825980478349, 1.3380147422330522, 0.4786020058202491, -0.8789709914583421, -0.40573791839569195, 1.125174907913951, 0.13115535736420286, -12.565987119160338)","(0.0, -0.0027488935713754254, -0.003926990816250607, 0.008639379795751335, 0.003141592653000486, 0.005890486224375911, -0.006675884387626033, -0.018456856836377853, -0.018849555918002914, 0.010995574285501701, 0.013351768775252066, 0.014922565101752308, -0.001570796326500243, 0.005497787142750851, -0.04476769530525693, 0.0023561944897503642, 0.0)","(0.0, 0.0, -14.556, 11.14, 0.248, 4.216, 0.068, -2.608, 0.352, 10.04, -17.784, 1.152, -32.104, -0.048, -0.54, -0.316, -20.48)",413845,1522055434,795811235,robotiq_force_torque_frame_id,1.7820001095500002,-1.8229999030000001,7.81099777222,-0.0780000016093,-0.211999997497,-0.10599999874800001,302.0,304.0,338.0,565.0,646.0,0.0,0.0,0.0,0.0,0.0,7,"(0.7999724687130445, -0.2345050012971506, 0.061690072776741864, 0.9957899307785925, 0.07960511548218283, 0.04477317085052532, 0.007797597131440185)",0.46000003814000023,-0.15999996662000027,-1.05000305175,-0.012000001966899987,0.01600000262200002,-0.0029999986290000086
1522084234.82,27783,1522055434,812688112,,949101,1522055432,131972225,,0.802103323185,-0.23693131827,0.0674088395305,0.995723664322,0.07835835985839999,0.04785387271000001,0.010215606509299998,0.00748713804167,0.035474457917999996,-0.00861849119497,0.0345709816204,-0.0308308849352,0.0482695524194,4.82734441757,1.33289217949,6.13919782639,0.17754286527600002,2.52880096436,0.567581653595,949496,1522055432,110038519,,"['head_nod', 'head_pan', 'left_e0', 'left_e1', 'left_s0', 'left_s1', 'left_w0', 'left_w1', 'left_w2', 'right_e0', 'right_e1', 'right_s0', 'right_s1', 'right_w0', 'right_w1', 'right_w2', 'torso_t0']","(0.0, -0.10162622719740866, -0.9146360447766779, 1.5098205904762185, 0.286470912137601, 0.6527088252452435, 2.348141091055597, -0.47668452983539233, -0.026461168591023387, 0.5510825980478349, 1.3380147422330522, 0.4786020058202491, -0.8789709914583421, -0.40573791839569195, 1.125174907913951, 0.13115535736420286, -12.565987119160338)","(0.0, -0.0027488935713754254, -0.003926990816250607, 0.008639379795751335, 0.003141592653000486, 0.005890486224375911, -0.006675884387626033, -0.018456856836377853, -0.018849555918002914, 0.010995574285501701, 0.013351768775252066, 0.014922565101752308, -0.001570796326500243, 0.005497787142750851, -0.04476769530525693, 0.0023561944897503642, 0.0)","(0.0, 0.0, -14.556, 11.14, 0.248, 4.216, 0.068, -2.608, 0.352, 10.04, -17.784, 1.152, -32.104, -0.048, -0.54, -0.316, -20.48)",413847,1522055434,812138992,robotiq_force_torque_frame_id,1.0620000809399999,-1.9130000555900002,7.44099884033,-0.104999996722,-0.156000003219,-0.107000000775,302.0,303.0,339.0,563.0,647.0,0.0,0.0,0.0,0.0,0.0,7,"(0.7999724687130445, -0.2345050012971506, 0.061690072776741864, 0.9957899307785925, 0.07960511548218283, 0.04477317085052532, 0.007797597131440185)",-0.7200000286100003,-0.09000015259000005,-0.36999893189000055,-0.0269999951127,0.05599999427799998,-0.0010000020269999993
1522084234.86,27784,1522055434,822663068,,949102,1522055432,141966883,,0.801344825187,-0.236311246435,0.06656157047809999,0.9957100166130001,0.0790082750672,0.047154641958599995,0.00978238360001,0.0188631483979,0.010947604985,-0.00322257029271,0.0168227036816,-0.0443658923375,0.00262807993761,4.998946189880001,1.28591418266,6.264341831209999,0.182306274772,2.62992572784,0.579594969749,949499,1522055432,140031923,,"['head_nod', 'head_pan', 'left_e0', 'left_e1', 'left_s0', 'left_s1', 'left_w0', 'left_w1', 'left_w2', 'right_e0', 'right_e1', 'right_s0', 'right_s1', 'right_w0', 'right_w1', 'right_w2', 'torso_t0']","(0.0, -0.10200972239438001, -0.9146360447766779, 1.5082866096883332, 0.286470912137601, 0.6527088252452435, 2.3473741006616544, -0.4759175394414496, -0.026461168591023387, 0.5510825980478349, 1.3391652278239663, 0.4793689962141918, -0.8785874962613707, -0.40573791839569195, 1.1236409271260657, 0.13115535736420286, -12.565987119160338)","(0.0, 0.0019634954081253035, 0.006283185306000972, -0.018849555918002914, -0.011388273367126762, 0.0007853981632501215, 0.004319689897875668, 0.014137166938502187, 0.0035342917346255468, 0.0027488935713754254, 0.004319689897875668, 0.0035342917346255468, 0.008639379795751335, -0.004319689897875668, -0.05733406591725887, 0.008246680714126275, 0.0)","(0.0, 0.0, -14.588, 11.044, 0.248, 4.216, 0.084, -2.616, 0.336, 10.008, -18.08, 1.056, -32.252, -0.04, -0.48, -0.324, -20.48)",413847,1522055434,812138992,robotiq_force_torque_frame_id,1.0620000809399999,-1.9130000555900002,7.44099884033,-0.104999996722,-0.156000003219,-0.107000000775,303.0,305.0,339.0,563.0,647.0,0.0,0.0,0.0,0.0,0.0,7,"(0.7999724687130445, -0.2345050012971506, 0.061690072776741864, 0.9957899307785925, 0.07960511548218283, 0.04477317085052532, 0.007797597131440185)",0.0,0.0,0.0,0.0,0.0,0.0
1522084234.86,27785,1522055434,832688093,,949103,1522055432,151962830,,0.8018550487170001,-0.236264584934,0.066861250947,0.99566453301,0.0791647305149,0.0477812419752,0.010101290166799998,0.0129276888834,0.00609616927958,-0.021684315326299997,0.009912653626299998,-0.0130456163255,-0.005620975540819999,4.45693778992,1.27198565006,6.59654426575,0.168985813856,2.46117186546,0.553223788738,949500,1522055432,150058102,,"['head_nod', 'head_pan', 'left_e0', 'left_e1', 'left_s0', 'left_s1', 'left_w0', 'left_w1', 'left_w2', 'right_e0', 'right_e1', 'right_s0', 'right_s1', 'right_w0', 'right_w1', 'right_w2', 'torso_t0']","(0.0, -0.10162622719740866, -0.9146360447766779, 1.5090536000822758, 0.28608741694062967, 0.6527088252452435, 2.3473741006616544, -0.476301034638421, -0.026461168591023387, 0.5510825980478349, 1.3391652278239663, 0.47975249141116316, -0.8789709914583421, -0.40650490878963463, 1.1228739367321228, 0.13153885256117423, -12.565987119160338)","(0.0, -0.014529866020127248, -0.01060287520387664, -0.009424777959001457, -0.008246680714126275, -0.02081305132612822, 0.006675884387626033, -0.011388273367126762, 0.00039269908162506076, -0.007853981632501214, -0.01610066234662749, 0.012566370612001944, 0.04673119071338223, -0.01610066234662749, -0.04162610265225644, 0.014137166938502187, 0.0)","(0.0, 0.0, -14.524, 11.108, 0.184, 4.216, 0.052, -2.636, 0.324, 10.04, -18.08, 1.028, -32.456, -0.048, -0.44, -0.296, -20.48)",413849,1522055434,832479416,robotiq_force_torque_frame_id,2.34199981391,-0.982999988832,8.220997619630001,-0.0710000023246,-0.128999993205,-0.097000002861,305.0,306.0,344.0,557.0,645.0,0.0,0.0,0.0,0.0,0.0,7,"(0.7999724687130445, -0.2345050012971506, 0.061690072776741864, 0.9957899307785925, 0.07960511548218283, 0.04477317085052532, 0.007797597131440185)",1.27999973297,0.9300000667580002,0.7799987793000014,0.033999994397399994,0.027000010014000014,0.009999997914000011
1522084234.86,27786,1522055434,842672109,,949104,1522055432,161971483,,0.801391722446,-0.23650934326499998,0.0663432555078,0.9957256122139999,0.0788194896107,0.0471624298532,0.0096797959416,-0.0248012257309,0.00526426427014,-0.035245753754099995,0.00741264054946,0.051920475014,0.006779218461439999,4.49715614319,1.17629110813,6.55964612961,0.138627514243,2.41872167587,0.547455012798,949501,1522055432,160045690,,"['head_nod', 'head_pan', 'left_e0', 'left_e1', 'left_s0', 'left_s1', 'left_w0', 'left_w1', 'left_w2', 'right_e0', 'right_e1', 'right_s0', 'right_s1', 'right_w0', 'right_w1', 'right_w2', 'torso_t0']","(0.0, -0.1012427320004373, -0.9146360447766779, 1.5086701048853044, 0.28685440733457235, 0.6523253300482722, 2.348141091055597, -0.476301034638421, -0.026461168591023387, 0.5510825980478349, 1.3391652278239663, 0.4789855010172204, -0.8782040010643993, -0.40573791839569195, 1.1232574319290942, 0.13115535736420286, -12.565987119160338)","(0.0, -0.006283185306000972, 0.009424777959001457, 0.008639379795751335, 0.0047123889795007284, 0.0019634954081253035, 0.013351768775252066, 0.015707963265002428, -0.007853981632501214, -0.014922565101752308, 0.03848450999925595, 0.007461282550876154, 0.03063052836675474, 0.007853981632501214, -0.018849555918002914, 0.0, 0.0)","(0.0, 0.0, -14.524, 11.076, 0.216, 4.216, 0.06, -2.636, 0.336, 9.884, -18.112, 0.996, -32.544, -0.056, -0.48, -0.324, -20.48)",413849,1522055434,832479416,robotiq_force_torque_frame_id,2.34199981391,-0.982999988832,8.220997619630001,-0.0710000023246,-0.128999993205,-0.097000002861,306.0,322.0,344.0,564.0,645.0,0.0,0.0,0.0,0.0,0.0,7,"(0.7999724687130445, -0.2345050012971506, 0.061690072776741864, 0.9957899307785925, 0.07960511548218283, 0.04477317085052532, 0.007797597131440185)",0.0,0.0,0.0,0.0,0.0,0.0
1522084234.86,27787,1522055434,852643013,,949105,1522055432,171976139,,0.8014289209350001,-0.236562369155,0.0664078537813,0.9957131663330001,0.0789903801941,0.047107698036699994,0.00983234526471,-0.005261767661060001,0.0038160536238400003,-0.0198162310504,0.0156554812079,0.0187388129615,-0.00191164190592,4.12561130524,0.985232591629,6.72671175003,0.26105222106,2.28440356255,0.58831256628,949501,1522055432,160045690,,"['head_nod', 'head_pan', 'left_e0', 'left_e1', 'left_s0', 'left_s1', 'left_w0', 'left_w1', 'left_w2', 'right_e0', 'right_e1', 'right_s0', 'right_s1', 'right_w0', 'right_w1', 'right_w2', 'torso_t0']","(0.0, -0.1012427320004373, -0.9146360447766779, 1.5086701048853044, 0.28685440733457235, 0.6523253300482722, 2.348141091055597, -0.476301034638421, -0.026461168591023387, 0.5510825980478349, 1.3391652278239663, 0.4789855010172204, -0.8782040010643993, -0.40573791839569195, 1.1232574319290942, 0.13115535736420286, -12.565987119160338)","(0.0, -0.006283185306000972, 0.009424777959001457, 0.008639379795751335, 0.0047123889795007284, 0.0019634954081253035, 0.013351768775252066, 0.015707963265002428, -0.007853981632501214, -0.014922565101752308, 0.03848450999925595, 0.007461282550876154, 0.03063052836675474, 0.007853981632501214, -0.018849555918002914, 0.0, 0.0)","(0.0, 0.0, -14.524, 11.076, 0.216, 4.216, 0.06, -2.636, 0.336, 9.884, -18.112, 0.996, -32.544, -0.056, -0.48, -0.324, -20.48)",413850,1522055434,844683390,robotiq_force_torque_frame_id,2.59199981391,-1.3829999649899998,8.86100082397,-0.0780000016093,-0.153999999166,-0.103000000119,301.0,322.0,341.0,564.0,647.0,0.0,0.0,0.0,0.0,0.0,7,"(0.7999724687130445, -0.2345050012971506, 0.061690072776741864, 0.9957899307785925, 0.07960511548218283, 0.04477317085052532, 0.007797597131440185)",0.25,-0.39999997615799976,0.6400032043399992,-0.0069999992846999926,-0.025000005960999994,-0.005999997258000003
1522084234.9,27788,1522055434,862663030,,949106,1522055432,181968517,,0.801002821465,-0.23531237847800002,0.0658967857671,0.995674147093,0.0796986664762,0.046767011597999994,0.00969339979954,-0.0036121076786100005,0.0189796435032,-0.00749710743609,0.00271437888649,0.0149448512454,0.041663927440800004,4.02937221527,1.01411819458,6.906493663789999,0.19367018342,2.24876999855,0.579008162022,949501,1522055432,160045690,,"['head_nod', 'head_pan', 'left_e0', 'left_e1', 'left_s0', 'left_s1', 'left_w0', 'left_w1', 'left_w2', 'right_e0', 'right_e1', 'right_s0', 'right_s1', 'right_w0', 'right_w1', 'right_w2', 'torso_t0']","(0.0, -0.1012427320004373, -0.9146360447766779, 1.5086701048853044, 0.28685440733457235, 0.6523253300482722, 2.348141091055597, -0.476301034638421, -0.026461168591023387, 0.5510825980478349, 1.3391652278239663, 0.4789855010172204, -0.8782040010643993, -0.40573791839569195, 1.1232574319290942, 0.13115535736420286, -12.565987119160338)","(0.0, -0.006283185306000972, 0.009424777959001457, 0.008639379795751335, 0.0047123889795007284, 0.0019634954081253035, 0.013351768775252066, 0.015707963265002428, -0.007853981632501214, -0.014922565101752308, 0.03848450999925595, 0.007461282550876154, 0.03063052836675474, 0.007853981632501214, -0.018849555918002914, 0.0, 0.0)","(0.0, 0.0, -14.524, 11.076, 0.216, 4.216, 0.06, -2.636, 0.336, 9.884, -18.112, 0.996, -32.544, -0.056, -0.48, -0.324, -20.48)",413851,1522055434,852817393,robotiq_force_torque_frame_id,1.66199998558,-0.742999979295,8.4310005188,-0.10400000214600001,-0.148000001907,-0.12099999934399999,301.0,315.0,342.0,577.0,656.0,0.0,0.0,0.0,0.0,0.0,7,"(0.7999724687130445, -0.2345050012971506, 0.061690072776741864, 0.9957899307785925, 0.07960511548218283, 0.04477317085052532, 0.007797597131440185)",-0.9299998283299997,0.6399999856949998,-0.430000305170001,-0.026000000536700013,0.005999997258999995,-0.017999999224999993
1522084234.9,27789,1522055434,872658014,,949107,1522055432,191977706,,0.8011321240770001,-0.235048274718,0.0660295487466,0.995689690449,0.07948243782610001,0.046875892145,0.009339868606549999,-0.011224898855,0.0210190029731,-0.0156440977426,-0.000672856939803,0.023292251648400004,0.029367866769599998,3.78163838387,0.872770905495,7.22213983536,0.322287112474,2.22059440613,0.613238692284,949504,1522055432,190048933,,"['head_nod', 'head_pan', 'left_e0', 'left_e1', 'left_s0', 'left_s1', 'left_w0', 'left_w1', 'left_w2', 'right_e0', 'right_e1', 'right_s0', 'right_s1', 'right_w0', 'right_w1', 'right_w2', 'torso_t0']","(0.0, -0.10162622719740866, -0.915786530367592, 1.509437095279247, 0.28608741694062967, 0.6519418348513009, 2.3477575958586256, -0.4759175394414496, -0.026077673394052033, 0.5506991028508635, 1.3391652278239663, 0.48090297700207724, -0.877820505867428, -0.4049709280017492, 1.1232574319290942, 0.13115535736420286, -12.565987119160338)","(0.0, 0.0047123889795007284, 0.01767145867312773, 0.011388273367126762, 0.012173671530376884, 0.0027488935713754254, 0.00510508806112579, -0.009032078877376396, 0.0035342917346255468, -0.0070685834692510935, 0.014529866020127248, 0.03180862561162992, 0.014922565101752308, -0.0007853981632501215, -0.005890486224375911, 0.0023561944897503642, 0.0)","(0.0, 0.0, -14.556, 11.044, 0.184, 4.152, 0.076, -2.636, 0.316, 10.072, -18.172, 0.776, -32.864, -0.1, -0.408, -0.308, -20.48)",413852,1522055434,865013555,robotiq_force_torque_frame_id,0.751999899745,-0.742999979295,8.07099990845,-0.151999995112,-0.179000005126,-0.131999999285,304.0,321.0,342.0,577.0,656.0,0.0,0.0,0.0,0.0,0.0,7,"(0.7999724687130445, -0.2345050012971506, 0.061690072776741864, 0.9957899307785925, 0.07960511548218283, 0.04477317085052532, 0.007797597131440185)",-0.910000085835,0.0,-0.3600006103499993,-0.04799999296599998,-0.03100000321900001,-0.01099999994100001
1522084234.9,27790,1522055434,882654905,,949108,1522055432,201982658,,0.8013850782790001,-0.236772032032,0.0658899799296,0.995735655011,0.0786836688952,0.0471247514508,0.00993193785864,-0.007110452942989999,0.00965898567081,-0.013694260940100001,0.0200465475567,0.009264845599100001,-0.00522065331425,4.40617799759,0.998551428318,7.43177986145,0.19899921119199998,2.5060186386099996,0.567244231701,949505,1522055432,200075106,,"['head_nod', 'head_pan', 'left_e0', 'left_e1', 'left_s0', 'left_s1', 'left_w0', 'left_w1', 'left_w2', 'right_e0', 'right_e1', 'right_s0', 'right_s1', 'right_w0', 'right_w1', 'right_w2', 'torso_t0']","(0.0, -0.10162622719740866, -0.9150195399736493, 1.509437095279247, 0.28723790253154374, 0.6527088252452435, 2.346990605464683, -0.4759175394414496, -0.026461168591023387, 0.5503156076538922, 1.3395487230209375, 0.4793689962141918, -0.877820505867428, -0.4061214135926633, 1.1224904415351515, 0.13153885256117423, -12.565987119160338)","(0.0, -0.003141592653000486, -0.012173671530376884, -0.0047123889795007284, 0.008639379795751335, -0.0023561944897503642, -0.0027488935713754254, 0.0019634954081253035, -0.007461282550876154, 0.004319689897875668, 0.024347343060753767, -0.0035342917346255468, 0.01021017612225158, 0.01021017612225158, -0.02591813938725401, 0.01060287520387664, 0.0)","(0.0, 0.0, -14.524, 11.044, 0.248, 4.252, 0.04, -2.608, 0.336, 9.944, -18.32, 0.872, -32.984, -0.084, -0.4, -0.324, -20.48)",413853,1522055434,873169755,robotiq_force_torque_frame_id,0.451999947429,-0.682999976911,7.9009979248,-0.159999996424,-0.18999999761599998,-0.12800000607999998,309.0,321.0,335.0,576.0,652.0,0.0,0.0,0.0,0.0,0.0,7,"(0.7999724687130445, -0.2345050012971506, 0.061690072776741864, 0.9957899307785925, 0.07960511548218283, 0.04477317085052532, 0.007797597131440185)",-0.299999952316,0.06000000238399994,-0.17000198364999974,-0.008000001312000016,-0.010999992489999971,0.003999993205000024
1522084234.9,27791,1522055434,892642974,,949109,1522055432,211968474,,0.8017666310930001,-0.23646479960900002,0.0661174014188,0.9956963902779999,0.0789522325396,0.0475366689416,0.009772843513270001,0.0137926579203,0.0098696778354,-0.00144775783897,0.00826294822877,-0.0279124742969,0.010752657106000001,4.7043819427499995,0.9318798184389999,7.58454084396,0.225112706423,2.69849014282,0.573964118958,949506,1522055432,210070781,,"['head_nod', 'head_pan', 'left_e0', 'left_e1', 'left_s0', 'left_s1', 'left_w0', 'left_w1', 'left_w2', 'right_e0', 'right_e1', 'right_s0', 'right_s1', 'right_w0', 'right_w1', 'right_w2', 'torso_t0']","(0.0, -0.10200972239438001, -0.9142525495797066, 1.509437095279247, 0.286470912137601, 0.6523253300482722, 2.3477575958586256, -0.47668452983539233, -0.02569417819708068, 0.5506991028508635, 1.3391652278239663, 0.4793689962141918, -0.877820505867428, -0.4061214135926633, 1.12210694633818, 0.13115535736420286, -12.565987119160338)","(0.0, 0.0, -0.014529866020127248, 0.01060287520387664, -0.008246680714126275, 0.004319689897875668, -0.018456856836377853, -0.02631083846887907, 0.01727875959150267, 0.006283185306000972, -0.007461282550876154, 0.006283185306000972, 0.011388273367126762, -0.009424777959001457, -0.029452431121879556, 0.0023561944897503642, 0.0)","(0.0, 0.0, -14.652, 11.044, 0.184, 4.252, 0.06, -2.608, 0.324, 9.944, -18.38, 0.808, -32.984, -0.092, -0.348, -0.316, -20.48)",413854,1522055434,885361968,robotiq_force_torque_frame_id,0.622000023723,-0.302999981679,7.870999145510001,-0.153999999166,-0.190999999642,-0.130999997258,309.0,334.0,335.0,575.0,652.0,0.0,0.0,0.0,0.0,0.0,7,"(0.7999724687130445, -0.2345050012971506, 0.061690072776741864, 0.9957899307785925, 0.07960511548218283, 0.04477317085052532, 0.007797597131440185)",0.170000076294,0.379999995232,-0.02999877928999961,0.005999997258000017,-0.0010000020260000353,-0.002999991178000011
1522084234.94,27792,1522055434,902666091,,949110,1522055432,221970733,,0.8015902174330001,-0.23707615780000002,0.0659775847457,0.9957596723909999,0.0782848649897,0.047259366678,0.0100352884463,-0.00198828207884,0.0123748431477,-0.0123024175759,0.015204034621700002,0.006653418354689999,0.0368185635323,4.51537370682,0.916738033295,7.73505926132,0.219178408384,2.61375212669,0.550425112247,949506,1522055432,210070781,,"['head_nod', 'head_pan', 'left_e0', 'left_e1', 'left_s0', 'left_s1', 'left_w0', 'left_w1', 'left_w2', 'right_e0', 'right_e1', 'right_s0', 'right_s1', 'right_w0', 'right_w1', 'right_w2', 'torso_t0']","(0.0, -0.10200972239438001, -0.9142525495797066, 1.509437095279247, 0.286470912137601, 0.6523253300482722, 2.3477575958586256, -0.47668452983539233, -0.02569417819708068, 0.5506991028508635, 1.3391652278239663, 0.4793689962141918, -0.877820505867428, -0.4061214135926633, 1.12210694633818, 0.13115535736420286, -12.565987119160338)","(0.0, 0.0, -0.014529866020127248, 0.01060287520387664, -0.008246680714126275, 0.004319689897875668, -0.018456856836377853, -0.02631083846887907, 0.01727875959150267, 0.006283185306000972, -0.007461282550876154, 0.006283185306000972, 0.011388273367126762, -0.009424777959001457, -0.029452431121879556, 0.0023561944897503642, 0.0)","(0.0, 0.0, -14.652, 11.044, 0.184, 4.252, 0.06, -2.608, 0.324, 9.944, -18.38, 0.808, -32.984, -0.092, -0.348, -0.316, -20.48)",413855,1522055434,893495710,robotiq_force_torque_frame_id,1.07200007141,-0.283000000753,8.030998992919999,-0.146999999881,-0.201000005007,-0.125,301.0,334.0,341.0,575.0,652.0,0.0,0.0,0.0,0.0,0.0,7,"(0.7999724687130445, -0.2345050012971506, 0.061690072776741864, 0.9957899307785925, 0.07960511548218283, 0.04477317085052532, 0.007797597131440185)",0.45000004768699997,0.01999998092599997,0.15999984740999817,0.006999999285000003,-0.010000005364999981,0.005999997257999989
1522084234.94,27793,1522055434,912636041,,949111,1522055432,231973129,,0.800989260656,-0.235322500047,0.065666619047,0.995714518141,0.07921427648030001,0.0468391489565,0.00915373638038,-0.00786546905225,0.025091048193200002,-0.00994920756693,0.019684904311400003,0.0180820232576,0.0310816564947,4.16151714325,0.7475690841670001,7.8612594604499995,0.29805719852400003,2.4444282054900004,0.598499536514,949506,1522055432,210070781,,"['head_nod', 'head_pan', 'left_e0', 'left_e1', 'left_s0', 'left_s1', 'left_w0', 'left_w1', 'left_w2', 'right_e0', 'right_e1', 'right_s0', 'right_s1', 'right_w0', 'right_w1', 'right_w2', 'torso_t0']","(0.0, -0.10200972239438001, -0.9142525495797066, 1.509437095279247, 0.286470912137601, 0.6523253300482722, 2.3477575958586256, -0.47668452983539233, -0.02569417819708068, 0.5506991028508635, 1.3391652278239663, 0.4793689962141918, -0.877820505867428, -0.4061214135926633, 1.12210694633818, 0.13115535736420286, -12.565987119160338)","(0.0, 0.0, -0.014529866020127248, 0.01060287520387664, -0.008246680714126275, 0.004319689897875668, -0.018456856836377853, -0.02631083846887907, 0.01727875959150267, 0.006283185306000972, -0.007461282550876154, 0.006283185306000972, 0.011388273367126762, -0.009424777959001457, -0.029452431121879556, 0.0023561944897503642, 0.0)","(0.0, 0.0, -14.652, 11.044, 0.184, 4.252, 0.06, -2.608, 0.324, 9.944, -18.38, 0.808, -32.984, -0.092, -0.348, -0.316, -20.48)",413856,1522055434,905695333,robotiq_force_torque_frame_id,1.21199993789,-0.422999986447,8.14099960327,-0.137999996543,-0.19799999892700001,-0.11500000208599999,301.0,316.0,330.0,574.0,641.0,0.0,0.0,0.0,0.0,0.0,7,"(0.7999724687130445, -0.2345050012971506, 0.061690072776741864, 0.9957899307785925, 0.07960511548218283, 0.04477317085052532, 0.007797597131440185)",0.13999986647999996,-0.13999998569399996,0.11000061035000108,0.009000003337999996,0.0030000060799999784,0.009999997914000011
1522084234.94,27794,1522055434,922631025,,949112,1522055432,241963286,,0.80121946213,-0.236510080909,0.065700418572,0.995766007112,0.0785130695582,0.046823721215900005,0.00965899168391,-0.0192789544092,0.0075513779588,-0.0169982329817,0.00422288741638,0.041813282964699994,0.01016362003,4.02996253967,0.618196070194,7.7480587959300005,0.40751534700400005,2.3425912857099997,0.625525474548,949509,1522055432,240020952,,"['head_nod', 'head_pan', 'left_e0', 'left_e1', 'left_s0', 'left_s1', 'left_w0', 'left_w1', 'left_w2', 'right_e0', 'right_e1', 'right_s0', 'right_s1', 'right_w0', 'right_w1', 'right_w2', 'torso_t0']","(0.0, -0.10200972239438001, -0.9154030351706206, 1.5086701048853044, 0.286470912137601, 0.6523253300482722, 2.3473741006616544, -0.476301034638421, -0.02684466378799474, 0.5499321124569209, 1.3391652278239663, 0.47975249141116316, -0.8774370106704567, -0.40535442319872056, 1.1228739367321228, 0.13153885256117423, -12.565987119160338)","(0.0, -0.006283185306000972, 0.0007853981632501215, -0.013744467856877126, -0.011388273367126762, 0.0027488935713754254, 0.0035342917346255468, 0.0011780972448751821, 0.001570796326500243, -0.0007853981632501215, 0.01727875959150267, 0.006283185306000972, 0.01531526418337737, 0.005890486224375911, 0.009817477040626518, -0.0011780972448751821, 0.0)","(0.0, 0.0, -14.62, 11.076, 0.216, 4.152, 0.068, -2.616, 0.344, 9.976, -18.412, 0.62, -33.188, -0.108, -0.42, -0.324, -20.48)",413858,1522055434,921969420,robotiq_force_torque_frame_id,0.691999956965,-0.142999985255,7.8309982299800005,-0.159999996424,-0.179000005126,-0.10800000280099999,299.0,316.0,330.0,574.0,641.0,0.0,0.0,0.0,0.0,0.0,7,"(0.7999724687130445, -0.2345050012971506, 0.061690072776741864, 0.9957899307785925, 0.07960511548218283, 0.04477317085052532, 0.007797597131440185)",-0.5199999809249999,0.28000000119199997,-0.31000137328999955,-0.021999999881000015,0.01899999380100001,0.006999999285000003
1522084234.94,27795,1522055434,932671070,,949113,1522055432,251968447,,0.8004510135259999,-0.23575970218800002,0.06502965211469999,0.9957651119840001,0.0789990364766,0.046054159906199994,0.0094872728595,-0.021483155344500002,-0.00878746685216,-0.019331017492,-0.025408799237599998,0.0542842276819,-0.00616668710352,3.7310473918900002,0.620222210884,7.851020812989999,0.41143143177,2.18477988243,0.612002849579,949510,1522055432,250080027,,"['head_nod', 'head_pan', 'left_e0', 'left_e1', 'left_s0', 'left_s1', 'left_w0', 'left_w1', 'left_w2', 'right_e0', 'right_e1', 'right_s0', 'right_s1', 'right_w0', 'right_w1', 'right_w2', 'torso_t0']","(0.0, -0.10200972239438001, -0.9150195399736493, 1.5082866096883332, 0.28685440733457235, 0.6515583396543295, 2.3473741006616544, -0.476301034638421, -0.026077673394052033, 0.5506991028508635, 1.339932218217909, 0.4801359866081345, -0.876670020276514, -0.40573791839569195, 1.1232574319290942, 0.13192234775814557, -12.565987119160338)","(0.0, 0.012959069693627005, 0.023169245815878585, -0.02042035224450316, -0.012566370612001944, 0.0, -0.0023561944897503642, 0.014529866020127248, -0.012959069693627005, -0.027881634795379313, 0.006283185306000972, 0.02042035224450316, 0.01767145867312773, -0.005890486224375911, 0.029059732040254495, 0.008246680714126275, 0.0)","(0.0, 0.0, -14.652, 11.044, 0.216, 4.252, 0.06, -2.636, 0.352, 10.008, -18.412, 0.62, -33.304, -0.092, -0.448, -0.316, -20.48)",413858,1522055434,921969420,robotiq_force_torque_frame_id,0.691999956965,-0.142999985255,7.8309982299800005,-0.159999996424,-0.179000005126,-0.10800000280099999,299.0,322.0,330.0,569.0,644.0,0.0,0.0,0.0,0.0,0.0,7,"(0.7999724687130445, -0.2345050012971506, 0.061690072776741864, 0.9957899307785925, 0.07960511548218283, 0.04477317085052532, 0.007797597131440185)",0.0,0.0,0.0,0.0,0.0,0.0
1522084234.98,27796,1522055434,942645072,,949114,1522055432,261977565,,0.801292297364,-0.235157260718,0.06560574756580001,0.9956567259389999,0.0798271834795,0.04696370257830001,0.0094718272414,-0.007421520651220001,0.00636230105539,0.007267297236790001,-0.000815001695115,0.020578984785,-0.008974796765299999,3.80141854286,0.8530910015109999,7.86518335342,0.259542196989,2.20136785507,0.574682056904,949511,1522055432,260040925,,"['head_nod', 'head_pan', 'left_e0', 'left_e1', 'left_s0', 'left_s1', 'left_w0', 'left_w1', 'left_w2', 'right_e0', 'right_e1', 'right_s0', 'right_s1', 'right_w0', 'right_w1', 'right_w2', 'torso_t0']","(0.0, -0.10162622719740866, -0.9146360447766779, 1.5090536000822758, 0.28608741694062967, 0.6519418348513009, 2.3489080814495398, -0.4759175394414496, -0.026077673394052033, 0.5506991028508635, 1.3391652278239663, 0.48090297700207724, -0.8770535154734853, -0.40573791839569195, 1.1224904415351515, 0.13077186216723152, -12.565987119160338)","(0.0, -0.001570796326500243, 0.014529866020127248, -0.01060287520387664, 0.006675884387626033, -0.001570796326500243, -0.012566370612001944, 0.03573561642788053, 0.011780972448751823, -0.006675884387626033, -0.014137166938502187, 0.01610066234662749, -0.008639379795751335, 0.015707963265002428, 0.03848450999925595, 0.008246680714126275, 0.0)","(0.0, 0.0, -14.62, 11.108, 0.184, 4.152, 0.06, -2.648, 0.316, 10.008, -18.44, 0.776, -33.364, -0.1, -0.468, -0.316, -20.48)",413860,1522055434,942330132,robotiq_force_torque_frame_id,1.49199990928,0.987000039779,8.06099777222,-0.152999997139,-0.16099999845000001,-0.14499999582800002,304.0,319.0,330.0,569.0,644.0,0.0,0.0,0.0,0.0,0.0,7,"(0.7999724687130445, -0.2345050012971506, 0.061690072776741864, 0.9957899307785925, 0.07960511548218283, 0.04477317085052532, 0.007797597131440185)",0.799999952315,1.1300000250339999,0.22999954223999985,0.006999999285000003,0.01800000667599999,-0.036999993027000036
1522084234.98,27797,1522055434,952656984,,949115,1522055432,271981189,,0.800620636832,-0.234883462207,0.06527848330989999,0.9957052068510001,0.079616706091,0.0463483022175,0.00917366025501,-0.0184361770885,0.041025182871900004,-0.012149059449200002,0.0181352768796,0.0366996753099,0.058921246056699995,3.94083786011,0.573132753372,7.9840583801300005,0.42688435316100004,2.24928236008,0.614495456219,949511,1522055432,260040925,,"['head_nod', 'head_pan', 'left_e0', 'left_e1', 'left_s0', 'left_s1', 'left_w0', 'left_w1', 'left_w2', 'right_e0', 'right_e1', 'right_s0', 'right_s1', 'right_w0', 'right_w1', 'right_w2', 'torso_t0']","(0.0, -0.10162622719740866, -0.9146360447766779, 1.5090536000822758, 0.28608741694062967, 0.6519418348513009, 2.3489080814495398, -0.4759175394414496, -0.026077673394052033, 0.5506991028508635, 1.3391652278239663, 0.48090297700207724, -0.8770535154734853, -0.40573791839569195, 1.1224904415351515, 0.13077186216723152, -12.565987119160338)","(0.0, -0.001570796326500243, 0.014529866020127248, -0.01060287520387664, 0.006675884387626033, -0.001570796326500243, -0.012566370612001944, 0.03573561642788053, 0.011780972448751823, -0.006675884387626033, -0.014137166938502187, 0.01610066234662749, -0.008639379795751335, 0.015707963265002428, 0.03848450999925595, 0.008246680714126275, 0.0)","(0.0, 0.0, -14.62, 11.108, 0.184, 4.152, 0.06, -2.648, 0.316, 10.008, -18.44, 0.776, -33.364, -0.1, -0.468, -0.316, -20.48)",413860,1522055434,942330132,robotiq_force_torque_frame_id,1.49199990928,0.987000039779,8.06099777222,-0.152999997139,-0.16099999845000001,-0.14499999582800002,301.0,319.0,326.0,569.0,639.0,0.0,0.0,0.0,0.0,0.0,7,"(0.7999724687130445, -0.2345050012971506, 0.061690072776741864, 0.9957899307785925, 0.07960511548218283, 0.04477317085052532, 0.007797597131440185)",0.0,0.0,0.0,0.0,0.0,0.0
