time,.header.seq,.header.stamp.secs,.header.stamp.nsecs,.header.frame_id,.endpoint_state.header.seq,.endpoint_state.header.stamp.secs,.endpoint_state.header.stamp.nsecs,.endpoint_state.header.frame_id,.endpoint_state.pose.position.x,.endpoint_state.pose.position.y,.endpoint_state.pose.position.z,.endpoint_state.pose.orientation.x,.endpoint_state.pose.orientation.y,.endpoint_state.pose.orientation.z,.endpoint_state.pose.orientation.w,.endpoint_state.twist.linear.x,.endpoint_state.twist.linear.y,.endpoint_state.twist.linear.z,.endpoint_state.twist.angular.x,.endpoint_state.twist.angular.y,.endpoint_state.twist.angular.z,.endpoint_state.wrench.force.x,.endpoint_state.wrench.force.y,.endpoint_state.wrench.force.z,.endpoint_state.wrench.torque.x,.endpoint_state.wrench.torque.y,.endpoint_state.wrench.torque.z,.joint_state.header.seq,.joint_state.header.stamp.secs,.joint_state.header.stamp.nsecs,.joint_state.header.frame_id,.joint_state.name,.joint_state.position,.joint_state.velocity,.joint_state.effort,.wrench_stamped.header.seq,.wrench_stamped.header.stamp.secs,.wrench_stamped.header.stamp.nsecs,.wrench_stamped.header.frame_id,.wrench_stamped.wrench.force.x,.wrench_stamped.wrench.force.y,.wrench_stamped.wrench.force.z,.wrench_stamped.wrench.torque.x,.wrench_stamped.wrench.torque.y,.wrench_stamped.wrench.torque.z,.tactile_values.tactile_values_0,.tactile_values.tactile_values_1,.tactile_values.tactile_values_2,.tactile_values.tactile_values_3,.tactile_values.tactile_values_4,.tactile_values.tactile_values_5,.tactile_values.tactile_values_6,.tactile_values.tactile_values_7,.tactile_values.tactile_values_8,.tactile_values.tactile_values_9,.tag,.goal_vector,.delta_wrench.force.x,.delta_wrench.force.y,.delta_wrench.force.z,.delta_wrench.torque.x,.delta_wrench.torque.y,.delta_wrench.torque.z
1522690949.93,24446,1522662149,928756952,,1242437,1522662147,407303144,,0.663631433061,-0.149170220051,0.10252081836100001,-0.038488225862699996,0.998701614456,-0.011369969802899999,0.0313761938344,-0.019126557195299997,0.0014746828066300002,-0.00849608794442,-0.0114955356092,0.041193315020199996,0.0145732749449,3.4010360240900006,2.06147265434,13.888886451700001,-0.38792604208000003,1.5646399259600001,0.164321348071,1242787,1522662147,405388184,,"['head_nod', 'head_pan', 'left_e0', 'left_e1', 'left_s0', 'left_s1', 'left_w0', 'left_w1', 'left_w2', 'right_e0', 'right_e1', 'right_s0', 'right_s1', 'right_w0', 'right_w1', 'right_w2', 'torso_t0']","(0.0, -0.1012427320004373, -0.9069661408372509, 1.5021506865367915, 0.2784175130012026, 0.6442719309118737, 2.341621672707084, -0.48742239535059023, -0.03298058693953639, 0.5944175553055978, 1.7069371217194942, 0.5572185211993765, -1.0826069410501307, -0.36393694192581444, 0.9963205217315763, 0.42529617344123094, -12.565987119160338)","(0.0, -0.009424777959001457, -0.003141592653000486, 0.0007853981632501215, 0.00510508806112579, -0.011780972448751823, 0.0023561944897503642, -0.001570796326500243, -0.0007853981632501215, -0.00039269908162506076, 0.013351768775252066, 0.009817477040626518, 0.007461282550876154, 0.003141592653000486, 0.023169245815878585, -0.004319689897875668, 0.0)","(0.0, 0.0, -14.556, 10.916, 0.436, 4.968, 0.084, -2.684, 0.352, 7.712, -17.184, 0.716, -28.908, -0.14, -0.148, -0.008, -20.48)",1225302,1522662149,921467894,robotiq_force_torque_frame_id,0.512000179291,-0.025,9.79999771118,-0.0219999998808,-0.26699998974800004,-0.10800000280099999,449.0,454.0,472.0,578.0,579.0,484.0,490.0,618.0,646.0,721.0,7,"(0.2483205643413036, -0.8149386625515546, 0.13945448344290956, 0.9999377972961767, -0.004352227397899998, -0.009388168303920898, 0.004161964805750869)",0.0,0.0,0.0,0.0,0.0,0.0
1522690949.94,24447,1522662149,938877105,,1242437,1522662147,407303144,,0.663631433061,-0.149170220051,0.10252081836100001,-0.038488225862699996,0.998701614456,-0.011369969802899999,0.0313761938344,-0.019126557195299997,0.0014746828066300002,-0.00849608794442,-0.0114955356092,0.041193315020199996,0.0145732749449,3.4010360240900006,2.06147265434,13.888886451700001,-0.38792604208000003,1.5646399259600001,0.164321348071,491346,1522662147,406000128,,['r_gripper_l_finger_joint'],"(0.004809528524428606,)","(0.0,)","(0.3096774220466614,)",1225303,1522662149,929696602,robotiq_force_torque_frame_id,0.771999931335,0.395000076294,9.58000030518,-0.0320000015199,-0.26100000739100004,-0.107000000775,452.0,453.0,472.0,568.0,592.0,484.0,490.0,618.0,646.0,721.0,7,"(0.2483205643413036, -0.8149386625515546, 0.13945448344290956, 0.9999377972961767, -0.004352227397899998, -0.009388168303920898, 0.004161964805750869)",0.25999975204400005,0.42000007629400005,-0.21999740599999917,-0.010000001639099997,0.005999982357,0.0010000020259999798
1522690949.95,24448,1522662149,948709964,,1242440,1522662147,437297510,,0.66356175481,-0.149017290052,0.102409594592,-0.0390298965795,0.9986772941419999,-0.011480437355799998,0.0314408793867,-0.0128021710152,-0.00404295636168,-0.00275176984046,-0.0156714814194,0.0241722163546,-0.0102544516291,3.96008872986,2.159938097,13.9147281647,-0.380999714136,1.7373163700099998,0.171447753906,1242790,1522662147,435414241,,"['head_nod', 'head_pan', 'left_e0', 'left_e1', 'left_s0', 'left_s1', 'left_w0', 'left_w1', 'left_w2', 'right_e0', 'right_e1', 'right_s0', 'right_s1', 'right_w0', 'right_w1', 'right_w2', 'torso_t0']","(0.0, -0.1004757416064946, -0.9065826456402796, 1.5010002009458774, 0.27880100819817394, 0.6450389213058165, 2.341621672707084, -0.48742239535059023, -0.03259709174256504, 0.5944175553055978, 1.7073206169164654, 0.5576020163963479, -1.0826069410501307, -0.3643204371227858, 0.9959370265346049, 0.4249126782442596, -12.565987119160338)","(0.0, -0.0007853981632501215, 0.011780972448751823, -0.008639379795751335, 0.0007853981632501215, -0.006283185306000972, 0.008639379795751335, -0.0200276531628781, 0.006283185306000972, 0.0011780972448751821, 0.012173671530376884, 0.0027488935713754254, -0.0027488935713754254, -0.004319689897875668, 0.02042035224450316, 0.018456856836377853, 0.0)","(0.0, 0.0, -14.556, 10.948, 0.34, 5.004, 0.104, -2.648, 0.324, 7.772, -17.364, 0.684, -28.88, -0.168, -0.2, 0.008, -20.48)",1225304,1522662149,941923110,robotiq_force_torque_frame_id,0.8519998550419999,0.7050000190729999,9.58999862671,-0.0619999989867,-0.237000003457,-0.10400000214600001,452.0,453.0,469.0,568.0,592.0,477.0,490.0,623.0,639.0,721.0,7,"(0.2483205643413036, -0.8149386625515546, 0.13945448344290956, 0.9999377972961767, -0.004352227397899998, -0.009388168303920898, 0.004161964805750869)",0.07999992370699993,0.3099999427789999,0.009998321530000354,-0.029999997466800002,0.024000003934000036,0.0029999986289999947
1522690949.96,24449,1522662149,958949089,,1242440,1522662147,437297510,,0.66356175481,-0.149017290052,0.102409594592,-0.0390298965795,0.9986772941419999,-0.011480437355799998,0.0314408793867,-0.0128021710152,-0.00404295636168,-0.00275176984046,-0.0156714814194,0.0241722163546,-0.0102544516291,3.96008872986,2.159938097,13.9147281647,-0.380999714136,1.7373163700099998,0.171447753906,1242790,1522662147,435414241,,"['head_nod', 'head_pan', 'left_e0', 'left_e1', 'left_s0', 'left_s1', 'left_w0', 'left_w1', 'left_w2', 'right_e0', 'right_e1', 'right_s0', 'right_s1', 'right_w0', 'right_w1', 'right_w2', 'torso_t0']","(0.0, -0.1004757416064946, -0.9065826456402796, 1.5010002009458774, 0.27880100819817394, 0.6450389213058165, 2.341621672707084, -0.48742239535059023, -0.03259709174256504, 0.5944175553055978, 1.7073206169164654, 0.5576020163963479, -1.0826069410501307, -0.3643204371227858, 0.9959370265346049, 0.4249126782442596, -12.565987119160338)","(0.0, -0.0007853981632501215, 0.011780972448751823, -0.008639379795751335, 0.0007853981632501215, -0.006283185306000972, 0.008639379795751335, -0.0200276531628781, 0.006283185306000972, 0.0011780972448751821, 0.012173671530376884, 0.0027488935713754254, -0.0027488935713754254, -0.004319689897875668, 0.02042035224450316, 0.018456856836377853, 0.0)","(0.0, 0.0, -14.556, 10.948, 0.34, 5.004, 0.104, -2.648, 0.324, 7.772, -17.364, 0.684, -28.88, -0.168, -0.2, 0.008, -20.48)",1225305,1522662149,950063684,robotiq_force_torque_frame_id,0.911999797821,0.8850000858310001,9.51999893188,-0.0930000022054,-0.21099999547000003,-0.11100000143100001,453.0,454.0,467.0,560.0,588.0,477.0,490.0,626.0,638.0,718.0,7,"(0.2483205643413036, -0.8149386625515546, 0.13945448344290956, 0.9999377972961767, -0.004352227397899998, -0.009388168303920898, 0.004161964805750869)",0.059999942779000115,0.18000006675800018,-0.06999969483000079,-0.0310000032187,0.026000007986999973,-0.006999999285000003
1522690950.0,24450,1522662149,968720912,,1242440,1522662147,437297510,,0.66356175481,-0.149017290052,0.102409594592,-0.0390298965795,0.9986772941419999,-0.011480437355799998,0.0314408793867,-0.0128021710152,-0.00404295636168,-0.00275176984046,-0.0156714814194,0.0241722163546,-0.0102544516291,3.96008872986,2.159938097,13.9147281647,-0.380999714136,1.7373163700099998,0.171447753906,491347,1522662147,451000064,,['l_gripper_l_finger_joint'],"(0.0032494800670444966,)","(0.0,)","(0.0,)",1225306,1522662149,962351418,robotiq_force_torque_frame_id,0.512000179291,1.63499996662,9.47999801636,-0.12099999934399999,-0.188999995589,-0.12800000607999998,449.0,455.0,467.0,560.0,585.0,494.0,495.0,626.0,638.0,727.0,7,"(0.2483205643413036, -0.8149386625515546, 0.13945448344290956, 0.9999377972961767, -0.004352227397899998, -0.009388168303920898, 0.004161964805750869)",-0.3999996185300001,0.7499998807889998,-0.04000091552000029,-0.02799999713859999,0.021999999881000043,-0.017000004648999964
1522690950.0,24451,1522662149,978723049,,1242442,1522662147,457298440,,0.663443171585,-0.149436740641,0.102353647622,-0.0385673216855,0.998703298919,-0.0115164962019,0.0311713448741,-0.0133070112453,-0.00383107696839,-0.00688377185135,-0.00108758998605,0.0311638431574,-0.004017328255219999,3.95070552826,2.11908698082,13.901275634800001,-0.42781242728200003,1.67019295692,0.16435790062,1242793,1522662147,465410541,,"['head_nod', 'head_pan', 'left_e0', 'left_e1', 'left_s0', 'left_s1', 'left_w0', 'left_w1', 'left_w2', 'right_e0', 'right_e1', 'right_s0', 'right_s1', 'right_w0', 'right_w1', 'right_w2', 'torso_t0']","(0.0, -0.1012427320004373, -0.9065826456402796, 1.5021506865367915, 0.2784175130012026, 0.6446554261088451, 2.3408546823131413, -0.4881893857445329, -0.03259709174256504, 0.5951845456995405, 1.7073206169164654, 0.5568350260024052, -1.0833739314440736, -0.3643204371227858, 0.9959370265346049, 0.4249126782442596, -12.565987119160338)","(0.0, 0.0007853981632501215, -0.012566370612001944, 0.010995574285501701, -0.024347343060753767, 0.00039269908162506076, -0.0011780972448751821, 0.007461282550876154, -0.0011780972448751821, -0.011388273367126762, -0.01060287520387664, 0.02042035224450316, 0.0023561944897503642, 0.018849555918002914, -0.0047123889795007284, 0.015707963265002428, 0.0)","(0.0, 0.0, -14.62, 10.916, 0.496, 5.1, 0.096, -2.664, 0.316, 7.744, -17.364, 0.684, -28.908, -0.224, -0.248, 0.008, -20.48)",1225307,1522662149,970495914,robotiq_force_torque_frame_id,-0.518000030518,1.57500002384,9.44999923706,-0.127000004053,-0.152999997139,-0.109999999404,449.0,455.0,465.0,565.0,585.0,494.0,516.0,629.0,644.0,727.0,7,"(0.2483205643413036, -0.8149386625515546, 0.13945448344290956, 0.9999377972961767, -0.004352227397899998, -0.009388168303920898, 0.004161964805750869)",-1.030000209809,-0.05999994277999998,-0.02999877929999961,-0.006000004709000001,0.03599999844999999,0.018000006675999977
1522690950.0,24452,1522662149,988713026,,1242444,1522662147,477294081,,0.663274002966,-0.14939345849400001,0.102427230161,-0.0384123192697,0.99871803455,-0.0112827317417,0.030975492853900003,0.0065320729381,-0.00519458568779,0.00764849104192,0.00023951840378,-0.0167263259426,-0.0161818891745,3.8718066215499998,2.04930591583,13.807866096500002,-0.411092460155,1.58312368393,0.17439368367199998,491348,1522662147,456999936,,['r_gripper_l_finger_joint'],"(0.004809528524428606,)","(0.0,)","(0.30215054750442505,)",1225308,1522662149,982696689,robotiq_force_torque_frame_id,-0.748000049591,0.465000009537,9.33000030518,-0.12800000607999998,-0.12800000607999998,-0.0869999974966,452.0,453.0,465.0,553.0,606.0,494.0,516.0,629.0,644.0,746.0,7,"(0.2483205643413036, -0.8149386625515546, 0.13945448344290956, 0.9999377972961767, -0.004352227397899998, -0.009388168303920898, 0.004161964805750869)",-0.23000001907299994,-1.110000014303,-0.11999893187999966,-0.0010000020269999854,0.024999991059000026,0.023000001907399995
1522690950.04,24453,1522662149,998774051,,1242444,1522662147,477294081,,0.663274002966,-0.14939345849400001,0.102427230161,-0.0384123192697,0.99871803455,-0.0112827317417,0.030975492853900003,0.0065320729381,-0.00519458568779,0.00764849104192,0.00023951840378,-0.0167263259426,-0.0161818891745,3.8718066215499998,2.04930591583,13.807866096500002,-0.411092460155,1.58312368393,0.17439368367199998,1242794,1522662147,475427502,,"['head_nod', 'head_pan', 'left_e0', 'left_e1', 'left_s0', 'left_s1', 'left_w0', 'left_w1', 'left_w2', 'right_e0', 'right_e1', 'right_s0', 'right_s1', 'right_w0', 'right_w1', 'right_w2', 'torso_t0']","(0.0, -0.1004757416064946, -0.9069661408372509, 1.5021506865367915, 0.27803401780423126, 0.6450389213058165, 2.3412381775101125, -0.48780589054756157, -0.032213596545593685, 0.5948010505025692, 1.7073206169164654, 0.5564515308054339, -1.0826069410501307, -0.36355344672884304, 0.9967040169285476, 0.4249126782442596, -12.565987119160338)","(0.0, 0.001570796326500243, 0.011388273367126762, 0.012959069693627005, 0.0019634954081253035, 0.00039269908162506076, -0.02120575040775328, -0.012173671530376884, 0.01610066234662749, 0.0011780972448751821, -0.0023561944897503642, -0.009817477040626518, -0.013744467856877126, 0.0011780972448751821, -0.001570796326500243, 0.006283185306000972, 0.0)","(0.0, 0.0, -14.752, 10.916, 0.464, 5.068, 0.076, -2.636, 0.336, 7.68, -17.392, 0.652, -28.968, -0.244, -0.268, -0.008, -20.48)",1225309,1522662149,990842164,robotiq_force_torque_frame_id,-0.38799991607699996,-0.0449999809265,9.17000045776,-0.131999999285,-0.101000003517,-0.0839999988675,449.0,453.0,464.0,553.0,606.0,494.0,540.0,628.0,633.0,746.0,7,"(0.2483205643413036, -0.8149386625515546, 0.13945448344290956, 0.9999377972961767, -0.004352227397899998, -0.009388168303920898, 0.004161964805750869)",0.360000133514,-0.5099999904635,-0.15999984741999995,-0.003999993205000024,0.027000002562999975,0.002999998629100012
1522690950.04,24454,1522662150,8716106,,1242445,1522662147,487298343,,0.663397302376,-0.149618671721,0.102439615049,-0.0384212259218,0.9987099246100001,-0.011571120045000001,0.031119207322599998,-0.00763520781708,0.0132188421355,0.0006029149343430001,-0.00230834363306,0.00875693286743,0.039520004660900006,3.95046424866,2.1108362674700003,13.6580734253,-0.370858073235,1.5943063497499999,0.202319279313,491349,1522662147,502000128,,['l_gripper_l_finger_joint'],"(0.0032494800670444966,)","(0.0,)","(0.0,)",1225310,1522662150,3044401,robotiq_force_torque_frame_id,-0.347999954224,0.0549999237061,9.72999801636,-0.128999993205,-0.0879999995232,-0.0799999982119,449.0,454.0,463.0,548.0,598.0,494.0,540.0,628.0,633.0,752.0,7,"(0.2483205643413036, -0.8149386625515546, 0.13945448344290956, 0.9999377972961767, -0.004352227397899998, -0.009388168303920898, 0.004161964805750869)",0.03999996185299998,0.0999999046326,0.5599975585999992,0.003000006080000006,0.013000003993799997,0.0040000006555999945
1522690950.04,24455,1522662150,18706083,,1242447,1522662147,507290701,,0.663098358721,-0.149745785825,0.102004189821,-0.038651870088300004,0.9987074433130001,-0.011975605761,0.030758096129900003,-0.005105919300229999,-0.0111385165995,-0.000211107158745,-0.0172644916278,0.010593853665400001,-0.0198617934509,3.9490516185800004,1.95706391335,13.727325439500001,-0.245073229074,1.55677509308,0.23025168478500002,1242797,1522662147,505414971,,"['head_nod', 'head_pan', 'left_e0', 'left_e1', 'left_s0', 'left_s1', 'left_w0', 'left_w1', 'left_w2', 'right_e0', 'right_e1', 'right_s0', 'right_s1', 'right_w0', 'right_w1', 'right_w2', 'torso_t0']","(0.0, -0.1012427320004373, -0.9069661408372509, 1.5013836961428486, 0.27880100819817394, 0.6450389213058165, 2.341621672707084, -0.4881893857445329, -0.03259709174256504, 0.5936505649116551, 1.7077041121134369, 0.5576020163963479, -1.0822234458531594, -0.3647039323197571, 0.9967040169285476, 0.42529617344123094, -12.565987119160338)","(0.0, -0.009032078877376396, 0.012566370612001944, -0.0047123889795007284, 0.007853981632501214, -0.0070685834692510935, 0.01021017612225158, 0.0035342917346255468, -0.00510508806112579, -0.010995574285501701, 0.0070685834692510935, 0.00039269908162506076, -0.0070685834692510935, -0.003926990816250607, 0.013351768775252066, 0.013744467856877126, 0.0)","(0.0, 0.0, -14.556, 10.916, 0.436, 5.004, 0.084, -2.648, 0.336, 7.804, -17.452, 0.592, -28.936, -0.252, -0.36, -0.016, -20.48)",1225311,1522662150,11187775,robotiq_force_torque_frame_id,-0.27800025939899997,0.31499991416900003,10.2999977112,-0.119999997318,-0.09000000357629999,-0.08500000089410001,450.0,452.0,463.0,548.0,598.0,494.0,539.0,615.0,636.0,764.0,7,"(0.2483205643413036, -0.8149386625515546, 0.13945448344290956, 0.9999377972961767, -0.004352227397899998, -0.009388168303920898, 0.004161964805750869)",0.06999969482500001,0.2599999904629,0.5699996948399999,0.008999995886999998,-0.0020000040530999824,-0.005000002682200008
1522690950.04,24456,1522662150,28806924,,1242447,1522662147,507290701,,0.663098358721,-0.149745785825,0.102004189821,-0.038651870088300004,0.9987074433130001,-0.011975605761,0.030758096129900003,-0.005105919300229999,-0.0111385165995,-0.000211107158745,-0.0172644916278,0.010593853665400001,-0.0198617934509,3.9490516185800004,1.95706391335,13.727325439500001,-0.245073229074,1.55677509308,0.23025168478500002,491350,1522662147,508000000,,['r_gripper_l_finger_joint'],"(0.004809528524428606,)","(0.0,)","(0.3096774220466614,)",1225312,1522662150,23394843,robotiq_force_torque_frame_id,-0.0579999923706,0.564999914169,10.0399993896,-0.11100000143100001,-0.0869999974966,-0.09600000083450001,450.0,452.0,462.0,564.0,607.0,494.0,557.0,613.0,651.0,764.0,7,"(0.2483205643413036, -0.8149386625515546, 0.13945448344290956, 0.9999377972961767, -0.004352227397899998, -0.009388168303920898, 0.004161964805750869)",0.22000026702839998,0.24999999999999994,-0.25999832159999947,0.008999995886999984,0.0030000060796999822,-0.010999999940400004
1522690950.08,24457,1522662150,38707971,,1242448,1522662147,517310505,,0.663236398918,-0.149808230051,0.102383619136,-0.038150203974699995,0.998728261961,-0.011601380455200002,0.030851720681599998,0.0007979206293069999,-0.028611582306900002,0.0022172071713099997,-0.010426639639200002,0.0148393990221,-0.0531787608418,4.25534963608,2.1500499248500002,13.4454421997,-0.443691730499,1.6260540485400001,0.155954226851,1242799,1522662147,525389027,,"['head_nod', 'head_pan', 'left_e0', 'left_e1', 'left_s0', 'left_s1', 'left_w0', 'left_w1', 'left_w2', 'right_e0', 'right_e1', 'right_s0', 'right_s1', 'right_w0', 'right_w1', 'right_w2', 'torso_t0']","(0.0, -0.1012427320004373, -0.9073496360342223, 1.50176719133982, 0.27880100819817394, 0.6446554261088451, 2.3420051679040554, -0.48780589054756157, -0.03259709174256504, 0.5940340601086265, 1.7073206169164654, 0.5572185211993765, -1.0826069410501307, -0.3631699515318717, 0.998237997716433, 0.4249126782442596, -12.565987119160338)","(0.0, -0.0027488935713754254, -0.011780972448751823, -0.005890486224375911, -0.003141592653000486, -0.004319689897875668, -0.01688606050987761, 0.021598449489378342, -0.01727875959150267, -0.0007853981632501215, 0.008639379795751335, -0.007853981632501214, -0.008639379795751335, 0.008639379795751335, 0.04830198703988247, -0.01021017612225158, 0.0)","(0.0, 0.0, -14.588, 10.916, 0.404, 5.1, 0.096, -2.656, 0.364, 7.744, -17.484, 0.62, -28.908, -0.26, -0.388, 0.0, -20.48)",1225313,1522662150,31568483,robotiq_force_torque_frame_id,-0.327999973297,0.465000009537,9.350000762939999,-0.103000000119,-0.0729999989271,-0.0920000001788,450.0,459.0,462.0,564.0,599.0,494.0,557.0,613.0,651.0,765.0,7,"(0.2483205643413036, -0.8149386625515546, 0.13945448344290956, 0.9999377972961767, -0.004352227397899998, -0.009388168303920898, 0.004161964805750869)",-0.2699999809264,-0.09999990463199998,-0.6899986266600013,0.008000001312000016,0.013999998569500002,0.004000000655700012
1522690950.08,24458,1522662150,48696041,,1242450,1522662147,537292714,,0.66349041384,-0.149685620497,0.10264639090199999,-0.038211926699599996,0.998718263985,-0.011547371631,0.031118098401200004,-0.0152429892891,-0.00179028471858,0.0028291315321299997,-0.0210704158837,0.0322831478313,0.011261619827700001,4.22430086136,2.15249800682,13.497614860499999,-0.343468874693,1.56375312805,0.197785913944,1242799,1522662147,525389027,,"['head_nod', 'head_pan', 'left_e0', 'left_e1', 'left_s0', 'left_s1', 'left_w0', 'left_w1', 'left_w2', 'right_e0', 'right_e1', 'right_s0', 'right_s1', 'right_w0', 'right_w1', 'right_w2', 'torso_t0']","(0.0, -0.1012427320004373, -0.9073496360342223, 1.50176719133982, 0.27880100819817394, 0.6446554261088451, 2.3420051679040554, -0.48780589054756157, -0.03259709174256504, 0.5940340601086265, 1.7073206169164654, 0.5572185211993765, -1.0826069410501307, -0.3631699515318717, 0.998237997716433, 0.4249126782442596, -12.565987119160338)","(0.0, -0.0027488935713754254, -0.011780972448751823, -0.005890486224375911, -0.003141592653000486, -0.004319689897875668, -0.01688606050987761, 0.021598449489378342, -0.01727875959150267, -0.0007853981632501215, 0.008639379795751335, -0.007853981632501214, -0.008639379795751335, 0.008639379795751335, 0.04830198703988247, -0.01021017612225158, 0.0)","(0.0, 0.0, -14.588, 10.916, 0.404, 5.1, 0.096, -2.656, 0.364, 7.744, -17.484, 0.62, -28.908, -0.26, -0.388, 0.0, -20.48)",1225314,1522662150,39731645,robotiq_force_torque_frame_id,-0.7780000209810001,0.31499991416900003,8.74999847412,-0.0879999995232,-0.0670000016689,-0.0810000002384,450.0,459.0,461.0,564.0,599.0,494.0,544.0,615.0,647.0,765.0,7,"(0.2483205643413036, -0.8149386625515546, 0.13945448344290956, 0.9999377972961767, -0.004352227397899998, -0.009388168303920898, 0.004161964805750869)",-0.4500000476840001,-0.15000009536799996,-0.600002288819999,0.015000000595799992,0.00599999725820001,0.010999999940400004
1522690950.08,24459,1522662150,58798074,,1242450,1522662147,537292714,,0.66349041384,-0.149685620497,0.10264639090199999,-0.038211926699599996,0.998718263985,-0.011547371631,0.031118098401200004,-0.0152429892891,-0.00179028471858,0.0028291315321299997,-0.0210704158837,0.0322831478313,0.011261619827700001,4.22430086136,2.15249800682,13.497614860499999,-0.343468874693,1.56375312805,0.197785913944,491351,1522662147,552000000,,['l_gripper_l_finger_joint'],"(0.0032494800670444966,)","(0.0,)","(0.0,)",1225315,1522662150,51929849,robotiq_force_torque_frame_id,-1.11799993515,0.205000019073,8.289999389650001,-0.0780000016093,-0.06499999761580001,-0.0799999982119,449.0,458.0,468.0,568.0,604.0,494.0,544.0,615.0,647.0,759.0,7,"(0.2483205643413036, -0.8149386625515546, 0.13945448344290956, 0.9999377972961767, -0.004352227397899998, -0.009388168303920898, 0.004161964805750869)",-0.339999914169,-0.10999989509600003,-0.4599990844699988,0.009999997913900008,0.0020000040530999824,0.0010000020264999965
1522690950.08,24460,1522662150,68731069,,1242452,1522662147,557296616,,0.662435418395,-0.148508375132,0.10221208885,-0.038778577545400005,0.9987271517399999,-0.0115308828272,0.0301220358312,-0.013790677368000001,0.00492378458749,-0.0028389128625999995,-0.00206126800605,0.0338970231122,0.00504118652651,4.20513391495,1.95711064339,13.591026306199998,-0.246607899666,1.5442602634399998,0.197901338339,1242802,1522662147,555388461,,"['head_nod', 'head_pan', 'left_e0', 'left_e1', 'left_s0', 'left_s1', 'left_w0', 'left_w1', 'left_w2', 'right_e0', 'right_e1', 'right_s0', 'right_s1', 'right_w0', 'right_w1', 'right_w2', 'torso_t0']","(0.0, -0.1012427320004373, -0.9069661408372509, 1.50176719133982, 0.2784175130012026, 0.6450389213058165, 2.3412381775101125, -0.48703890015361884, -0.03298058693953639, 0.5948010505025692, 1.7073206169164654, 0.5583690067902906, -1.0822234458531594, -0.36355344672884304, 0.998237997716433, 0.4260631638351737, -12.565987119160338)","(0.0, 0.0, -0.003926990816250607, 0.0, -0.009032078877376396, 0.007853981632501214, 0.00510508806112579, 0.0, 0.003926990816250607, 0.012566370612001944, -0.0011780972448751821, 0.0011780972448751821, 0.008246680714126275, 0.005497787142750851, 0.029845130203504617, 0.0027488935713754254, 0.0)","(0.0, 0.0, -14.556, 10.916, 0.528, 5.004, 0.084, -2.676, 0.324, 7.744, -17.572, 0.528, -28.936, -0.268, -0.448, 0.016, -20.48)",1225316,1522662150,60081347,robotiq_force_torque_frame_id,-1.15800013542,0.014999961853,8.12999954224,-0.0680000036955,-0.05099999904630001,-0.0930000022054,449.0,457.0,468.0,568.0,604.0,494.0,494.0,613.0,644.0,759.0,7,"(0.2483205643413036, -0.8149386625515546, 0.13945448344290956, 0.9999377972961767, -0.004352227397899998, -0.009388168303920898, 0.004161964805750869)",-0.04000020026999995,-0.19000005722,-0.15999984741000084,0.009999997913800004,0.013999998569500002,-0.0130000039935
1522690950.12,24461,1522662150,78730106,,1242453,1522662147,567309581,,0.6623209846410001,-0.150078737117,0.101811897392,-0.037825205155800005,0.99876939768,-0.0116358356919,0.029892330812900002,0.00364228064934,0.0014617949507899999,0.00186755356569,0.000824396941309,-0.0181557341237,0.009816378082809999,4.58455848694,2.03741359711,13.607495307899999,-0.302976280451,1.68723475933,0.197791457176,491352,1522662147,559000064,,['r_gripper_l_finger_joint'],"(0.004809528524428606,)","(0.0,)","(0.30215054750442505,)",1225317,1522662150,72292419,robotiq_force_torque_frame_id,-0.9480000972750001,0.405000066757,8.21000137329,-0.07199999690060001,-0.0489999987185,-0.107000000775,451.0,457.0,469.0,556.0,601.0,494.0,494.0,612.0,653.0,750.0,7,"(0.2483205643413036, -0.8149386625515546, 0.13945448344290956, 0.9999377972961767, -0.004352227397899998, -0.009388168303920898, 0.004161964805750869)",0.2100000381449999,0.390000104904,0.0800018310499997,-0.003999993205100014,0.002000000327800011,-0.013999998569600006
1522690950.12,24462,1522662150,88824987,,1242453,1522662147,567309581,,0.6623209846410001,-0.150078737117,0.101811897392,-0.037825205155800005,0.99876939768,-0.0116358356919,0.029892330812900002,0.00364228064934,0.0014617949507899999,0.00186755356569,0.000824396941309,-0.0181557341237,0.009816378082809999,4.58455848694,2.03741359711,13.607495307899999,-0.302976280451,1.68723475933,0.197791457176,1242803,1522662147,565372827,,"['head_nod', 'head_pan', 'left_e0', 'left_e1', 'left_s0', 'left_s1', 'left_w0', 'left_w1', 'left_w2', 'right_e0', 'right_e1', 'right_s0', 'right_s1', 'right_w0', 'right_w1', 'right_w2', 'torso_t0']","(0.0, -0.1012427320004373, -0.9073496360342223, 1.50176719133982, 0.2784175130012026, 0.6446554261088451, 2.341621672707084, -0.48780589054756157, -0.03259709174256504, 0.5944175553055978, 1.7084711025073795, 0.5560680356084625, -1.0822234458531594, -0.36355344672884304, 0.9974710073224903, 0.42567966863820234, -12.565987119160338)","(0.0, -0.01727875959150267, 0.00039269908162506076, 0.006675884387626033, 0.008639379795751335, -0.004319689897875668, 0.0070685834692510935, -0.012566370612001944, 0.003926990816250607, -0.006675884387626033, 0.011388273367126762, 0.005497787142750851, -0.012173671530376884, 0.0007853981632501215, -0.02042035224450316, -0.006675884387626033, 0.0)","(0.0, 0.0, -14.652, 10.916, 0.34, 5.068, 0.096, -2.696, 0.352, 7.648, -17.632, 0.592, -28.936, -0.244, -0.448, -0.028, -20.48)",1225318,1522662150,80432636,robotiq_force_torque_frame_id,-0.637999916077,0.564999914169,7.81999816895,-0.0610000006855,-0.046999998390699994,-0.115999996662,453.0,464.0,469.0,556.0,586.0,497.0,504.0,612.0,653.0,744.0,7,"(0.2483205643413036, -0.8149386625515546, 0.13945448344290956, 0.9999377972961767, -0.004352227397899998, -0.009388168303920898, 0.004161964805750869)",0.3100001811980001,0.15999984741199996,-0.39000320434000013,0.010999996215100005,0.002000000327800004,-0.008999995886999998
1522690950.12,24463,1522662150,98778009,,1242455,1522662147,587305335,,0.6626580268,-0.149846760621,0.102021575672,-0.0383214594477,0.99873703421,-0.0119937091192,0.0301985626137,0.000566569411036,-0.0224343512978,-0.0057095144021599995,-0.0107412534896,0.009408276292889999,-0.0260451084085,4.49575281143,2.1256036758400003,13.7737789154,-0.34865164756800004,1.70400571823,0.16859073936900001,1242805,1522662147,585381153,,"['head_nod', 'head_pan', 'left_e0', 'left_e1', 'left_s0', 'left_s1', 'left_w0', 'left_w1', 'left_w2', 'right_e0', 'right_e1', 'right_s0', 'right_s1', 'right_w0', 'right_w1', 'right_w2', 'torso_t0']","(0.0, -0.10085923680346595, -0.9069661408372509, 1.5021506865367915, 0.27803401780423126, 0.6446554261088451, 2.3412381775101125, -0.48742239535059023, -0.03298058693953639, 0.5940340601086265, 1.7077041121134369, 0.5572185211993765, -1.0822234458531594, -0.3643204371227858, 0.9978545025194616, 0.42567966863820234, -12.565987119160338)","(0.0, 0.0035342917346255468, 0.0035342917346255468, 0.0047123889795007284, 0.009032078877376396, -0.00039269908162506076, -0.006675884387626033, -0.00510508806112579, 0.004319689897875668, -0.01021017612225158, 0.0019634954081253035, -0.023169245815878585, 0.008246680714126275, -0.008246680714126275, 0.0019634954081253035, -0.001570796326500243, 0.0)","(0.0, 0.0, -14.62, 10.884, 0.464, 5.004, 0.096, -2.656, 0.344, 7.68, -17.632, 0.62, -28.996, -0.232, -0.4, 0.0, -20.48)",1225319,1522662150,92649046,robotiq_force_torque_frame_id,-0.9180001258849999,0.225,7.5800003051800005,-0.0689999982715,-0.0560000017285,-0.109999999404,453.0,464.0,467.0,570.0,586.0,497.0,500.0,614.0,648.0,744.0,7,"(0.2483205643413036, -0.8149386625515546, 0.13945448344290956, 0.9999377972961767, -0.004352227397899998, -0.009388168303920898, 0.004161964805750869)",-0.2800002098079999,-0.339999914169,-0.23999786376999932,-0.007999997585999993,-0.009000003337800003,0.005999997258000003
1522690950.12,24464,1522662150,108711004,,1242455,1522662147,587305335,,0.6626580268,-0.149846760621,0.102021575672,-0.0383214594477,0.99873703421,-0.0119937091192,0.0301985626137,0.000566569411036,-0.0224343512978,-0.0057095144021599995,-0.0107412534896,0.009408276292889999,-0.0260451084085,4.49575281143,2.1256036758400003,13.7737789154,-0.34865164756800004,1.70400571823,0.16859073936900001,491353,1522662147,601999872,,['l_gripper_l_finger_joint'],"(0.0032494800670444966,)","(0.0,)","(0.0,)",1225320,1522662150,100796596,robotiq_force_torque_frame_id,-0.748000049591,-0.604999923706,7.600000762939999,-0.06499999761580001,-0.0610000006855,-0.10599999874800001,451.0,462.0,467.0,580.0,586.0,496.0,500.0,614.0,648.0,762.0,7,"(0.2483205643413036, -0.8149386625515546, 0.13945448344290956, 0.9999377972961767, -0.004352227397899998, -0.009388168303920898, 0.004161964805750869)",0.17000007629399994,-0.829999923706,0.02000045775999837,0.004000000655699984,-0.004999998957000006,0.004000000655999994
1522690950.12,24465,1522662150,118792057,,1242456,1522662147,597304304,,0.662317353328,-0.150280832732,0.102030271883,-0.0385820219624,0.998733427026,-0.012366854421700001,0.029833374512299997,-0.0065860306038,0.00808195614947,-0.0006956384963089999,0.0028912899285,0.00665677260196,0.009380326252,4.5512237548800005,2.21964693069,13.725466728199999,-0.380947351456,1.70984506607,0.181371644139,1242806,1522662147,595407266,,"['head_nod', 'head_pan', 'left_e0', 'left_e1', 'left_s0', 'left_s1', 'left_w0', 'left_w1', 'left_w2', 'right_e0', 'right_e1', 'right_s0', 'right_s1', 'right_w0', 'right_w1', 'right_w2', 'torso_t0']","(0.0, -0.1012427320004373, -0.9073496360342223, 1.50176719133982, 0.2784175130012026, 0.6442719309118737, 2.3420051679040554, -0.4881893857445329, -0.03259709174256504, 0.5936505649116551, 1.708087607310408, 0.5572185211993765, -1.0826069410501307, -0.3643204371227858, 0.9986214929134043, 0.4249126782442596, -12.565987119160338)","(0.0, -0.0007853981632501215, -0.0070685834692510935, -0.018456856836377853, 0.00510508806112579, 0.005497787142750851, 0.01767145867312773, -0.009817477040626518, 0.009424777959001457, 0.009424777959001457, 0.009424777959001457, 0.0047123889795007284, -0.0027488935713754254, 0.0027488935713754254, 0.0007853981632501215, 0.0047123889795007284, 0.0)","(0.0, 0.0, -14.556, 10.884, 0.372, 5.068, 0.104, -2.648, 0.344, 7.712, -17.632, 0.684, -28.968, -0.244, -0.408, -0.016, -20.48)",1225321,1522662150,113014615,robotiq_force_torque_frame_id,-0.0280002593994,-0.5949999332429999,8.15,-0.07199999690060001,-0.082999996841,-0.11299999803300001,451.0,456.0,468.0,580.0,586.0,498.0,516.0,608.0,656.0,762.0,7,"(0.2483205643413036, -0.8149386625515546, 0.13945448344290956, 0.9999377972961767, -0.004352227397899998, -0.009388168303920898, 0.004161964805750869)",0.7199997901916,0.009999990463000041,0.5499992370600015,-0.006999999284799996,-0.021999996155499996,-0.006999999285000003
1522690950.13,24466,1522662150,129272937,,1242458,1522662147,617301525,,0.6625601328199999,-0.149926449372,0.10194148166200001,-0.0380630340157,0.998751750418,-0.011728802150600001,0.0301426886399,-0.00443932364108,0.0109810376979,-0.00375117270523,0.0077239531575,0.00936673714847,0.0151578976566,4.38553857803,2.02377176285,13.7422523499,-0.323518753052,1.67916834354,0.183468520641,1242808,1522662147,615356849,,"['head_nod', 'head_pan', 'left_e0', 'left_e1', 'left_s0', 'left_s1', 'left_w0', 'left_w1', 'left_w2', 'right_e0', 'right_e1', 'right_s0', 'right_s1', 'right_w0', 'right_w1', 'right_w2', 'torso_t0']","(0.0, -0.10162622719740866, -0.9073496360342223, 1.5025341817337627, 0.2784175130012026, 0.6450389213058165, 2.3423886631010267, -0.48742239535059023, -0.03259709174256504, 0.5944175553055978, 1.708087607310408, 0.5564515308054339, -1.0822234458531594, -0.36393694192581444, 0.9974710073224903, 0.42567966863820234, -12.565987119160338)","(0.0, 0.011388273367126762, 0.004319689897875668, 0.029845130203504617, 0.0047123889795007284, 0.0011780972448751821, -0.007853981632501214, 0.0023561944897503642, 0.0007853981632501215, 0.0070685834692510935, -0.00039269908162506076, 0.008639379795751335, 0.009424777959001457, 0.003141592653000486, 0.0, -0.0019634954081253035, 0.0)","(0.0, 0.0, -14.684, 10.916, 0.436, 5.036, 0.076, -2.656, 0.364, 7.648, -17.572, 0.592, -28.968, -0.232, -0.38, -0.016, -20.48)",1225322,1522662150,121153392,robotiq_force_torque_frame_id,0.461999988556,0.0349999427795,8.83000030518,-0.0799999982119,-0.10400000214600001,-0.11400000006,450.0,456.0,469.0,577.0,594.0,498.0,516.0,608.0,642.0,749.0,7,"(0.2483205643413036, -0.8149386625515546, 0.13945448344290956, 0.9999377972961767, -0.004352227397899998, -0.009388168303920898, 0.004161964805750869)",0.4900002479554,0.6299998760225,0.6800003051800001,-0.008000001311299992,-0.021000005305000014,-0.0010000020269999854
1522690950.17,24467,1522662150,138742923,,1242458,1522662147,617301525,,0.6625601328199999,-0.149926449372,0.10194148166200001,-0.0380630340157,0.998751750418,-0.011728802150600001,0.0301426886399,-0.00443932364108,0.0109810376979,-0.00375117270523,0.0077239531575,0.00936673714847,0.0151578976566,4.38553857803,2.02377176285,13.7422523499,-0.323518753052,1.67916834354,0.183468520641,1242808,1522662147,615356849,,"['head_nod', 'head_pan', 'left_e0', 'left_e1', 'left_s0', 'left_s1', 'left_w0', 'left_w1', 'left_w2', 'right_e0', 'right_e1', 'right_s0', 'right_s1', 'right_w0', 'right_w1', 'right_w2', 'torso_t0']","(0.0, -0.10162622719740866, -0.9073496360342223, 1.5025341817337627, 0.2784175130012026, 0.6450389213058165, 2.3423886631010267, -0.48742239535059023, -0.03259709174256504, 0.5944175553055978, 1.708087607310408, 0.5564515308054339, -1.0822234458531594, -0.36393694192581444, 0.9974710073224903, 0.42567966863820234, -12.565987119160338)","(0.0, 0.011388273367126762, 0.004319689897875668, 0.029845130203504617, 0.0047123889795007284, 0.0011780972448751821, -0.007853981632501214, 0.0023561944897503642, 0.0007853981632501215, 0.0070685834692510935, -0.00039269908162506076, 0.008639379795751335, 0.009424777959001457, 0.003141592653000486, 0.0, -0.0019634954081253035, 0.0)","(0.0, 0.0, -14.684, 10.916, 0.436, 5.036, 0.076, -2.656, 0.364, 7.648, -17.572, 0.592, -28.968, -0.232, -0.38, -0.016, -20.48)",1225323,1522662150,133381925,robotiq_force_torque_frame_id,0.411999797821,0.36500010490400003,9.19000091553,-0.0769999995828,-0.11500000208599999,-0.10000000149,449.0,467.0,469.0,577.0,594.0,477.0,497.0,600.0,642.0,743.0,7,"(0.2483205643413036, -0.8149386625515546, 0.13945448344290956, 0.9999377972961767, -0.004352227397899998, -0.009388168303920898, 0.004161964805750869)",-0.050000190735000005,0.3300001621245,0.3600006103499993,0.002999998629099998,-0.010999999939999977,0.013999998569999991
1522690950.17,24468,1522662150,148770093,,1242461,1522662147,647304784,,0.66233749475,-0.149212810433,0.101796414159,-0.03861335358680001,0.9987370824490001,-0.0115763902967,0.0299872681814,0.00127731522247,-0.00637595586464,-0.0032979343420999996,-0.00147929390816,-0.0034554712396599996,0.0064955960574100005,4.23975515366,2.18178248405,13.785944938699998,-0.468009322882,1.6428294181799998,0.13673333823699999,491355,1522662147,652999936,,['l_gripper_l_finger_joint'],"(0.0032494800670444966,)","(0.0,)","(0.0,)",1225324,1522662150,141532036,robotiq_force_torque_frame_id,0.711999988556,0.0449999332428,9.19000091553,-0.0769999995828,-0.12099999934399999,-0.09499999880789999,449.0,467.0,470.0,566.0,577.0,495.0,497.0,598.0,636.0,743.0,7,"(0.2483205643413036, -0.8149386625515546, 0.13945448344290956, 0.9999377972961767, -0.004352227397899998, -0.009388168303920898, 0.004161964805750869)",0.300000190735,-0.32000017166120004,0.0,0.0,-0.005999997258000003,0.005000002682100019
1522690950.17,24469,1522662150,161331892,,1242463,1522662147,667321454,,0.663169372654,-0.149676229982,0.10208492226,-0.0380223874733,0.9987357312690001,-0.0114228960959,0.030834308531599998,0.00894890571371,0.0146409496499,0.00331408238856,0.0188149237296,-0.0250298562937,0.0035836421625,3.8263006210300006,1.7730807066,14.129564285299999,-0.222768083215,1.58317148685,0.207475811243,1242813,1522662147,665390609,,"['head_nod', 'head_pan', 'left_e0', 'left_e1', 'left_s0', 'left_s1', 'left_w0', 'left_w1', 'left_w2', 'right_e0', 'right_e1', 'right_s0', 'right_s1', 'right_w0', 'right_w1', 'right_w2', 'torso_t0']","(0.0, -0.10085923680346595, -0.9065826456402796, 1.50176719133982, 0.2784175130012026, 0.6450389213058165, 2.341621672707084, -0.48780589054756157, -0.033364082136507746, 0.5944175553055978, 1.7077041121134369, 0.5564515308054339, -1.0822234458531594, -0.36393694192581444, 0.9963205217315763, 0.42567966863820234, -12.565987119160338)","(0.0, 0.012566370612001944, -0.003926990816250607, -0.006675884387626033, -0.0011780972448751821, 0.0011780972448751821, 0.01060287520387664, 0.0027488935713754254, 0.0019634954081253035, 0.019634954081253035, -0.006283185306000972, -0.0007853981632501215, 0.0027488935713754254, -0.004319689897875668, -0.02042035224450316, 0.014529866020127248, 0.0)","(0.0, 0.0, -14.62, 10.916, 0.34, 5.1, 0.096, -2.684, 0.364, 7.712, -17.484, 0.496, -29.084, -0.224, -0.288, -0.008, -20.48)",1225325,1522662150,153736017,robotiq_force_torque_frame_id,1.30200014114,-0.32499995231600004,9.19999923706,-0.07199999690060001,-0.125,-0.09899999946360001,455.0,467.0,483.0,577.0,588.0,495.0,496.0,598.0,636.0,742.0,7,"(0.2483205643413036, -0.8149386625515546, 0.13945448344290956, 0.9999377972961767, -0.004352227397899998, -0.009388168303920898, 0.004161964805750869)",0.590000152584,-0.36999988555880003,0.009998321530000354,0.005000002682199994,-0.004000000656000008,-0.004000000655700026
1522690950.21,24470,1522662150,168808937,,1242463,1522662147,667321454,,0.663169372654,-0.149676229982,0.10208492226,-0.0380223874733,0.9987357312690001,-0.0114228960959,0.030834308531599998,0.00894890571371,0.0146409496499,0.00331408238856,0.0188149237296,-0.0250298562937,0.0035836421625,3.8263006210300006,1.7730807066,14.129564285299999,-0.222768083215,1.58317148685,0.207475811243,1242813,1522662147,665390609,,"['head_nod', 'head_pan', 'left_e0', 'left_e1', 'left_s0', 'left_s1', 'left_w0', 'left_w1', 'left_w2', 'right_e0', 'right_e1', 'right_s0', 'right_s1', 'right_w0', 'right_w1', 'right_w2', 'torso_t0']","(0.0, -0.10085923680346595, -0.9065826456402796, 1.50176719133982, 0.2784175130012026, 0.6450389213058165, 2.341621672707084, -0.48780589054756157, -0.033364082136507746, 0.5944175553055978, 1.7077041121134369, 0.5564515308054339, -1.0822234458531594, -0.36393694192581444, 0.9963205217315763, 0.42567966863820234, -12.565987119160338)","(0.0, 0.012566370612001944, -0.003926990816250607, -0.006675884387626033, -0.0011780972448751821, 0.0011780972448751821, 0.01060287520387664, 0.0027488935713754254, 0.0019634954081253035, 0.019634954081253035, -0.006283185306000972, -0.0007853981632501215, 0.0027488935713754254, -0.004319689897875668, -0.02042035224450316, 0.014529866020127248, 0.0)","(0.0, 0.0, -14.62, 10.916, 0.34, 5.1, 0.096, -2.684, 0.364, 7.712, -17.484, 0.496, -29.084, -0.224, -0.288, -0.008, -20.48)",1225326,1522662150,161885286,robotiq_force_torque_frame_id,1.13200006485,0.304999923706,9.37999954224,-0.0680000036955,-0.129999995232,-0.0930000022054,455.0,467.0,476.0,577.0,588.0,495.0,500.0,600.0,639.0,742.0,7,"(0.2483205643413036, -0.8149386625515546, 0.13945448344290956, 0.9999377972961767, -0.004352227397899998, -0.009388168303920898, 0.004161964805750869)",-0.17000007629000002,0.629999876022,0.1800003051800001,0.003999993205100014,-0.00499999523200001,0.00599999725820001
1522690950.21,24471,1522662150,178726911,,1242465,1522662147,687327205,,0.663163570055,-0.14969668464000002,0.102334212642,-0.0382666629093,0.998727409657,-0.011546234477799998,0.030755620287599997,0.010059562091,-0.00027389574489599994,0.004842655623229999,0.00502965200337,-0.015792196279799997,-0.011355844753499999,3.77030682564,2.0467669963799997,13.9212398529,-0.366894185543,1.56866431236,0.18144184351,1242815,1522662147,685401741,,"['head_nod', 'head_pan', 'left_e0', 'left_e1', 'left_s0', 'left_s1', 'left_w0', 'left_w1', 'left_w2', 'right_e0', 'right_e1', 'right_s0', 'right_s1', 'right_w0', 'right_w1', 'right_w2', 'torso_t0']","(0.0, -0.10085923680346595, -0.9065826456402796, 1.50176719133982, 0.2784175130012026, 0.6446554261088451, 2.3423886631010267, -0.48780589054756157, -0.03298058693953639, 0.5940340601086265, 1.7073206169164654, 0.5568350260024052, -1.0826069410501307, -0.36355344672884304, 0.9970875121255189, 0.4249126782442596, -12.565987119160338)","(0.0, -0.004319689897875668, -0.01688606050987761, 0.0019634954081253035, 0.006675884387626033, -0.011388273367126762, -0.01021017612225158, 0.0047123889795007284, -0.0023561944897503642, 0.00039269908162506076, -0.01649336142825255, -0.003141592653000486, 0.0011780972448751821, -0.001570796326500243, -0.0011780972448751821, 0.00510508806112579, 0.0)","(0.0, 0.0, -14.72, 10.916, 0.372, 5.068, 0.076, -2.676, 0.364, 7.744, -17.392, 0.652, -28.996, -0.224, -0.26, 0.0, -20.48)",1225327,1522662150,174091309,robotiq_force_torque_frame_id,0.262000179291,0.824999904633,9.600000762939999,-0.0640000030398,-0.14499999582800002,-0.082000002265,453.0,468.0,476.0,566.0,596.0,495.0,500.0,600.0,639.0,753.0,7,"(0.2483205643413036, -0.8149386625515546, 0.13945448344290956, 0.9999377972961767, -0.004352227397899998, -0.009388168303920898, 0.004161964805750869)",-0.8699998855589999,0.519999980927,0.2200012206999986,0.004000000655699998,-0.015000000596000013,0.010999999940400004
1522690950.21,24472,1522662150,188824892,,1242466,1522662147,697297234,,0.663115524805,-0.149161121897,0.102008355731,-0.0383431822239,0.998732475491,-0.011036314190400002,0.0306829357387,0.00890540523337,0.0194373734874,0.00370958208201,0.0156253292336,-0.024327775087200004,0.021306751901400002,3.62224578857,1.97278618813,13.8429336548,-0.352738261223,1.50612068176,0.17227643728300002,1242815,1522662147,685401741,,"['head_nod', 'head_pan', 'left_e0', 'left_e1', 'left_s0', 'left_s1', 'left_w0', 'left_w1', 'left_w2', 'right_e0', 'right_e1', 'right_s0', 'right_s1', 'right_w0', 'right_w1', 'right_w2', 'torso_t0']","(0.0, -0.10085923680346595, -0.9065826456402796, 1.50176719133982, 0.2784175130012026, 0.6446554261088451, 2.3423886631010267, -0.48780589054756157, -0.03298058693953639, 0.5940340601086265, 1.7073206169164654, 0.5568350260024052, -1.0826069410501307, -0.36355344672884304, 0.9970875121255189, 0.4249126782442596, -12.565987119160338)","(0.0, -0.004319689897875668, -0.01688606050987761, 0.0019634954081253035, 0.006675884387626033, -0.011388273367126762, -0.01021017612225158, 0.0047123889795007284, -0.0023561944897503642, 0.00039269908162506076, -0.01649336142825255, -0.003141592653000486, 0.0011780972448751821, -0.001570796326500243, -0.0011780972448751821, 0.00510508806112579, 0.0)","(0.0, 0.0, -14.72, 10.916, 0.372, 5.068, 0.076, -2.676, 0.364, 7.744, -17.392, 0.652, -28.996, -0.224, -0.26, 0.0, -20.48)",1225328,1522662150,182225515,robotiq_force_torque_frame_id,-0.11799993515000001,0.494999980927,9.79999771118,-0.07199999690060001,-0.158000007272,-0.08500000089410001,451.0,467.0,468.0,566.0,596.0,498.0,504.0,598.0,638.0,757.0,7,"(0.2483205643413036, -0.8149386625515546, 0.13945448344290956, 0.9999377972961767, -0.004352227397899998, -0.009388168303920898, 0.004161964805750869)",-0.380000114441,-0.329999923706,0.1999969482400008,-0.007999993860800012,-0.013000011443999981,-0.002999998629100012
1522690950.21,24473,1522662150,198999881,,1242466,1522662147,697297234,,0.663115524805,-0.149161121897,0.102008355731,-0.0383431822239,0.998732475491,-0.011036314190400002,0.0306829357387,0.00890540523337,0.0194373734874,0.00370958208201,0.0156253292336,-0.024327775087200004,0.021306751901400002,3.62224578857,1.97278618813,13.8429336548,-0.352738261223,1.50612068176,0.17227643728300002,491357,1522662147,703000064,,['l_gripper_l_finger_joint'],"(0.0032494800670444966,)","(0.0,)","(0.0,)",1225329,1522662150,194413016,robotiq_force_torque_frame_id,0.172000026703,0.5349999427800001,9.96999969482,-0.07000000029799999,-0.163000002503,-0.0909999981523,451.0,466.0,467.0,558.0,595.0,498.0,507.0,596.0,629.0,757.0,7,"(0.2483205643413036, -0.8149386625515546, 0.13945448344290956, 0.9999377972961767, -0.004352227397899998, -0.009388168303920898, 0.004161964805750869)",0.28999996185300003,0.03999996185300009,0.17000198364000063,0.0019999966026000154,-0.004999995231000004,-0.005999997258199996
1522690950.25,24474,1522662150,208700895,,1242468,1522662147,717292188,,0.6631046322640001,-0.149256131824,0.102233056403,-0.0381213756495,0.998739289628,-0.011079730273500002,0.030721843189999997,0.0013236395824100002,0.0075426932709200005,-0.00222743494223,0.0169489095469,-0.000627323347685,-0.019689809417400003,3.39973521233,2.02164888382,13.7649011612,-0.39951989054700005,1.4301304817200002,0.168320521712,1242818,1522662147,715384798,,"['head_nod', 'head_pan', 'left_e0', 'left_e1', 'left_s0', 'left_s1', 'left_w0', 'left_w1', 'left_w2', 'right_e0', 'right_e1', 'right_s0', 'right_s1', 'right_w0', 'right_w1', 'right_w2', 'torso_t0']","(0.0, -0.10085923680346595, -0.9065826456402796, 1.50176719133982, 0.2784175130012026, 0.6450389213058165, 2.3412381775101125, -0.48780589054756157, -0.032213596545593685, 0.5948010505025692, 1.7073206169164654, 0.5564515308054339, -1.0822234458531594, -0.3631699515318717, 0.9967040169285476, 0.42529617344123094, -12.565987119160338)","(0.0, -0.01060287520387664, 0.003141592653000486, 0.005497787142750851, 0.0, -0.018456856836377853, -0.0023561944897503642, -0.003141592653000486, -0.00510508806112579, -0.008639379795751335, -0.0035342917346255468, 0.008639379795751335, 0.0047123889795007284, 0.01688606050987761, -0.01060287520387664, 0.011780972448751823, 0.0)","(0.0, 0.0, -14.684, 10.916, 0.216, 5.068, 0.076, -2.664, 0.344, 7.712, -17.244, 0.684, -28.968, -0.216, -0.24, 0.0, -20.48)",1225330,1522662150,202558556,robotiq_force_torque_frame_id,0.512000179291,0.715000009537,9.559999847410001,-0.0860000029206,-0.158999994397,-0.097999997437,453.0,460.0,466.0,558.0,605.0,500.0,507.0,596.0,629.0,749.0,7,"(0.2483205643413036, -0.8149386625515546, 0.13945448344290956, 0.9999377972961767, -0.004352227397899998, -0.009388168303920898, 0.004161964805750869)",0.340000152588,0.18000006675699998,-0.40999984740999906,-0.016000002622600012,0.004000008106000014,-0.0069999992846999926
1522690950.25,24475,1522662150,218707084,,1242469,1522662147,727290884,,0.663762133188,-0.149385119968,0.102561167764,-0.0389630074777,0.9986692601549999,-0.011769220962399999,0.0316714115224,0.015798274506700002,0.010229177762600001,0.0123067808807,0.017516215182,-0.0445590291605,0.0038638912306,3.4685969352699995,2.03976273537,13.6489772797,-0.402450203896,1.48900771141,0.165910840034,1242819,1522662147,725395445,,"['head_nod', 'head_pan', 'left_e0', 'left_e1', 'left_s0', 'left_s1', 'left_w0', 'left_w1', 'left_w2', 'right_e0', 'right_e1', 'right_s0', 'right_s1', 'right_w0', 'right_w1', 'right_w2', 'torso_t0']","(0.0, -0.10085923680346595, -0.9069661408372509, 1.5013836961428486, 0.2784175130012026, 0.6442719309118737, 2.3427721582979983, -0.48780589054756157, -0.03259709174256504, 0.5940340601086265, 1.7073206169164654, 0.5576020163963479, -1.0829904362471021, -0.3647039323197571, 0.9959370265346049, 0.4249126782442596, -12.565987119160338)","(0.0, -0.00510508806112579, -0.021991148571003403, 0.01060287520387664, 0.007853981632501214, -0.0011780972448751821, 0.005890486224375911, -0.003926990816250607, -0.001570796326500243, 0.01610066234662749, -0.006675884387626033, -0.005890486224375911, -0.01610066234662749, 0.0, -0.023954643979128706, 0.003926990816250607, 0.0)","(0.0, 0.0, -14.524, 10.916, 0.372, 5.1, 0.076, -2.656, 0.336, 7.68, -17.212, 0.684, -28.88, -0.216, -0.22, 0.0, -20.48)",1225331,1522662150,210695784,robotiq_force_torque_frame_id,0.641999816895,0.75499997139,8.83999862671,-0.11100000143100001,-0.136999994516,-0.10599999874800001,453.0,460.0,464.0,563.0,605.0,500.0,506.0,602.0,637.0,749.0,7,"(0.2483205643413036, -0.8149386625515546, 0.13945448344290956, 0.9999377972961767, -0.004352227397899998, -0.009388168303920898, 0.004161964805750869)",0.12999963760400002,0.03999996185299992,-0.7200012207000004,-0.02499999851040001,0.021999999880999987,-0.00800000131100001
1522690950.25,24476,1522662150,228705883,,1242470,1522662147,737294771,,0.663681909478,-0.14928384265,0.102483824135,-0.038613636507999996,0.998692591419,-0.0116032560169,0.0314238662589,0.012856569177000001,0.005189222654979999,0.00900116215229,-0.012418109273299999,-0.0323053904677,0.0306201460198,3.2301158905,1.8291040659,13.867975235,-0.291489869356,1.4209295511200002,0.20707891881499998,1242820,1522662147,735351656,,"['head_nod', 'head_pan', 'left_e0', 'left_e1', 'left_s0', 'left_s1', 'left_w0', 'left_w1', 'left_w2', 'right_e0', 'right_e1', 'right_s0', 'right_s1', 'right_w0', 'right_w1', 'right_w2', 'torso_t0']","(0.0, -0.1012427320004373, -0.9065826456402796, 1.5021506865367915, 0.2784175130012026, 0.6454224165027879, 2.341621672707084, -0.48780589054756157, -0.03259709174256504, 0.5940340601086265, 1.7069371217194942, 0.5576020163963479, -1.0826069410501307, -0.3643204371227858, 0.9963205217315763, 0.42529617344123094, -12.565987119160338)","(0.0, -0.0023561944897503642, -0.0027488935713754254, 0.003926990816250607, -0.006283185306000972, -0.003141592653000486, 0.021598449489378342, -0.0027488935713754254, 0.003141592653000486, -0.009424777959001457, -0.012173671530376884, 0.022776546734253524, -0.011780972448751823, -0.014529866020127248, -0.005890486224375911, -0.011780972448751823, 0.0)","(0.0, 0.0, -14.652, 10.916, 0.28, 5.004, 0.076, -2.656, 0.352, 7.744, -17.212, 0.592, -28.968, -0.232, -0.208, -0.008, -20.48)",1225332,1522662150,222898938,robotiq_force_torque_frame_id,0.612000083923,1.19500002861,8.74999847412,-0.12099999934399999,-0.143999993801,-0.108999997377,455.0,458.0,463.0,560.0,605.0,498.0,506.0,602.0,637.0,747.0,7,"(0.2483205643413036, -0.8149386625515546, 0.13945448344290956, 0.9999377972961767, -0.004352227397899998, -0.009388168303920898, 0.004161964805750869)",-0.02999973297199998,0.44000005722,-0.09000015259000094,-0.009999997912999978,-0.006999999285000003,-0.0029999986289999947
1522690950.25,24477,1522662150,238699913,,1242471,1522662147,747296168,,0.663640039516,-0.149497108414,0.102659244092,-0.0381250831124,0.9987132930589999,-0.011591267108799999,0.0313668428569,0.00989972377649,0.014198102729599999,0.009025771171370002,0.024781514338599996,-0.0250322947032,0.00161116578805,3.10555291176,1.7463525533700002,13.7482748032,-0.25272351503400003,1.3731563091299999,0.21043658256499997,1242820,1522662147,735351656,,"['head_nod', 'head_pan', 'left_e0', 'left_e1', 'left_s0', 'left_s1', 'left_w0', 'left_w1', 'left_w2', 'right_e0', 'right_e1', 'right_s0', 'right_s1', 'right_w0', 'right_w1', 'right_w2', 'torso_t0']","(0.0, -0.1012427320004373, -0.9065826456402796, 1.5021506865367915, 0.2784175130012026, 0.6454224165027879, 2.341621672707084, -0.48780589054756157, -0.03259709174256504, 0.5940340601086265, 1.7069371217194942, 0.5576020163963479, -1.0826069410501307, -0.3643204371227858, 0.9963205217315763, 0.42529617344123094, -12.565987119160338)","(0.0, -0.0023561944897503642, -0.0027488935713754254, 0.003926990816250607, -0.006283185306000972, -0.003141592653000486, 0.021598449489378342, -0.0027488935713754254, 0.003141592653000486, -0.009424777959001457, -0.012173671530376884, 0.022776546734253524, -0.011780972448751823, -0.014529866020127248, -0.005890486224375911, -0.011780972448751823, 0.0)","(0.0, 0.0, -14.652, 10.916, 0.28, 5.004, 0.076, -2.656, 0.352, 7.744, -17.212, 0.592, -28.968, -0.232, -0.208, -0.008, -20.48)",1225333,1522662150,231042468,robotiq_force_torque_frame_id,0.57200012207,1.7549999713900002,9.039999389650001,-0.112000003457,-0.15099999308599998,-0.115999996662,455.0,458.0,463.0,560.0,605.0,497.0,517.0,611.0,647.0,749.0,7,"(0.2483205643413036, -0.8149386625515546, 0.13945448344290956, 0.9999377972961767, -0.004352227397899998, -0.009388168303920898, 0.004161964805750869)",-0.03999996185300003,0.5599999427800002,0.2900009155300012,0.008999995886999998,-0.006999999284999975,-0.006999999285000003
1522690950.29,24478,1522662150,248703956,,1242471,1522662147,747296168,,0.663640039516,-0.149497108414,0.102659244092,-0.0381250831124,0.9987132930589999,-0.011591267108799999,0.0313668428569,0.00989972377649,0.014198102729599999,0.009025771171370002,0.024781514338599996,-0.0250322947032,0.00161116578805,3.10555291176,1.7463525533700002,13.7482748032,-0.25272351503400003,1.3731563091299999,0.21043658256499997,491359,1522662147,753999872,,['l_gripper_l_finger_joint'],"(0.0032494800670444966,)","(0.0,)","(0.0,)",1225334,1522662150,243245154,robotiq_force_torque_frame_id,1.07200012207,2.29499999285,9.350000762939999,-0.10400000214600001,-0.158000007272,-0.125,455.0,458.0,462.0,554.0,585.0,497.0,517.0,613.0,667.0,749.0,7,"(0.2483205643413036, -0.8149386625515546, 0.13945448344290956, 0.9999377972961767, -0.004352227397899998, -0.009388168303920898, 0.004161964805750869)",0.5,0.5400000214599996,0.3100013732899978,0.008000001310999982,-0.00700001418600002,-0.009000003337999996
1522690950.29,24479,1522662150,258713006,,1242473,1522662147,767296674,,0.6637173207329999,-0.149949218717,0.10216402719,-0.0377275071073,0.9987266838809999,-0.0114854223889,0.031459993382,-0.0008254323982000001,-0.004395459831529999,-0.0013164322193299999,-0.00889476701935,0.005481195102680001,0.00876579650478,3.28969788551,1.97562289238,13.583650589000001,-0.38198184967,1.41080772877,0.16245675087,1242823,1522662147,765367503,,"['head_nod', 'head_pan', 'left_e0', 'left_e1', 'left_s0', 'left_s1', 'left_w0', 'left_w1', 'left_w2', 'right_e0', 'right_e1', 'right_s0', 'right_s1', 'right_w0', 'right_w1', 'right_w2', 'torso_t0']","(0.0, -0.10162622719740866, -0.9065826456402796, 1.5021506865367915, 0.2784175130012026, 0.6450389213058165, 2.3408546823131413, -0.4881893857445329, -0.033364082136507746, 0.5932670697146838, 1.7077041121134369, 0.5568350260024052, -1.0826069410501307, -0.36393694192581444, 0.9951700361406621, 0.42567966863820234, -12.565987119160338)","(0.0, -0.007853981632501214, 0.0011780972448751821, -0.0047123889795007284, 0.00510508806112579, 0.0019634954081253035, -0.015707963265002428, 0.00510508806112579, -0.014922565101752308, -0.008246680714126275, -0.0019634954081253035, 0.003926990816250607, 0.0019634954081253035, -0.003141592653000486, 0.006283185306000972, -0.011388273367126762, 0.0)","(0.0, 0.0, -14.556, 10.916, 0.404, 5.036, 0.084, -2.636, 0.344, 7.68, -17.152, 0.652, -28.88, -0.224, -0.22, 0.016, -20.48)",1225335,1522662150,251383694,robotiq_force_torque_frame_id,1.01200017929,2.2349999904599995,9.62999954224,-0.08500000089410001,-0.173999994993,-0.130999997258,455.0,462.0,462.0,554.0,594.0,494.0,496.0,613.0,667.0,758.0,7,"(0.2483205643413036, -0.8149386625515546, 0.13945448344290956, 0.9999377972961767, -0.004352227397899998, -0.009388168303920898, 0.004161964805750869)",-0.05999994277999998,-0.06000000239000025,0.2799987793000014,0.019000001251900003,-0.015999987721000003,-0.005999997257999989
1522690950.29,24480,1522662150,268743038,,1242474,1522662147,777311955,,0.663366137658,-0.148945035254,0.102307250243,-0.039076094096400005,0.9986828674349999,-0.011479449829799999,0.031205951253499998,0.0144554412971,0.007214564838959999,0.0063830677850699995,0.0194304580059,-0.037047842744699994,0.0038001547071100004,3.64048743248,1.9508379697799998,13.6079311371,-0.39508774876599995,1.55943405628,0.169073760509,1242823,1522662147,765367503,,"['head_nod', 'head_pan', 'left_e0', 'left_e1', 'left_s0', 'left_s1', 'left_w0', 'left_w1', 'left_w2', 'right_e0', 'right_e1', 'right_s0', 'right_s1', 'right_w0', 'right_w1', 'right_w2', 'torso_t0']","(0.0, -0.10162622719740866, -0.9065826456402796, 1.5021506865367915, 0.2784175130012026, 0.6450389213058165, 2.3408546823131413, -0.4881893857445329, -0.033364082136507746, 0.5932670697146838, 1.7077041121134369, 0.5568350260024052, -1.0826069410501307, -0.36393694192581444, 0.9951700361406621, 0.42567966863820234, -12.565987119160338)","(0.0, -0.007853981632501214, 0.0011780972448751821, -0.0047123889795007284, 0.00510508806112579, 0.0019634954081253035, -0.015707963265002428, 0.00510508806112579, -0.014922565101752308, -0.008246680714126275, -0.0019634954081253035, 0.003926990816250607, 0.0019634954081253035, -0.003141592653000486, 0.006283185306000972, -0.011388273367126762, 0.0)","(0.0, 0.0, -14.556, 10.916, 0.404, 5.036, 0.084, -2.636, 0.344, 7.68, -17.152, 0.652, -28.88, -0.224, -0.22, 0.016, -20.48)",1225336,1522662150,263725755,robotiq_force_torque_frame_id,0.971999740601,1.9450000286099998,9.94999923706,-0.0799999982119,-0.181999996305,-0.129999995232,455.0,462.0,465.0,572.0,594.0,468.0,496.0,615.0,659.0,758.0,7,"(0.2483205643413036, -0.8149386625515546, 0.13945448344290956, 0.9999377972961767, -0.004352227397899998, -0.009388168303920898, 0.004161964805750869)",-0.04000043868899994,-0.28999996184999977,0.3199996948199999,0.005000002682200008,-0.008000001311999988,0.0010000020259999798
