time,.header.seq,.header.stamp.secs,.header.stamp.nsecs,.header.frame_id,.endpoint_state.header.seq,.endpoint_state.header.stamp.secs,.endpoint_state.header.stamp.nsecs,.endpoint_state.header.frame_id,.endpoint_state.pose.position.x,.endpoint_state.pose.position.y,.endpoint_state.pose.position.z,.endpoint_state.pose.orientation.x,.endpoint_state.pose.orientation.y,.endpoint_state.pose.orientation.z,.endpoint_state.pose.orientation.w,.endpoint_state.twist.linear.x,.endpoint_state.twist.linear.y,.endpoint_state.twist.linear.z,.endpoint_state.twist.angular.x,.endpoint_state.twist.angular.y,.endpoint_state.twist.angular.z,.endpoint_state.wrench.force.x,.endpoint_state.wrench.force.y,.endpoint_state.wrench.force.z,.endpoint_state.wrench.torque.x,.endpoint_state.wrench.torque.y,.endpoint_state.wrench.torque.z,.joint_state.header.seq,.joint_state.header.stamp.secs,.joint_state.header.stamp.nsecs,.joint_state.header.frame_id,.joint_state.name,.joint_state.position,.joint_state.velocity,.joint_state.effort,.wrench_stamped.header.seq,.wrench_stamped.header.stamp.secs,.wrench_stamped.header.stamp.nsecs,.wrench_stamped.header.frame_id,.wrench_stamped.wrench.force.x,.wrench_stamped.wrench.force.y,.wrench_stamped.wrench.force.z,.wrench_stamped.wrench.torque.x,.wrench_stamped.wrench.torque.y,.wrench_stamped.wrench.torque.z,.tactile_values.tactile_values_0,.tactile_values.tactile_values_1,.tactile_values.tactile_values_2,.tactile_values.tactile_values_3,.tactile_values.tactile_values_4,.tactile_values.tactile_values_5,.tactile_values.tactile_values_6,.tactile_values.tactile_values_7,.tactile_values.tactile_values_8,.tactile_values.tactile_values_9,.tag,.goal_vector,.delta_wrench.force.x,.delta_wrench.force.y,.delta_wrench.force.z,.delta_wrench.torque.x,.delta_wrench.torque.y,.delta_wrench.torque.z
1522690485.04,19291,1522661685,32085895,,1195949,1522661682,526906527,,0.665858378638,-0.224573277998,0.11100133024700001,-0.0276660011445,0.998855088029,-0.0115740818106,0.0372712507135,0.0024085478581500003,0.009657215583989999,-0.00123615489993,0.017987115173400004,-0.0116335839998,-0.011925830895,2.62202215195,1.4108400344799998,11.6164360046,-0.10677970945800001,1.04496657848,0.18701164424400002,1196299,1522661682,524977102,,"['head_nod', 'head_pan', 'left_e0', 'left_e1', 'left_s0', 'left_s1', 'left_w0', 'left_w1', 'left_w2', 'right_e0', 'right_e1', 'right_s0', 'right_s1', 'right_w0', 'right_w1', 'right_w2', 'torso_t0']","(0.0, -0.1012427320004373, -0.9069661408372509, 1.50176719133982, 0.27880100819817394, 0.6446554261088451, 2.3420051679040554, -0.4881893857445329, -0.03259709174256504, 0.6024709544419963, 1.7460536318105722, 0.41647578391088985, -1.1244079175200083, -0.34092723010753323, 0.9767622666860372, 0.3121650903346817, -12.565987119160338)","(0.0, 0.004319689897875668, -0.005497787142750851, 0.009032078877376396, 0.00510508806112579, 0.0007853981632501215, 0.005890486224375911, 0.008246680714126275, -0.001570796326500243, -0.0019634954081253035, 0.007461282550876154, 0.005890486224375911, -0.0023561944897503642, 0.014922565101752308, -0.022383847652628464, 0.011388273367126762, 0.0)","(0.0, 0.0, -14.684, 10.852, 0.0, 5.004, 0.068, -2.636, 0.372, 6.988, -16.584, 0.684, -27.384, -0.092, -0.388, -0.036, -20.48)",1178863,1522661685,24838682,robotiq_force_torque_frame_id,-0.630999946594,0.9850000381470001,6.79300231934,-0.09000000357629999,-0.0769999995828,-0.0869999974966,117.0,126.0,331.0,726.0,727.0,375.0,498.0,599.0,684.0,697.0,7,"(0.318305573199064, -0.815553406738067, 0.13814275757049982, 0.9999377972961766, -0.00435222739790031, -0.00938816830392101, 0.004161964805750848)",0.0,0.0,0.0,0.0,0.0,0.0
1522690485.08,19292,1522661685,41013956,,1195949,1522661682,526906527,,0.665858378638,-0.224573277998,0.11100133024700001,-0.0276660011445,0.998855088029,-0.0115740818106,0.0372712507135,0.0024085478581500003,0.009657215583989999,-0.00123615489993,0.017987115173400004,-0.0116335839998,-0.011925830895,2.62202215195,1.4108400344799998,11.6164360046,-0.10677970945800001,1.04496657848,0.18701164424400002,1196300,1522661682,535004233,,"['head_nod', 'head_pan', 'left_e0', 'left_e1', 'left_s0', 'left_s1', 'left_w0', 'left_w1', 'left_w2', 'right_e0', 'right_e1', 'right_s0', 'right_s1', 'right_w0', 'right_w1', 'right_w2', 'torso_t0']","(0.0, -0.1004757416064946, -0.9069661408372509, 1.5025341817337627, 0.2784175130012026, 0.6450389213058165, 2.3423886631010267, -0.48780589054756157, -0.03259709174256504, 0.6028544496389676, 1.7472041174014863, 0.41609228871391846, -1.124024422323037, -0.34092723010753323, 0.9767622666860372, 0.31139809994073897, -12.565987119160338)","(0.0, 0.0027488935713754254, 0.0019634954081253035, -0.0011780972448751821, -0.019634954081253035, 0.006675884387626033, -0.018064157754752792, 0.001570796326500243, -0.007853981632501214, 0.007461282550876154, -0.01610066234662749, 0.012173671530376884, -0.004319689897875668, 0.003141592653000486, -0.03337942193813016, 0.0, 0.0)","(0.0, 0.0, -14.652, 10.916, 0.028, 4.968, 0.084, -2.616, 0.344, 6.86, -16.584, 0.748, -27.384, -0.108, -0.328, -0.028, -20.48)",1178864,1522661685,33001926,robotiq_force_torque_frame_id,-0.5410000324249999,1.1549998760200002,6.873000335689999,-0.0810000002384,-0.09600000083450001,-0.0769999995828,117.0,124.0,331.0,726.0,727.0,375.0,505.0,599.0,687.0,697.0,7,"(0.318305573199064, -0.815553406738067, 0.13814275757049982, 0.9999377972961766, -0.00435222739790031, -0.00938816830392101, 0.004161964805750848)",0.0899999141690001,0.1699998378730001,0.07999801634999848,0.009000003337899992,-0.01900000125170001,0.009999997913800004
1522690485.08,19293,1522661685,56166887,,1195951,1522661682,546941145,,0.665794008871,-0.22373081656500002,0.111011998411,-0.028714758078999997,0.998821356667,-0.011444863645799998,0.0374215877636,0.013380534643500001,0.0034289242642099997,0.0011273968167200001,0.0102982077884,-0.0310580542598,0.0036890942733000002,2.52253913879,1.24852490425,11.882900238,-0.0569173395634,1.1085858345,0.214086294174,472945,1522661682,548999936,,['r_gripper_l_finger_joint'],"(0.004267609721273184,)","(0.0,)","(0.30215054750442505,)",1178866,1522661685,53405352,robotiq_force_torque_frame_id,-0.660999917984,1.45500006676,7.043002319339999,-0.101999998093,-0.125,-0.0879999995232,110.0,119.0,368.0,718.0,740.0,393.0,505.0,594.0,682.0,687.0,7,"(0.318305573199064, -0.815553406738067, 0.13814275757049982, 0.9999377972961766, -0.00435222739790031, -0.00938816830392101, 0.004161964805750848)",-0.1199998855590001,0.30000019073999984,0.17000198365000063,-0.020999997854600008,-0.028999999165499987,-0.010999999940400004
1522690485.08,19294,1522661685,61326980,,1195951,1522661682,546941145,,0.665794008871,-0.22373081656500002,0.111011998411,-0.028714758078999997,0.998821356667,-0.011444863645799998,0.0374215877636,0.013380534643500001,0.0034289242642099997,0.0011273968167200001,0.0102982077884,-0.0310580542598,0.0036890942733000002,2.52253913879,1.24852490425,11.882900238,-0.0569173395634,1.1085858345,0.214086294174,1196302,1522661682,554998395,,"['head_nod', 'head_pan', 'left_e0', 'left_e1', 'left_s0', 'left_s1', 'left_w0', 'left_w1', 'left_w2', 'right_e0', 'right_e1', 'right_s0', 'right_s1', 'right_w0', 'right_w1', 'right_w2', 'torso_t0']","(0.0, -0.10085923680346595, -0.9069661408372509, 1.50176719133982, 0.2784175130012026, 0.6446554261088451, 2.341621672707084, -0.48703890015361884, -0.03259709174256504, 0.6028544496389676, 1.7460536318105722, 0.41647578391088985, -1.124024422323037, -0.34092723010753323, 0.9759952762920945, 0.31178159513771037, -12.565987119160338)","(0.0, 0.012959069693627005, 0.011388273367126762, -0.0035342917346255468, -0.00510508806112579, 0.006675884387626033, 0.0019634954081253035, 0.003926990816250607, 0.014922565101752308, -0.003141592653000486, -0.014922565101752308, 0.014529866020127248, -0.0047123889795007284, 0.007853981632501214, -0.02513274122400389, 0.0, 0.0)","(0.0, 0.0, -14.588, 10.884, 0.06, 5.004, 0.076, -2.628, 0.364, 6.924, -16.552, 0.496, -27.352, -0.084, -0.24, -0.028, -20.48)",1178867,1522661685,61529035,robotiq_force_torque_frame_id,-0.420999908447,1.84499993324,7.023001861569999,-0.112000003457,-0.138999998569,-0.10000000149,105.0,119.0,368.0,718.0,746.0,393.0,499.0,594.0,682.0,687.0,7,"(0.318305573199064, -0.815553406738067, 0.13814275757049982, 0.9999377972961766, -0.00435222739790031, -0.00938816830392101, 0.004161964805750848)",0.24000000953700001,0.38999986647999996,-0.020000457770000146,-0.01000000536399999,-0.013999998569,-0.012000001966799997
1522690485.08,19295,1522661685,71021080,,1195951,1522661682,546941145,,0.665794008871,-0.22373081656500002,0.111011998411,-0.028714758078999997,0.998821356667,-0.011444863645799998,0.0374215877636,0.013380534643500001,0.0034289242642099997,0.0011273968167200001,0.0102982077884,-0.0310580542598,0.0036890942733000002,2.52253913879,1.24852490425,11.882900238,-0.0569173395634,1.1085858345,0.214086294174,1196303,1522661682,565002191,,"['head_nod', 'head_pan', 'left_e0', 'left_e1', 'left_s0', 'left_s1', 'left_w0', 'left_w1', 'left_w2', 'right_e0', 'right_e1', 'right_s0', 'right_s1', 'right_w0', 'right_w1', 'right_w2', 'torso_t0']","(0.0, -0.10085923680346595, -0.9069661408372509, 1.5021506865367915, 0.27880100819817394, 0.6450389213058165, 2.3420051679040554, -0.4881893857445329, -0.03259709174256504, 0.603237944835939, 1.7464371270075436, 0.4168592791078612, -1.125174907913951, -0.34131072530450457, 0.9759952762920945, 0.31139809994073897, -12.565987119160338)","(0.0, -0.01021017612225158, -0.003141592653000486, 0.00510508806112579, 0.013351768775252066, -0.005497787142750851, -0.012173671530376884, -0.0047123889795007284, -0.013744467856877126, 0.0027488935713754254, 0.01021017612225158, 0.006283185306000972, 0.0035342917346255468, 0.01531526418337737, -0.03769911183600583, 0.00039269908162506076, 0.0)","(0.0, 0.0, -14.62, 10.948, 0.06, 5.004, 0.096, -2.648, 0.364, 6.704, -16.552, 0.652, -27.296, -0.084, -0.208, -0.044, -20.48)",1178867,1522661685,61529035,robotiq_force_torque_frame_id,-0.420999908447,1.84499993324,7.023001861569999,-0.112000003457,-0.138999998569,-0.10000000149,105.0,119.0,380.0,703.0,746.0,372.0,499.0,594.0,687.0,690.0,7,"(0.318305573199064, -0.815553406738067, 0.13814275757049982, 0.9999377972961766, -0.00435222739790031, -0.00938816830392101, 0.004161964805750848)",0.0,0.0,0.0,0.0,0.0,0.0
1522690485.12,19296,1522661685,80990076,,1195954,1522661682,576913058,,0.665775010186,-0.22509719625100003,0.11090389628799999,-0.0273118268437,0.99886236626,-0.011526123574200001,0.037352186811699994,0.011678275270200001,0.00763091096506,0.00483691905581,-0.000465505189392,-0.0263778347677,0.015915468093299998,2.94070601463,1.01492345333,11.752285003699999,-0.0565803684294,1.3427965641,0.17920880019699997,472946,1522661682,561999872,,['l_gripper_l_finger_joint'],"(0.0032494800670444966,)","(0.0,)","(0.0,)",1178868,1522661685,73752555,robotiq_force_torque_frame_id,-0.610999965668,2.2650000095400005,7.4430000305199995,-0.097000002861,-0.159999996424,-0.10800000280099999,108.0,119.0,380.0,719.0,747.0,383.0,502.0,605.0,690.0,691.0,7,"(0.318305573199064, -0.815553406738067, 0.13814275757049982, 0.9999377972961766, -0.00435222739790031, -0.00938816830392101, 0.004161964805750848)",-0.19000005722099994,0.42000007630000047,0.4199981689500003,0.015000000595999999,-0.020999997855000008,-0.008000001310999982
1522690485.12,19297,1522661685,91197967,,1195954,1522661682,576913058,,0.665775010186,-0.22509719625100003,0.11090389628799999,-0.0273118268437,0.99886236626,-0.011526123574200001,0.037352186811699994,0.011678275270200001,0.00763091096506,0.00483691905581,-0.000465505189392,-0.0263778347677,0.015915468093299998,2.94070601463,1.01492345333,11.752285003699999,-0.0565803684294,1.3427965641,0.17920880019699997,1196306,1522661682,594992857,,"['head_nod', 'head_pan', 'left_e0', 'left_e1', 'left_s0', 'left_s1', 'left_w0', 'left_w1', 'left_w2', 'right_e0', 'right_e1', 'right_s0', 'right_s1', 'right_w0', 'right_w1', 'right_w2', 'torso_t0']","(0.0, -0.10085923680346595, -0.9065826456402796, 1.5010002009458774, 0.27880100819817394, 0.6446554261088451, 2.341621672707084, -0.48742239535059023, -0.03183010134862233, 0.6017039640480536, 1.7464371270075436, 0.41724277430483253, -1.1247914127169796, -0.34054373491056183, 0.9756117810951231, 0.31139809994073897, -12.565987119160338)","(0.0, -0.003926990816250607, -0.01060287520387664, 0.005890486224375911, -0.004319689897875668, -0.00039269908162506076, 0.008639379795751335, 0.014922565101752308, 0.01649336142825255, -0.01531526418337737, -0.0007853981632501215, 0.0035342917346255468, 0.01688606050987761, -0.003926990816250607, -0.004319689897875668, 0.009424777959001457, 0.0)","(0.0, 0.0, -14.588, 10.948, 0.06, 5.068, 0.076, -2.664, 0.372, 6.64, -16.492, 0.592, -27.296, -0.108, -0.22, -0.028, -20.48)",1178869,1522661685,81915811,robotiq_force_torque_frame_id,-1.06100001335,1.96500005722,7.43300170898,-0.104999996722,-0.172000005841,-0.103000000119,108.0,122.0,362.0,719.0,747.0,376.0,502.0,605.0,689.0,691.0,7,"(0.318305573199064, -0.815553406738067, 0.13814275757049982, 0.9999377972961766, -0.00435222739790031, -0.00938816830392101, 0.004161964805750848)",-0.45000004768199997,-0.29999995232000054,-0.009998321539999466,-0.007999993861000004,-0.012000009416999996,0.005000002681999988
1522690485.12,19298,1522661685,101006031,,1195956,1522661682,596906138,,0.666086931463,-0.22434029602400002,0.110999109452,-0.0280540346649,0.998829507192,-0.0114963847449,0.03768845763630001,-0.00189533911849,-0.00592750690996,-0.009323709357780001,-0.0009249343859810001,0.0120298923201,-0.0176854623318,2.95406031609,1.28514909744,11.5298614502,-0.237115651369,1.3013824224500001,0.11660764366399999,472947,1522661682,599000064,,['r_gripper_l_finger_joint'],"(0.004267609721273184,)","(0.0,)","(0.3096774220466614,)",1178870,1522661685,94290474,robotiq_force_torque_frame_id,-0.801000022888,1.49500002861,7.453002166749999,-0.097999997437,-0.186000004411,-0.09899999946360001,107.0,122.0,360.0,723.0,744.0,376.0,504.0,630.0,689.0,706.0,7,"(0.318305573199064, -0.815553406738067, 0.13814275757049982, 0.9999377972961766, -0.00435222739790031, -0.00938816830392101, 0.004161964805750848)",0.25999999046199995,-0.4700000286099999,0.020000457769999258,0.006999999285000003,-0.013999998570000005,0.004000000655399988
1522690485.12,19299,1522661685,111064910,,1195956,1522661682,596906138,,0.666086931463,-0.22434029602400002,0.110999109452,-0.0280540346649,0.998829507192,-0.0114963847449,0.03768845763630001,-0.00189533911849,-0.00592750690996,-0.009323709357780001,-0.0009249343859810001,0.0120298923201,-0.0176854623318,2.95406031609,1.28514909744,11.5298614502,-0.237115651369,1.3013824224500001,0.11660764366399999,1196307,1522661682,605007232,,"['head_nod', 'head_pan', 'left_e0', 'left_e1', 'left_s0', 'left_s1', 'left_w0', 'left_w1', 'left_w2', 'right_e0', 'right_e1', 'right_s0', 'right_s1', 'right_w0', 'right_w1', 'right_w2', 'torso_t0']","(0.0, -0.1012427320004373, -0.9069661408372509, 1.50176719133982, 0.27880100819817394, 0.6450389213058165, 2.3412381775101125, -0.48703890015361884, -0.03259709174256504, 0.6024709544419963, 1.7464371270075436, 0.41609228871391846, -1.1247914127169796, -0.33977674451661916, 0.9756117810951231, 0.31178159513771037, -12.565987119160338)","(0.0, 0.013351768775252066, 0.0035342917346255468, -0.00039269908162506076, -0.005497787142750851, -0.0023561944897503642, -0.0070685834692510935, 0.00039269908162506076, 0.005890486224375911, 0.006283185306000972, -0.012959069693627005, -0.001570796326500243, -0.0011780972448751821, 0.024347343060753767, -0.027881634795379313, -0.0027488935713754254, 0.0)","(0.0, 0.0, -14.72, 10.916, 0.028, 5.036, 0.06, -2.676, 0.336, 6.672, -16.404, 0.496, -27.208, -0.116, -0.208, -0.044, -20.48)",1178871,1522661685,102445800,robotiq_force_torque_frame_id,0.288999891281,2.28499999046,7.512999725339999,-0.109999999404,-0.187999993563,-0.09899999946360001,107.0,121.0,360.0,723.0,761.0,375.0,518.0,630.0,703.0,706.0,7,"(0.318305573199064, -0.815553406738067, 0.13814275757049982, 0.9999377972961766, -0.00435222739790031, -0.00938816830392101, 0.004161964805750848)",1.089999914169,0.7899999618499998,0.05999755859000011,-0.012000001967000004,-0.0019999891520000035,0.0
1522690485.12,19300,1522661685,121000051,,1195958,1522661682,616911879,,0.666092972629,-0.22436093998599999,0.110818286027,-0.027380973431799998,0.998853297368,-0.011198121098,0.03764272458119999,0.014435671928,-0.00811048137346,0.0126085528367,0.006218086139720001,-0.030401909873900002,-0.019420127467700003,2.86763119698,1.12354147434,11.5738964081,-0.134707257152,1.3336292505299998,0.14985889196399999,1196309,1522661682,624970636,,"['head_nod', 'head_pan', 'left_e0', 'left_e1', 'left_s0', 'left_s1', 'left_w0', 'left_w1', 'left_w2', 'right_e0', 'right_e1', 'right_s0', 'right_s1', 'right_w0', 'right_w1', 'right_w2', 'torso_t0']","(0.0, -0.10085923680346595, -0.9061991504433081, 1.5013836961428486, 0.27880100819817394, 0.6454224165027879, 2.3423886631010267, -0.48703890015361884, -0.03298058693953639, 0.6020874592450249, 1.7468206222045148, 0.4168592791078612, -1.1255584031109223, -0.34092723010753323, 0.9756117810951231, 0.31139809994073897, -12.565987119160338)","(0.0, 0.003926990816250607, -0.003926990816250607, 0.011780972448751823, -0.001570796326500243, 0.0027488935713754254, 0.022776546734253524, -0.02513274122400389, -0.0070685834692510935, -0.01727875959150267, 0.012566370612001944, 0.02552544030562895, 0.009032078877376396, -0.006283185306000972, -0.013744467856877126, -0.011780972448751823, 0.0)","(0.0, 0.0, -14.492, 10.884, 0.06, 5.004, 0.084, -2.664, 0.364, 6.736, -16.372, 0.496, -27.208, -0.108, -0.168, -0.044, -20.48)",1178872,1522661685,114669330,robotiq_force_torque_frame_id,0.839000082016,2.1349998951,7.91300125122,-0.0930000022054,-0.202000007033,-0.115999996662,103.0,121.0,362.0,715.0,761.0,375.0,518.0,625.0,702.0,713.0,7,"(0.318305573199064, -0.815553406738067, 0.13814275757049982, 0.9999377972961766, -0.00435222739790031, -0.00938816830392101, 0.004161964805750848)",0.550000190735,-0.1500000953599998,0.4000015258800005,0.0169999971986,-0.014000013469999989,-0.016999997198399994
1522690485.13,19301,1522661685,131009101,,1195960,1522661682,636907968,,0.666424652515,-0.224346747734,0.11109091365999998,-0.027836831614599995,0.99881249891,-0.0115454713518,0.038280607603000005,0.0181160283365,0.00156983193444,0.0082820052372,-0.00961409582776,-0.04289661587119999,0.019628606210900002,2.4517378807099997,0.937770962715,11.4686746597,-0.041495267301800004,1.19191765785,0.16871753335,1196309,1522661682,624970636,,"['head_nod', 'head_pan', 'left_e0', 'left_e1', 'left_s0', 'left_s1', 'left_w0', 'left_w1', 'left_w2', 'right_e0', 'right_e1', 'right_s0', 'right_s1', 'right_w0', 'right_w1', 'right_w2', 'torso_t0']","(0.0, -0.10085923680346595, -0.9061991504433081, 1.5013836961428486, 0.27880100819817394, 0.6454224165027879, 2.3423886631010267, -0.48703890015361884, -0.03298058693953639, 0.6020874592450249, 1.7468206222045148, 0.4168592791078612, -1.1255584031109223, -0.34092723010753323, 0.9756117810951231, 0.31139809994073897, -12.565987119160338)","(0.0, 0.003926990816250607, -0.003926990816250607, 0.011780972448751823, -0.001570796326500243, 0.0027488935713754254, 0.022776546734253524, -0.02513274122400389, -0.0070685834692510935, -0.01727875959150267, 0.012566370612001944, 0.02552544030562895, 0.009032078877376396, -0.006283185306000972, -0.013744467856877126, -0.011780972448751823, 0.0)","(0.0, 0.0, -14.492, 10.884, 0.06, 5.004, 0.084, -2.664, 0.364, 6.736, -16.372, 0.496, -27.208, -0.108, -0.168, -0.044, -20.48)",1178873,1522661685,122816406,robotiq_force_torque_frame_id,0.868999814987,1.9950000286099998,8.17299957275,-0.082000002265,-0.19900000095400003,-0.126000002027,103.0,121.0,362.0,715.0,755.0,375.0,524.0,617.0,702.0,714.0,7,"(0.318305573199064, -0.815553406738067, 0.13814275757049982, 0.9999377972961766, -0.00435222739790031, -0.00938816830392101, 0.004161964805750848)",0.029999732971000004,-0.13999986649000018,0.25999832152999947,0.010999999940400004,0.0030000060789999727,-0.010000005365000009
1522690485.17,19302,1522661685,141104936,,1195960,1522661682,636907968,,0.666424652515,-0.224346747734,0.11109091365999998,-0.027836831614599995,0.99881249891,-0.0115454713518,0.038280607603000005,0.0181160283365,0.00156983193444,0.0082820052372,-0.00961409582776,-0.04289661587119999,0.019628606210900002,2.4517378807099997,0.937770962715,11.4686746597,-0.041495267301800004,1.19191765785,0.16871753335,472949,1522661682,649999872,,['r_gripper_l_finger_joint'],"(0.004267609721273184,)","(0.0,)","(0.30215054750442505,)",1178874,1522661685,135034862,robotiq_force_torque_frame_id,0.0389998912811,3.01500000954,8.5629989624,-0.06499999761580001,-0.21799999475499998,-0.135000005364,103.0,124.0,356.0,713.0,755.0,374.0,524.0,617.0,694.0,714.0,7,"(0.318305573199064, -0.815553406738067, 0.13814275757049982, 0.9999377972961766, -0.00435222739790031, -0.00938816830392101, 0.004161964805750848)",-0.8299999237058999,1.0199999809300002,0.3899993896500007,0.017000004649199985,-0.018999993800999954,-0.00900000333699999
1522690485.17,19303,1522661685,151000976,,1195961,1522661682,646911540,,0.666519882797,-0.224872786074,0.111428739198,-0.0271839282034,0.9988389127330001,-0.0115761604465,0.038050663162599994,0.00618959075689,0.010646257853899999,-0.0007109456901030001,0.00627378727284,-0.0111692899351,0.0033901593717300003,2.32620310783,0.9291236400599999,11.4764328003,-0.021048506721900003,1.1576217412899998,0.17706358432799998,472949,1522661682,649999872,,['r_gripper_l_finger_joint'],"(0.004267609721273184,)","(0.0,)","(0.30215054750442505,)",1178876,1522661685,151328511,robotiq_force_torque_frame_id,0.0589998722076,3.29499998093,8.693000030519999,-0.06599999964240001,-0.207000002265,-0.123999997973,107.0,124.0,356.0,727.0,770.0,377.0,518.0,619.0,694.0,715.0,7,"(0.318305573199064, -0.815553406738067, 0.13814275757049982, 0.9999377972961766, -0.00435222739790031, -0.00938816830392101, 0.004161964805750848)",0.019999980926500002,0.2799999713900001,0.13000106811999856,-0.0010000020265999998,0.010999992489999971,0.011000007391000002
1522690485.17,19304,1522661685,161063909,,1195963,1522661682,666925941,,0.66610126762,-0.224345736919,0.110572510586,-0.0275194990462,0.998847360661,-0.0111032683899,0.0377272408596,0.0009162786497889999,-0.0218408592433,-0.00101713289631,-0.00312805689424,0.00594523560571,-0.049678436843300006,2.28140282631,0.887730538845,11.3487787247,-0.038968939334199995,1.11529195309,0.174248918891,472950,1522661682,664000000,,['l_gripper_l_finger_joint'],"(0.0032494800670444966,)","(0.0,)","(0.0,)",1178876,1522661685,151328511,robotiq_force_torque_frame_id,0.0589998722076,3.29499998093,8.693000030519999,-0.06599999964240001,-0.207000002265,-0.123999997973,107.0,123.0,356.0,727.0,766.0,383.0,528.0,619.0,692.0,715.0,7,"(0.318305573199064, -0.815553406738067, 0.13814275757049982, 0.9999377972961766, -0.00435222739790031, -0.00938816830392101, 0.004161964805750848)",0.0,0.0,0.0,0.0,0.0,0.0
1522690485.21,19305,1522661685,171035051,,1195963,1522661682,666925941,,0.66610126762,-0.224345736919,0.110572510586,-0.0275194990462,0.998847360661,-0.0111032683899,0.0377272408596,0.0009162786497889999,-0.0218408592433,-0.00101713289631,-0.00312805689424,0.00594523560571,-0.049678436843300006,2.28140282631,0.887730538845,11.3487787247,-0.038968939334199995,1.11529195309,0.174248918891,1196313,1522661682,664995271,,"['head_nod', 'head_pan', 'left_e0', 'left_e1', 'left_s0', 'left_s1', 'left_w0', 'left_w1', 'left_w2', 'right_e0', 'right_e1', 'right_s0', 'right_s1', 'right_w0', 'right_w1', 'right_w2', 'torso_t0']","(0.0, -0.1004757416064946, -0.9069661408372509, 1.50176719133982, 0.2784175130012026, 0.6446554261088451, 2.3412381775101125, -0.48742239535059023, -0.03259709174256504, 0.6020874592450249, 1.7468206222045148, 0.41647578391088985, -1.124024422323037, -0.34054373491056183, 0.9744612955042091, 0.3121650903346817, -12.565987119160338)","(0.0, -0.0023561944897503642, 0.007853981632501214, -0.006283185306000972, 0.001570796326500243, 0.0070685834692510935, 0.001570796326500243, 0.014529866020127248, -0.0007853981632501215, -0.02081305132612822, -0.005497787142750851, -0.018064157754752792, 0.0007853981632501215, 0.006675884387626033, 0.005890486224375911, 0.007853981632501214, 0.0)","(0.0, 0.0, -14.752, 10.884, 0.028, 5.036, 0.076, -2.636, 0.38, 6.608, -16.224, 0.404, -27.176, -0.092, -0.16, -0.044, -20.48)",1178877,1522661685,163541591,robotiq_force_torque_frame_id,-0.120999956131,3.04499998093,8.80300064087,-0.06499999761580001,-0.19799999892700001,-0.133000001311,103.0,123.0,367.0,733.0,766.0,383.0,528.0,613.0,692.0,712.0,7,"(0.318305573199064, -0.815553406738067, 0.13814275757049982, 0.9999377972961766, -0.00435222739790031, -0.00938816830392101, 0.004161964805750848)",-0.1799998283386,-0.25,0.11000061035000108,0.0010000020265999998,0.009000003337999996,-0.00900000333800001
1522690485.21,19306,1522661685,180999994,,1195964,1522661682,676907703,,0.666551095346,-0.224571205699,0.111072629774,-0.027472392850799998,0.998837573559,-0.0111629619258,0.038002073097,0.00260601114119,-0.0185473955139,0.00775584163671,-0.0156712386223,-0.0024862863091999997,-0.007461774334220001,2.29935312271,0.974655091763,11.28170681,-0.06902700662610001,1.0927836895,0.162326529622,1196313,1522661682,664995271,,"['head_nod', 'head_pan', 'left_e0', 'left_e1', 'left_s0', 'left_s1', 'left_w0', 'left_w1', 'left_w2', 'right_e0', 'right_e1', 'right_s0', 'right_s1', 'right_w0', 'right_w1', 'right_w2', 'torso_t0']","(0.0, -0.1004757416064946, -0.9069661408372509, 1.50176719133982, 0.2784175130012026, 0.6446554261088451, 2.3412381775101125, -0.48742239535059023, -0.03259709174256504, 0.6020874592450249, 1.7468206222045148, 0.41647578391088985, -1.124024422323037, -0.34054373491056183, 0.9744612955042091, 0.3121650903346817, -12.565987119160338)","(0.0, -0.0023561944897503642, 0.007853981632501214, -0.006283185306000972, 0.001570796326500243, 0.0070685834692510935, 0.001570796326500243, 0.014529866020127248, -0.0007853981632501215, -0.02081305132612822, -0.005497787142750851, -0.018064157754752792, 0.0007853981632501215, 0.006675884387626033, 0.005890486224375911, 0.007853981632501214, 0.0)","(0.0, 0.0, -14.752, 10.884, 0.028, 5.036, 0.076, -2.636, 0.38, 6.608, -16.224, 0.404, -27.176, -0.092, -0.16, -0.044, -20.48)",1178878,1522661685,171690419,robotiq_force_torque_frame_id,0.299000120163,2.34499993324,8.79300231934,-0.0579999983311,-0.19799999892700001,-0.133000001311,103.0,129.0,367.0,733.0,766.0,384.0,540.0,640.0,686.0,706.0,7,"(0.318305573199064, -0.815553406738067, 0.13814275757049982, 0.9999377972961766, -0.00435222739790031, -0.00938816830392101, 0.004161964805750848)",0.420000076294,-0.7000000476900001,-0.009998321530000354,0.006999999284700013,0.0,0.0
1522690485.21,19307,1522661685,191040992,,1195966,1522661682,696905254,,0.6665028806109999,-0.22464481441300002,0.110919950371,-0.0272678558822,0.998840310608,-0.011342291495700001,0.0380243391092,0.00768163662576,0.0122251156035,0.00371653804235,0.0100324502627,-0.0198732260802,0.0139070526416,2.2874312400799997,1.02670347691,11.3469781876,-0.0598075352609,1.10635817051,0.172190621495,472951,1522661682,700999936,,['r_gripper_l_finger_joint'],"(0.004267609721273184,)","(0.0,)","(0.30215054750442505,)",1178880,1522661685,192087085,robotiq_force_torque_frame_id,-0.47100009918200003,2.83499994278,8.183001708980001,-0.0839999988675,-0.181999996305,-0.125,103.0,127.0,367.0,734.0,766.0,384.0,540.0,640.0,693.0,706.0,7,"(0.318305573199064, -0.815553406738067, 0.13814275757049982, 0.9999377972961766, -0.00435222739790031, -0.00938816830392101, 0.004161964805750848)",-0.770000219345,0.4900000095400001,-0.6100006103599984,-0.026000000536399996,0.01600000262200002,0.00800000131100001
1522690485.21,19308,1522661685,201179027,,1195966,1522661682,696905254,,0.6665028806109999,-0.22464481441300002,0.110919950371,-0.0272678558822,0.998840310608,-0.011342291495700001,0.0380243391092,0.00768163662576,0.0122251156035,0.00371653804235,0.0100324502627,-0.0198732260802,0.0139070526416,2.2874312400799997,1.02670347691,11.3469781876,-0.0598075352609,1.10635817051,0.172190621495,1196316,1522661682,695024227,,"['head_nod', 'head_pan', 'left_e0', 'left_e1', 'left_s0', 'left_s1', 'left_w0', 'left_w1', 'left_w2', 'right_e0', 'right_e1', 'right_s0', 'right_s1', 'right_w0', 'right_w1', 'right_w2', 'torso_t0']","(0.0, -0.10085923680346595, -0.9069661408372509, 1.5025341817337627, 0.27880100819817394, 0.6454224165027879, 2.3423886631010267, -0.4866554049566475, -0.03298058693953639, 0.6013204688510821, 1.7460536318105722, 0.4168592791078612, -1.1244079175200083, -0.34054373491056183, 0.9748447907011805, 0.3121650903346817, -12.565987119160338)","(0.0, -0.01060287520387664, -0.008639379795751335, -0.008246680714126275, -0.003141592653000486, 0.008246680714126275, -0.005890486224375911, -0.0027488935713754254, 0.0027488935713754254, 0.00510508806112579, -0.0047123889795007284, 0.01021017612225158, -0.0027488935713754254, 0.003926990816250607, -0.014137166938502187, -0.001570796326500243, 0.0)","(0.0, 0.0, -14.652, 10.916, 0.0, 5.004, 0.068, -2.664, 0.372, 6.704, -16.252, 0.464, -27.176, -0.092, -0.18, -0.028, -20.48)",1178880,1522661685,192087085,robotiq_force_torque_frame_id,-0.47100009918200003,2.83499994278,8.183001708980001,-0.0839999988675,-0.181999996305,-0.125,103.0,127.0,367.0,738.0,751.0,392.0,514.0,640.0,690.0,693.0,7,"(0.318305573199064, -0.815553406738067, 0.13814275757049982, 0.9999377972961766, -0.00435222739790031, -0.00938816830392101, 0.004161964805750848)",0.0,0.0,0.0,0.0,0.0,0.0
1522690485.25,19309,1522661685,211004018,,1195967,1522661682,706912336,,0.66642731006,-0.22507668895999997,0.111007704322,-0.026630883701499998,0.9988604388369999,-0.011483691352299999,0.0379044139,-0.0021290339423,-0.012887181704200001,-0.0105288844343,0.0015034615871,0.0161852249776,-0.0334945204673,2.4169883728,1.01772677898,11.351411819500001,-0.007880918681619999,1.13477325439,0.188280373812,472952,1522661682,715000064,,['l_gripper_l_finger_joint'],"(0.0032494800670444966,)","(0.0,)","(0.0,)",1178881,1522661685,204304464,robotiq_force_torque_frame_id,-0.910999917984,2.73500003815,7.98300094604,-0.08500000089410001,-0.179000005126,-0.135000005364,103.0,128.0,367.0,738.0,751.0,378.0,514.0,640.0,687.0,690.0,7,"(0.318305573199064, -0.815553406738067, 0.13814275757049982, 0.9999377972961766, -0.00435222739790031, -0.00938816830392101, 0.004161964805750848)",-0.439999818802,-0.09999990463000019,-0.20000076294000113,-0.0010000020266000137,0.002999991178999989,-0.010000005364000003
1522690485.25,19310,1522661685,220973014,,1195969,1522661682,726910593,,0.6663566616800001,-0.224239681586,0.110992065988,-0.027602852902599995,0.998836576917,-0.011240718268600002,0.0379107026815,0.0034519741847800003,-0.00989260523666,0.00683244166415,-0.006457622613189999,-0.017233314595900003,-0.00769752886049,2.67306733131,1.09863388538,11.318214416500002,-0.022959243506200003,1.21029782295,0.19610419869399998,1196318,1522661682,714986028,,"['head_nod', 'head_pan', 'left_e0', 'left_e1', 'left_s0', 'left_s1', 'left_w0', 'left_w1', 'left_w2', 'right_e0', 'right_e1', 'right_s0', 'right_s1', 'right_w0', 'right_w1', 'right_w2', 'torso_t0']","(0.0, -0.1012427320004373, -0.9065826456402796, 1.5021506865367915, 0.2791845033951453, 0.6450389213058165, 2.3427721582979983, -0.48780589054756157, -0.03298058693953639, 0.6017039640480536, 1.7460536318105722, 0.4168592791078612, -1.125174907913951, -0.34054373491056183, 0.9752282858981518, 0.3121650903346817, -12.565987119160338)","(0.0, 0.0007853981632501215, 0.0011780972448751821, -0.0011780972448751821, -0.001570796326500243, -0.009424777959001457, 0.018456856836377853, -0.022776546734253524, 0.001570796326500243, -0.03259402377488004, 0.005890486224375911, -0.003926990816250607, 0.00510508806112579, -0.012173671530376884, -0.007461282550876154, 0.0200276531628781, 0.0)","(0.0, 0.0, -14.784, 10.916, 0.06, 5.004, 0.076, -2.656, 0.392, 6.796, -16.312, 0.528, -27.12, -0.092, -0.228, -0.044, -20.48)",1178882,1522661685,212450328,robotiq_force_torque_frame_id,-0.5410000324249999,2.22500004768,8.29300231934,-0.0879999995232,-0.172999992967,-0.128999993205,100.0,128.0,348.0,739.0,749.0,378.0,514.0,629.0,687.0,690.0,7,"(0.318305573199064, -0.815553406738067, 0.13814275757049982, 0.9999377972961766, -0.00435222739790031, -0.00938816830392101, 0.004161964805750848)",0.3699998855590001,-0.5099999904699999,0.31000137329999955,-0.002999998629099998,0.006000012159000007,0.006000012159000007
1522690485.25,19311,1522661685,231048107,,1195969,1522661682,726910593,,0.6663566616800001,-0.224239681586,0.110992065988,-0.027602852902599995,0.998836576917,-0.011240718268600002,0.0379107026815,0.0034519741847800003,-0.00989260523666,0.00683244166415,-0.006457622613189999,-0.017233314595900003,-0.00769752886049,2.67306733131,1.09863388538,11.318214416500002,-0.022959243506200003,1.21029782295,0.19610419869399998,1196320,1522661682,735022706,,"['head_nod', 'head_pan', 'left_e0', 'left_e1', 'left_s0', 'left_s1', 'left_w0', 'left_w1', 'left_w2', 'right_e0', 'right_e1', 'right_s0', 'right_s1', 'right_w0', 'right_w1', 'right_w2', 'torso_t0']","(0.0, -0.1012427320004373, -0.9069661408372509, 1.50176719133982, 0.27880100819817394, 0.6442719309118737, 2.3423886631010267, -0.48780589054756157, -0.033364082136507746, 0.6017039640480536, 1.7468206222045148, 0.4183932598957466, -1.1247914127169796, -0.34131072530450457, 0.9752282858981518, 0.31254858553165304, -12.565987119160338)","(0.0, -0.01060287520387664, -0.006675884387626033, 0.0047123889795007284, -0.009424777959001457, 0.0019634954081253035, -0.01767145867312773, 0.019242254999627974, 0.0047123889795007284, 0.015707963265002428, 0.019634954081253035, 0.022776546734253524, -0.007853981632501214, -0.0007853981632501215, 0.013351768775252066, -0.01610066234662749, 0.0)","(0.0, 0.0, -14.752, 10.948, 0.06, 5.036, 0.076, -2.664, 0.392, 6.86, -16.344, 0.56, -27.088, -0.072, -0.248, -0.016, -20.48)",1178883,1522661685,224659468,robotiq_force_torque_frame_id,0.379000043869,2.97500004768,8.233000946039999,-0.0810000002384,-0.165999993682,-0.138999998569,105.0,126.0,348.0,742.0,749.0,373.0,502.0,629.0,693.0,698.0,7,"(0.318305573199064, -0.815553406738067, 0.13814275757049982, 0.9999377972961766, -0.00435222739790031, -0.00938816830392101, 0.004161964805750848)",0.9200000762939999,0.75,-0.06000137330000044,0.00699999928480001,0.006999999285000003,-0.010000005364000003
1522690485.25,19312,1522661685,241020917,,1195970,1522661682,736919661,,0.666053330874,-0.223841801158,0.11089306937400001,-0.0283130507893,0.9988152151690001,-0.0117256205252,0.0378027370015,-0.0150261118886,0.0196434695131,-0.00138088607441,-0.006810860708689999,0.0215208820578,0.0575550356257,2.5954360961900003,1.24590146542,11.270632743800002,-0.0549549683928,1.17375051975,0.180234730244,1196320,1522661682,735022706,,"['head_nod', 'head_pan', 'left_e0', 'left_e1', 'left_s0', 'left_s1', 'left_w0', 'left_w1', 'left_w2', 'right_e0', 'right_e1', 'right_s0', 'right_s1', 'right_w0', 'right_w1', 'right_w2', 'torso_t0']","(0.0, -0.1012427320004373, -0.9069661408372509, 1.50176719133982, 0.27880100819817394, 0.6442719309118737, 2.3423886631010267, -0.48780589054756157, -0.033364082136507746, 0.6017039640480536, 1.7468206222045148, 0.4183932598957466, -1.1247914127169796, -0.34131072530450457, 0.9752282858981518, 0.31254858553165304, -12.565987119160338)","(0.0, -0.01060287520387664, -0.006675884387626033, 0.0047123889795007284, -0.009424777959001457, 0.0019634954081253035, -0.01767145867312773, 0.019242254999627974, 0.0047123889795007284, 0.015707963265002428, 0.019634954081253035, 0.022776546734253524, -0.007853981632501214, -0.0007853981632501215, 0.013351768775252066, -0.01610066234662749, 0.0)","(0.0, 0.0, -14.752, 10.948, 0.06, 5.036, 0.076, -2.664, 0.392, 6.86, -16.344, 0.56, -27.088, -0.072, -0.248, -0.016, -20.48)",1178884,1522661685,232787712,robotiq_force_torque_frame_id,1.04900012016,2.85499992371,7.573001098630001,-0.09000000357629999,-0.151999995112,-0.141000002623,105.0,128.0,353.0,734.0,742.0,375.0,502.0,624.0,693.0,698.0,7,"(0.318305573199064, -0.815553406738067, 0.13814275757049982, 0.9999377972961766, -0.00435222739790031, -0.00938816830392101, 0.004161964805750848)",0.6700000762910001,-0.12000012397000015,-0.6599998474099982,-0.009000003337899992,0.013999998570000005,-0.0020000040539999986
1522690485.29,19313,1522661685,250994920,,1195972,1522661682,756940419,,0.666415574817,-0.224388962531,0.111129904957,-0.0271399309572,0.998845743754,-0.0112357253041,0.0380047735011,0.00423979146075,-0.013238493851,0.0030788682911,0.00721234253354,0.00253921183901,-0.0375090165127,2.72130227089,1.09745705128,11.3198661804,-0.00772192329168,1.18479192257,0.196625977755,472953,1522661682,751000064,,['r_gripper_l_finger_joint'],"(0.004267609721273184,)","(0.0,)","(0.2946236729621887,)",1178885,1522661685,245026435,robotiq_force_torque_frame_id,0.989000177383,2.85499992371,7.123000335689999,-0.082000002265,-0.143999993801,-0.135000005364,108.0,128.0,353.0,744.0,750.0,373.0,497.0,617.0,692.0,698.0,7,"(0.318305573199064, -0.815553406738067, 0.13814275757049982, 0.9999377972961766, -0.00435222739790031, -0.00938816830392101, 0.004161964805750848)",-0.05999994277700016,0.0,-0.450000762940002,0.008000001311299992,0.008000001310999982,0.005999997258999995
1522690485.29,19314,1522661685,261008024,,1195972,1522661682,756940419,,0.666415574817,-0.224388962531,0.111129904957,-0.0271399309572,0.998845743754,-0.0112357253041,0.0380047735011,0.00423979146075,-0.013238493851,0.0030788682911,0.00721234253354,0.00253921183901,-0.0375090165127,2.72130227089,1.09745705128,11.3198661804,-0.00772192329168,1.18479192257,0.196625977755,472954,1522661682,764999936,,['l_gripper_l_finger_joint'],"(0.0032494800670444966,)","(0.0,)","(0.0,)",1178886,1522661685,253236790,robotiq_force_torque_frame_id,0.0489998817444,3.76500000954,6.74299926758,-0.0930000022054,-0.11500000208599999,-0.152999997139,108.0,126.0,353.0,744.0,750.0,376.0,517.0,617.0,692.0,698.0,7,"(0.318305573199064, -0.815553406738067, 0.13814275757049982, 0.9999377972961766, -0.00435222739790031, -0.00938816830392101, 0.004161964805750848)",-0.9400002956386,0.9100000858300001,-0.38000106810999856,-0.010999999940400004,0.02899999171500002,-0.017999991775
1522690485.29,19315,1522661685,271004915,,1195973,1522661682,766916509,,0.665835713311,-0.22444398250599998,0.11108792352800001,-0.027695361383599997,0.998844318996,-0.0115717780297,0.0375378118747,-0.005767555293890001,-0.009549456266280001,-0.00336503056873,-0.00585265940604,0.0227998913309,-0.0224087115834,2.6071436405200004,1.07157993317,11.2732305527,0.04779191315169999,1.10190558434,0.19366985559500002,472954,1522661682,764999936,,['l_gripper_l_finger_joint'],"(0.0032494800670444966,)","(0.0,)","(0.0,)",1178887,1522661685,261400472,robotiq_force_torque_frame_id,-0.781000041962,4.32499995232,6.04300231934,-0.0799999982119,-0.08500000089410001,-0.145999997854,103.0,126.0,337.0,727.0,738.0,376.0,517.0,623.0,691.0,698.0,7,"(0.318305573199064, -0.815553406738067, 0.13814275757049982, 0.9999377972961766, -0.00435222739790031, -0.00938816830392101, 0.004161964805750848)",-0.8299999237064,0.5599999427799998,-0.6999969482399999,0.0130000039935,0.03000000119189998,0.006999999285000003
1522690485.29,19316,1522661685,280998945,,1195973,1522661682,766916509,,0.665835713311,-0.22444398250599998,0.11108792352800001,-0.027695361383599997,0.998844318996,-0.0115717780297,0.0375378118747,-0.005767555293890001,-0.009549456266280001,-0.00336503056873,-0.00585265940604,0.0227998913309,-0.0224087115834,2.6071436405200004,1.07157993317,11.2732305527,0.04779191315169999,1.10190558434,0.19366985559500002,1196324,1522661682,775014524,,"['head_nod', 'head_pan', 'left_e0', 'left_e1', 'left_s0', 'left_s1', 'left_w0', 'left_w1', 'left_w2', 'right_e0', 'right_e1', 'right_s0', 'right_s1', 'right_w0', 'right_w1', 'right_w2', 'torso_t0']","(0.0, -0.10085923680346595, -0.9069661408372509, 1.5021506865367915, 0.27880100819817394, 0.6446554261088451, 2.341621672707084, -0.4881893857445329, -0.032213596545593685, 0.6009369736541108, 1.7464371270075436, 0.41647578391088985, -1.124024422323037, -0.34054373491056183, 0.9763787714890658, 0.3121650903346817, -12.565987119160338)","(0.0, -0.00510508806112579, 0.012566370612001944, -0.007461282550876154, 0.0023561944897503642, -0.003141592653000486, 0.009424777959001457, -0.02042035224450316, 0.01688606050987761, 0.012173671530376884, 0.012959069693627005, -0.015707963265002428, 0.015707963265002428, -0.01767145867312773, 0.01531526418337737, 0.0007853981632501215, 0.0)","(0.0, 0.0, -14.652, 10.916, 0.0, 5.036, 0.068, -2.676, 0.364, 6.86, -16.464, 0.592, -27.176, -0.072, -0.348, -0.028, -20.48)",1178889,1522661685,281770591,robotiq_force_torque_frame_id,-0.691000127792,3.4749999284699995,5.6930000305199995,-0.07000000029799999,-0.0480000004172,-0.11100000143100001,103.0,128.0,337.0,727.0,753.0,350.0,520.0,623.0,691.0,695.0,7,"(0.318305573199064, -0.815553406738067, 0.13814275757049982, 0.9999377972961766, -0.00435222739790031, -0.00938816830392101, 0.004161964805750848)",0.08999991416999997,-0.8500000238500003,-0.35000228882000073,0.009999997913900008,0.03700000047690001,0.03499999642299999
1522690485.29,19317,1522661685,291033983,,1195975,1522661682,786926249,,0.665801222672,-0.22444573319299999,0.110939608866,-0.0276841721343,0.998852207243,-0.011685391060899998,0.037300218974599994,-0.0205830354782,-0.0104663414115,-0.013597117749499999,-0.014160557820899998,0.0476541680736,-0.0141476699301,2.8867380619,1.2251945734,11.297846794100002,0.014019846916200002,1.1729490756999998,0.21531087160100001,472955,1522661682,801999872,,['r_gripper_l_finger_joint'],"(0.004267609721273184,)","(0.0,)","(0.2946236729621887,)",1178889,1522661685,281770591,robotiq_force_torque_frame_id,-0.691000127792,3.4749999284699995,5.6930000305199995,-0.07000000029799999,-0.0480000004172,-0.11100000143100001,103.0,126.0,329.0,722.0,753.0,367.0,520.0,612.0,692.0,694.0,7,"(0.318305573199064, -0.815553406738067, 0.13814275757049982, 0.9999377972961766, -0.00435222739790031, -0.00938816830392101, 0.004161964805750848)",0.0,0.0,0.0,0.0,0.0,0.0
1522690485.3,19318,1522661685,301002025,,1195976,1522661682,796908191,,0.665606814265,-0.22411507012899998,0.11085921580800001,-0.028006193840200002,0.998845700253,-0.011770979480299999,0.037207045499300005,-0.00519701506804,0.027865505890599995,0.00574114057971,0.00381488320158,0.0050187457063,0.042622856486999997,2.84486198425,1.17096590996,11.421311378499999,0.021779416129,1.1325252056100001,0.172141060233,472955,1522661682,801999872,,['r_gripper_l_finger_joint'],"(0.004267609721273184,)","(0.0,)","(0.2946236729621887,)",1178890,1522661685,294435194,robotiq_force_torque_frame_id,-0.291000032425,2.83499994278,5.8730003356900005,-0.0680000036955,-0.0419999994338,-0.10800000280099999,100.0,126.0,329.0,722.0,745.0,367.0,519.0,612.0,692.0,696.0,7,"(0.318305573199064, -0.815553406738067, 0.13814275757049982, 0.9999377972961766, -0.00435222739790031, -0.00938816830392101, 0.004161964805750848)",0.40000009536700004,-0.6399999856899994,0.18000030517000098,0.0019999966024999982,0.006000000983399999,0.002999998630000028
1522690485.31,19319,1522661685,311002016,,1195976,1522661682,796908191,,0.665606814265,-0.22411507012899998,0.11085921580800001,-0.028006193840200002,0.998845700253,-0.011770979480299999,0.037207045499300005,-0.00519701506804,0.027865505890599995,0.00574114057971,0.00381488320158,0.0050187457063,0.042622856486999997,2.84486198425,1.17096590996,11.421311378499999,0.021779416129,1.1325252056100001,0.172141060233,472956,1522661682,816000000,,['l_gripper_l_finger_joint'],"(0.0032494800670444966,)","(0.0,)","(0.0,)",1178891,1522661685,302583186,robotiq_force_torque_frame_id,-0.590999984741,2.00500001907,6.1930000305199995,-0.0670000016689,-0.0500000007451,-0.11100000143100001,100.0,128.0,327.0,710.0,745.0,383.0,519.0,612.0,693.0,696.0,7,"(0.318305573199064, -0.815553406738067, 0.13814275757049982, 0.9999377972961766, -0.00435222739790031, -0.00938816830392101, 0.004161964805750848)",-0.299999952316,-0.82999992371,0.319999694829999,0.0010000020265999998,-0.0080000013113,-0.002999998630000028
1522690485.32,19320,1522661685,321011066,,1195978,1522661682,816930751,,0.66541191923,-0.225050507886,0.110625361448,-0.027065614800100002,0.998885261985,-0.0118574681321,0.0368114973152,-0.0159417745886,-0.00237178068794,-0.009814979502420001,-0.0052304042375100005,0.0418434255605,0.0149669791713,3.51677775383,1.14397406578,11.3903188705,0.0584399811924,1.35888814926,0.226947844028,1196328,1522661682,814995139,,"['head_nod', 'head_pan', 'left_e0', 'left_e1', 'left_s0', 'left_s1', 'left_w0', 'left_w1', 'left_w2', 'right_e0', 'right_e1', 'right_s0', 'right_s1', 'right_w0', 'right_w1', 'right_w2', 'torso_t0']","(0.0, -0.10085923680346595, -0.9069661408372509, 1.5013836961428486, 0.2784175130012026, 0.6450389213058165, 2.3420051679040554, -0.48703890015361884, -0.03259709174256504, 0.6013204688510821, 1.7468206222045148, 0.4168592791078612, -1.1244079175200083, -0.34092723010753323, 0.9767622666860372, 0.3129320807286244, -12.565987119160338)","(0.0, -0.012566370612001944, 0.011780972448751823, 0.008246680714126275, -0.010995574285501701, -0.004319689897875668, -0.0047123889795007284, -0.01060287520387664, 0.0027488935713754254, -0.006283185306000972, 0.0070685834692510935, 0.0035342917346255468, 0.012959069693627005, 0.003926990816250607, 0.021991148571003403, -0.018456856836377853, 0.0)","(0.0, 0.0, -14.848, 10.916, 0.06, 5.004, 0.096, -2.628, 0.352, 6.892, -16.732, 0.496, -27.176, -0.108, -0.42, -0.044, -20.48)",1178892,1522661685,314772378,robotiq_force_torque_frame_id,-0.561000013351,1.6449998855599999,6.49299926758,-0.06599999964240001,-0.046999998390699994,-0.109999999404,113.0,128.0,345.0,712.0,746.0,375.0,537.0,608.0,690.0,693.0,7,"(0.318305573199064, -0.815553406738067, 0.13814275757049982, 0.9999377972961766, -0.00435222739790031, -0.00938816830392101, 0.004161964805750848)",0.02999997138999999,-0.36000013351000026,0.29999923706000065,0.0010000020264999826,0.003000002354400004,0.0010000020270000132
1522690485.33,19321,1522661685,331007957,,1195979,1522661682,826912213,,0.6651030451519999,-0.225269120006,0.11060139726500001,-0.0269547714053,0.998903700653,-0.0118452147655,0.036394065555699996,-0.0171335324491,-0.00562991394786,-0.0108811871398,-0.020493882135999997,0.0344905096429,0.014871088251100001,3.28833413124,1.3485029935799997,11.328454971300001,-0.006549080833789999,1.19583761692,0.183158129454,1196328,1522661682,814995139,,"['head_nod', 'head_pan', 'left_e0', 'left_e1', 'left_s0', 'left_s1', 'left_w0', 'left_w1', 'left_w2', 'right_e0', 'right_e1', 'right_s0', 'right_s1', 'right_w0', 'right_w1', 'right_w2', 'torso_t0']","(0.0, -0.10085923680346595, -0.9069661408372509, 1.5013836961428486, 0.2784175130012026, 0.6450389213058165, 2.3420051679040554, -0.48703890015361884, -0.03259709174256504, 0.6013204688510821, 1.7468206222045148, 0.4168592791078612, -1.1244079175200083, -0.34092723010753323, 0.9767622666860372, 0.3129320807286244, -12.565987119160338)","(0.0, -0.012566370612001944, 0.011780972448751823, 0.008246680714126275, -0.010995574285501701, -0.004319689897875668, -0.0047123889795007284, -0.01060287520387664, 0.0027488935713754254, -0.006283185306000972, 0.0070685834692510935, 0.0035342917346255468, 0.012959069693627005, 0.003926990816250607, 0.021991148571003403, -0.018456856836377853, 0.0)","(0.0, 0.0, -14.848, 10.916, 0.06, 5.004, 0.096, -2.628, 0.352, 6.892, -16.732, 0.496, -27.176, -0.108, -0.42, -0.044, -20.48)",1178893,1522661685,322944299,robotiq_force_torque_frame_id,-0.640999937057,1.33499994278,6.76299972534,-0.0640000030398,-0.052999999374199996,-0.101999998093,113.0,129.0,345.0,712.0,746.0,375.0,535.0,608.0,690.0,691.0,7,"(0.318305573199064, -0.815553406738067, 0.13814275757049982, 0.9999377972961766, -0.00435222739790031, -0.00938816830392101, 0.004161964805750848)",-0.07999992370599995,-0.30999994278,0.27000045776000015,0.0019999966026000154,-0.006000000983500002,0.008000001310999996
1522690485.37,19322,1522661685,341002941,,1195979,1522661682,826912213,,0.6651030451519999,-0.225269120006,0.11060139726500001,-0.0269547714053,0.998903700653,-0.0118452147655,0.036394065555699996,-0.0171335324491,-0.00562991394786,-0.0108811871398,-0.020493882135999997,0.0344905096429,0.014871088251100001,3.28833413124,1.3485029935799997,11.328454971300001,-0.006549080833789999,1.19583761692,0.183158129454,1196330,1522661682,834961349,,"['head_nod', 'head_pan', 'left_e0', 'left_e1', 'left_s0', 'left_s1', 'left_w0', 'left_w1', 'left_w2', 'right_e0', 'right_e1', 'right_s0', 'right_s1', 'right_w0', 'right_w1', 'right_w2', 'torso_t0']","(0.0, -0.1012427320004373, -0.9073496360342223, 1.5025341817337627, 0.27880100819817394, 0.6454224165027879, 2.3412381775101125, -0.48742239535059023, -0.03259709174256504, 0.6020874592450249, 1.7472041174014863, 0.41647578391088985, -1.1247914127169796, -0.3401602397135905, 0.9767622666860372, 0.31254858553165304, -12.565987119160338)","(0.0, 0.006675884387626033, -0.006675884387626033, 0.0035342917346255468, 0.011388273367126762, 0.012173671530376884, 0.01021017612225158, 0.005497787142750851, -0.01688606050987761, -0.007461282550876154, 0.012173671530376884, -0.030237829285129678, -0.0023561944897503642, -0.0011780972448751821, 0.014529866020127248, 0.014922565101752308, 0.0)","(0.0, 0.0, -14.588, 10.948, 0.092, 5.004, 0.076, -2.648, 0.364, 6.956, -16.824, 0.496, -27.44, -0.092, -0.488, -0.028, -20.48)",1178894,1522661685,335159017,robotiq_force_torque_frame_id,-0.20100011825599998,0.755000019073,5.922999572749999,-0.057000000029800005,-0.0540000014007,-0.101000003517,111.0,119.0,339.0,718.0,747.0,385.0,535.0,612.0,691.0,701.0,7,"(0.318305573199064, -0.815553406738067, 0.13814275757049982, 0.9999377972961766, -0.00435222739790031, -0.00938816830392101, 0.004161964805750848)",0.43999981880100003,-0.5799999237069999,-0.8400001525900009,0.007000003009999992,-0.0010000020265000034,0.0009999945760000017
1522690485.37,19323,1522661685,350994110,,1195981,1522661682,846912656,,0.665284183314,-0.225326717842,0.110601641504,-0.0269680719042,0.9988873844089999,-0.0121172346737,0.036740835450900004,0.0100104799255,-0.0123004382888,0.0164166999062,-0.0160278770837,-0.0203810560055,-0.025402111698400003,2.7372813224799994,1.12799715996,12.0563383102,0.029689669609099998,0.9861063361169999,0.179103329778,472957,1522661682,852999936,,['r_gripper_l_finger_joint'],"(0.004267609721273184,)","(0.0,)","(0.30215054750442505,)",1178896,1522661685,351468814,robotiq_force_torque_frame_id,-0.080999994278,0.555000209808,5.332999420169999,-0.04500000178809999,-0.0370000004768,-0.10000000149,106.0,119.0,339.0,718.0,740.0,385.0,526.0,604.0,689.0,701.0,7,"(0.318305573199064, -0.815553406738067, 0.13814275757049982, 0.9999377972961766, -0.00435222739790031, -0.00938816830392101, 0.004161964805750848)",0.12000012397799997,-0.19999980926499994,-0.59000015258,0.011999998241700012,0.0170000009239,0.0010000020269999993
1522690485.37,19324,1522661685,360980033,,1195983,1522661682,866922353,,0.66528662727,-0.225334233337,0.110616368078,-0.0268697297487,0.998896431522,-0.0119280571758,0.0366286522721,-0.013364755490200001,0.024073969087900004,-0.0127224016298,0.019790914563400003,0.0250794875,0.028978393311400005,3.0155181884799998,1.16608309746,12.2932758331,0.0295526124537,1.07957959175,0.17958693206300003,472958,1522661682,867000064,,['l_gripper_l_finger_joint'],"(0.0032494800670444966,)","(0.0,)","(0.0,)",1178896,1522661685,351468814,robotiq_force_torque_frame_id,-0.080999994278,0.555000209808,5.332999420169999,-0.04500000178809999,-0.0370000004768,-0.10000000149,106.0,119.0,346.0,711.0,740.0,396.0,526.0,604.0,699.0,701.0,7,"(0.318305573199064, -0.815553406738067, 0.13814275757049982, 0.9999377972961766, -0.00435222739790031, -0.00938816830392101, 0.004161964805750848)",0.0,0.0,0.0,0.0,0.0,0.0
1522690485.41,19325,1522661685,371011972,,1195985,1522661682,886908928,,0.665052952305,-0.225551897184,0.110589620934,-0.027061489995,0.998892744953,-0.0123986754532,0.0364312048395,-0.00693810552272,-0.00958950982854,0.00294682421487,-0.017666532335000002,0.000678440125804,0.00193136462519,3.60957789421,1.3387522697399998,12.2066383362,-0.0464940518141,1.27831661701,0.148063451052,1196335,1522661682,884982964,,"['head_nod', 'head_pan', 'left_e0', 'left_e1', 'left_s0', 'left_s1', 'left_w0', 'left_w1', 'left_w2', 'right_e0', 'right_e1', 'right_s0', 'right_s1', 'right_w0', 'right_w1', 'right_w2', 'torso_t0']","(0.0, -0.1012427320004373, -0.9069661408372509, 1.5013836961428486, 0.2784175130012026, 0.6450389213058165, 2.3420051679040554, -0.4881893857445329, -0.03259709174256504, 0.6005534784571395, 1.7472041174014863, 0.41724277430483253, -1.1247914127169796, -0.34131072530450457, 0.97752925707998, 0.3129320807286244, -12.565987119160338)","(0.0, 0.008639379795751335, 0.0027488935713754254, 0.0027488935713754254, -0.003141592653000486, 0.003141592653000486, -0.022776546734253524, -0.010995574285501701, 0.01688606050987761, -0.009424777959001457, 0.023561944897503646, -0.0011780972448751821, -0.024347343060753767, -0.0007853981632501215, -0.00039269908162506076, -0.005497787142750851, 0.0)","(0.0, 0.0, -14.816, 10.948, 0.0, 5.004, 0.068, -2.636, 0.364, 6.892, -17.124, 0.592, -27.704, -0.092, -0.54, -0.016, -20.48)",1178897,1522661685,363671445,robotiq_force_torque_frame_id,1.05899987221,1.6349998951,5.43300170898,-0.0439999997616,-0.035999998450300004,-0.112000003457,109.0,119.0,346.0,717.0,742.0,389.0,530.0,605.0,698.0,699.0,7,"(0.318305573199064, -0.815553406738067, 0.13814275757049982, 0.9999377972961766, -0.00435222739790031, -0.00938816830392101, 0.004161964805750848)",1.139999866488,1.079999685292,0.10000228881000073,0.0010000020264999895,0.0010000020264999965,-0.01200000196699999
1522690485.41,19326,1522661685,381114006,,1195986,1522661682,896933474,,0.6651450091409999,-0.224958771398,0.110779567998,-0.0270445005395,0.9988976475929999,-0.0117580706506,0.03652167025380001,0.006407734007100001,-0.0022297894115199998,0.009750737240469999,-0.0134915751085,-0.0237310498085,-0.009682153161739999,3.16476893425,1.0983679294600002,12.3318853378,0.0965980365872,1.12906777859,0.21266049146699997,472959,1522661682,903000064,,['r_gripper_l_finger_joint'],"(0.004267609721273184,)","(0.0,)","(0.2946236729621887,)",1178898,1522661685,371861723,robotiq_force_torque_frame_id,1.2289999485,2.50500001907,5.503001403810001,-0.046999998390699994,-0.0379999987781,-0.10800000280099999,109.0,122.0,367.0,717.0,742.0,389.0,522.0,605.0,698.0,699.0,7,"(0.318305573199064, -0.815553406738067, 0.13814275757049982, 0.9999377972961766, -0.00435222739790031, -0.00938816830392101, 0.004161964805750848)",0.17000007629000002,0.8700001239700001,0.06999969483000079,-0.002999998629099991,-0.0020000003277999973,0.004000000656000008
1522690485.41,19327,1522661685,391103982,,1195987,1522661682,906904739,,0.66525457883,-0.225030167673,0.11058718117699999,-0.026180261546099995,0.998917294743,-0.011438532515399998,0.036715012508300005,-0.00679571985359,-0.00450532937504,-0.0019412347690000002,-0.0056364950020299995,0.0253209720786,-0.011044235268000002,3.1797461509700002,1.1535563468899999,12.1326904297,0.0622647367418,1.10324788094,0.193344771862,472959,1522661682,903000064,,['r_gripper_l_finger_joint'],"(0.004267609721273184,)","(0.0,)","(0.2946236729621887,)",1178899,1522661685,384079087,robotiq_force_torque_frame_id,1.5389998912799998,3.11500003338,5.68300170898,-0.04500000178809999,-0.0379999987781,-0.112000003457,104.0,122.0,387.0,730.0,748.0,376.0,522.0,606.0,699.0,699.0,7,"(0.318305573199064, -0.815553406738067, 0.13814275757049982, 0.9999377972961766, -0.00435222739790031, -0.00938816830392101, 0.004161964805750848)",0.30999994277999976,0.6100000143099997,0.1800003051699992,0.0019999966026000016,0.0,-0.004000000656000008
1522690485.41,19328,1522661685,401067972,,1195988,1522661682,916910159,,0.665455745606,-0.22549647979600002,0.111186154975,-0.0271342749592,0.9988662214990001,-0.012331990482600001,0.037120407882300005,-0.007454384857890001,-0.0037418041617800005,-0.0047050137196899995,-0.00536713076397,0.0167497484745,0.0153964929078,2.8549284935,0.9270975589749999,12.3023586273,0.243943318725,1.0323283672299999,0.23955355584600002,472960,1522661682,918000128,,['l_gripper_l_finger_joint'],"(0.0032494800670444966,)","(0.0,)","(0.0,)",1178900,1522661685,392256856,robotiq_force_torque_frame_id,1.82899985313,3.33499994278,5.6930000305199995,-0.0480000004172,-0.0340000018477,-0.11500000208599999,108.0,129.0,387.0,730.0,748.0,378.0,527.0,606.0,696.0,707.0,7,"(0.318305573199064, -0.815553406738067, 0.13814275757049982, 0.9999377972961766, -0.00435222739790031, -0.00938816830392101, 0.004161964805750848)",0.2899999618500002,0.21999990940000025,0.009998321539999466,-0.002999998629100005,0.003999996930399999,-0.0029999986289999947
1522690485.45,19329,1522661685,411000967,,1195989,1522661682,926921205,,0.665345083485,-0.225235465621,0.11101640205,-0.0272272911687,0.9988775989700002,-0.012063042954,0.0368334072043,0.014110333355399999,-0.0101433600186,0.0183365262,-0.00687561822177,-0.0329880721049,-0.0333395622773,2.96858453751,1.19529020786,12.0833158493,0.029291342943899998,1.0485255718200002,0.20409040153000002,1196339,1522661682,924963051,,"['head_nod', 'head_pan', 'left_e0', 'left_e1', 'left_s0', 'left_s1', 'left_w0', 'left_w1', 'left_w2', 'right_e0', 'right_e1', 'right_s0', 'right_s1', 'right_w0', 'right_w1', 'right_w2', 'torso_t0']","(0.0, -0.10162622719740866, -0.9061991504433081, 1.50176719133982, 0.27880100819817394, 0.6446554261088451, 2.3412381775101125, -0.4881893857445329, -0.032213596545593685, 0.6017039640480536, 1.7468206222045148, 0.41647578391088985, -1.125174907913951, -0.34092723010753323, 0.97752925707998, 0.31254858553165304, -12.565987119160338)","(0.0, -0.00039269908162506076, -0.006283185306000972, -0.012959069693627005, 0.007853981632501214, -0.006675884387626033, 0.01649336142825255, -0.013351768775252066, 0.006675884387626033, 0.0047123889795007284, -0.018064157754752792, -0.01531526418337737, -0.02513274122400389, -0.0011780972448751821, 0.009817477040626518, 0.018064157754752792, 0.0)","(0.0, 0.0, -14.684, 11.012, 0.028, 5.004, 0.076, -2.636, 0.364, 6.956, -16.944, 0.56, -27.648, -0.108, -0.532, -0.044, -20.48)",1178901,1522661685,404436387,robotiq_force_torque_frame_id,0.8489998340610001,2.275,5.672999572749999,-0.046999998390699994,-0.0379999987781,-0.10599999874800001,108.0,127.0,402.0,708.0,748.0,378.0,527.0,599.0,696.0,697.0,7,"(0.318305573199064, -0.815553406738067, 0.13814275757049982, 0.9999377972961766, -0.00435222739790031, -0.00938816830392101, 0.004161964805750848)",-0.9800000190689999,-1.0599999427800002,-0.020000457770000146,0.0010000020265000034,-0.003999996930399999,0.009000003337999982
