time,.header.seq,.header.stamp.secs,.header.stamp.nsecs,.header.frame_id,.endpoint_state.header.seq,.endpoint_state.header.stamp.secs,.endpoint_state.header.stamp.nsecs,.endpoint_state.header.frame_id,.endpoint_state.pose.position.x,.endpoint_state.pose.position.y,.endpoint_state.pose.position.z,.endpoint_state.pose.orientation.x,.endpoint_state.pose.orientation.y,.endpoint_state.pose.orientation.z,.endpoint_state.pose.orientation.w,.endpoint_state.twist.linear.x,.endpoint_state.twist.linear.y,.endpoint_state.twist.linear.z,.endpoint_state.twist.angular.x,.endpoint_state.twist.angular.y,.endpoint_state.twist.angular.z,.endpoint_state.wrench.force.x,.endpoint_state.wrench.force.y,.endpoint_state.wrench.force.z,.endpoint_state.wrench.torque.x,.endpoint_state.wrench.torque.y,.endpoint_state.wrench.torque.z,.joint_state.header.seq,.joint_state.header.stamp.secs,.joint_state.header.stamp.nsecs,.joint_state.header.frame_id,.joint_state.name,.joint_state.position,.joint_state.velocity,.joint_state.effort,.wrench_stamped.header.seq,.wrench_stamped.header.stamp.secs,.wrench_stamped.header.stamp.nsecs,.wrench_stamped.header.frame_id,.wrench_stamped.wrench.force.x,.wrench_stamped.wrench.force.y,.wrench_stamped.wrench.force.z,.wrench_stamped.wrench.torque.x,.wrench_stamped.wrench.torque.y,.wrench_stamped.wrench.torque.z,.tactile_values.tactile_values_0,.tactile_values.tactile_values_1,.tactile_values.tactile_values_2,.tactile_values.tactile_values_3,.tactile_values.tactile_values_4,.tactile_values.tactile_values_5,.tactile_values.tactile_values_6,.tactile_values.tactile_values_7,.tactile_values.tactile_values_8,.tactile_values.tactile_values_9,.tag,.goal_vector,.delta_wrench.force.x,.delta_wrench.force.y,.delta_wrench.force.z,.delta_wrench.torque.x,.delta_wrench.torque.y,.delta_wrench.torque.z
1522082599.75,30970,1522053799,739413022,,785600,1522053797,121995897,,0.7141343573710001,-0.17232938008499998,0.0538484927414,0.979990501771,-0.195428337499,0.0342534148547,0.0159086426636,0.00281488391887,0.009969368388690001,-0.004426841446050001,0.027029440901599998,-0.00893200659291,-0.0074073718435300005,3.5991897582999997,1.7273117303799999,7.71645593643,0.045661613345099994,2.12959671021,0.36571037769299997,785997,1522053797,120089631,,"['head_nod', 'head_pan', 'left_e0', 'left_e1', 'left_s0', 'left_s1', 'left_w0', 'left_w1', 'left_w2', 'right_e0', 'right_e1', 'right_s0', 'right_s1', 'right_w0', 'right_w1', 'right_w2', 'torso_t0']","(0.0, -0.10162622719740866, -0.915786530367592, 1.509437095279247, 0.2876213977285151, 0.6527088252452435, 2.348141091055597, -0.476301034638421, -0.02569417819708068, 0.47016511148687934, 1.6122138080675699, 0.6408204741391316, -1.036204022216597, -0.34284470609239, 1.0235486807165424, 0.8364030245945219, -12.565987119160338)","(0.0, 0.01531526418337737, 0.007461282550876154, 0.007461282550876154, 0.018456856836377853, 0.0027488935713754254, -0.009424777959001457, -0.023561944897503646, -0.0019634954081253035, -0.0019634954081253035, 0.006675884387626033, -0.0011780972448751821, 0.0035342917346255468, 0.02120575040775328, -0.029059732040254495, -0.0023561944897503642, 0.0)","(0.0, 0.0, -14.492, 11.044, 0.308, 4.184, 0.06, -2.596, 0.336, 7.52, -17.664, 0.652, -31.488, -0.428, -0.12, -0.156, -20.48)",250515,1522053799,738272833,robotiq_force_torque_frame_id,0.358999884129,2.67500007153,9.80299873352,-0.107000000775,-0.0729999989271,-0.136999994516,621.0,636.0,844.0,1034.0,1700.0,728.0,772.0,798.0,818.0,1195.0,7,"(0.7168213157491783, -0.17274619130594374, 0.05381544828536605, 0.9800398411724756, -0.1948001850456499, 0.03652420466363232, 0.015517090400541212)",0.0,0.0,0.0,0.0,0.0,0.0
1522082599.79,30971,1522053799,749406099,,785601,1522053797,132017769,,0.7136338381209999,-0.172367019672,0.053377512475699995,0.9799039362649999,-0.19599876575,0.0335248780987,0.0157747287167,-0.0013889094297500001,-0.00242026388773,-0.011352974326799999,-0.010478724152200001,0.0005024413138939999,0.0036843557179,3.4211499691000005,1.67218887806,7.8248662948600005,0.11471089720699999,2.08110427856,0.400619387627,310688,1522053797,132000000,,['l_gripper_l_finger_joint'],"(0.02083,)","(0.0,)","(0.0,)",250516,1522053799,746439340,robotiq_force_torque_frame_id,0.8389999032019999,3.25500002503,9.66299934387,-0.107000000775,-0.07000000029799999,-0.136000007391,616.0,636.0,844.0,1027.0,1700.0,712.0,772.0,798.0,811.0,1195.0,7,"(0.7168213157491783, -0.17274619130594374, 0.05381544828536605, 0.9800398411724756, -0.1948001850456499, 0.03652420466363232, 0.015517090400541212)",0.4800000190729999,0.5799999535000002,-0.1399993896500007,0.0,0.002999998629100012,0.000999987125000018
1522082599.79,30972,1522053799,759547948,,785601,1522053797,132017769,,0.7136338381209999,-0.172367019672,0.053377512475699995,0.9799039362649999,-0.19599876575,0.0335248780987,0.0157747287167,-0.0013889094297500001,-0.00242026388773,-0.011352974326799999,-0.010478724152200001,0.0005024413138939999,0.0036843557179,3.4211499691000005,1.67218887806,7.8248662948600005,0.11471089720699999,2.08110427856,0.400619387627,310688,1522053797,132000000,,['l_gripper_l_finger_joint'],"(0.02083,)","(0.0,)","(0.0,)",250517,1522053799,758655321,robotiq_force_torque_frame_id,0.808999931812,3.2650000155,10.1929981232,-0.104999996722,-0.0729999989271,-0.143999993801,616.0,632.0,844.0,1025.0,1689.0,712.0,782.0,798.0,811.0,1209.0,7,"(0.7168213157491783, -0.17274619130594374, 0.05381544828536605, 0.9800398411724756, -0.1948001850456499, 0.03652420466363232, 0.015517090400541212)",-0.02999997138999988,0.009999990469999886,0.5299987793300005,0.002000004053000007,-0.002999998629100012,-0.00799998641000002
1522082599.79,30973,1522053799,769458055,,785602,1522053797,141997292,,0.7142978935250001,-0.172413379087,0.0537802063437,0.9799595481960001,-0.195566030413,0.0343269138238,0.015964793617399997,0.00193423822795,-0.00846715516367,0.0043826258037,-0.008301758678790001,-3.70532982097e-05,-0.013383238209200001,3.4506721496599995,1.7182128429400003,7.6907124519300005,0.07782123982910001,2.06549811363,0.377596348524,310689,1522053797,158000128,,['r_gripper_l_finger_joint'],"(0.007654601775407791,)","(0.0,)","(0.30215054750442505,)",250518,1522053799,766799845,robotiq_force_torque_frame_id,0.729000008106,3.13499999046,10.2329990387,-0.101000003517,-0.0689999982715,-0.165000006557,616.0,632.0,844.0,1025.0,1689.0,708.0,779.0,798.0,821.0,1215.0,7,"(0.7168213157491783, -0.17274619130594374, 0.05381544828536605, 0.9800398411724756, -0.1948001850456499, 0.03652420466363232, 0.015517090400541212)",-0.07999992370600006,-0.1300000250400002,0.04000091549999851,0.0039999932049999964,0.004000000655600008,-0.021000012755999997
1522082599.79,30974,1522053799,779445886,,785604,1522053797,162118378,,0.7138456491290001,-0.172422718711,0.0534030761484,0.979915583011,-0.195895979013,0.0337747181942,0.0157950621578,0.013397803787499999,0.0305288064949,0.0101825649306,0.022842398461199998,-0.0342316532339,0.029661888382000002,3.5397281646699996,1.66786122322,7.84614038467,0.0821415781975,2.1269817352300002,0.37936604023000003,310689,1522053797,158000128,,['r_gripper_l_finger_joint'],"(0.007654601775407791,)","(0.0,)","(0.30215054750442505,)",250519,1522053799,774935380,robotiq_force_torque_frame_id,0.828999912739,3.05500000715,9.76299781799,-0.101000003517,-0.06499999761580001,-0.163000002503,616.0,632.0,848.0,1016.0,1696.0,708.0,779.0,791.0,821.0,1215.0,7,"(0.7168213157491783, -0.17274619130594374, 0.05381544828536605, 0.9800398411724756, -0.1948001850456499, 0.03652420466363232, 0.015517090400541212)",0.09999990463300001,-0.07999998331000002,-0.4700012207099995,0.0,0.004000000655699984,0.0020000040539999986
1522082599.79,30975,1522053799,789390087,,785604,1522053797,162118378,,0.7138456491290001,-0.172422718711,0.0534030761484,0.979915583011,-0.195895979013,0.0337747181942,0.0157950621578,0.013397803787499999,0.0305288064949,0.0101825649306,0.022842398461199998,-0.0342316532339,0.029661888382000002,3.5397281646699996,1.66786122322,7.84614038467,0.0821415781975,2.1269817352300002,0.37936604023000003,786001,1522053797,160200214,,"['head_nod', 'head_pan', 'left_e0', 'left_e1', 'left_s0', 'left_s1', 'left_w0', 'left_w1', 'left_w2', 'right_e0', 'right_e1', 'right_s0', 'right_s1', 'right_w0', 'right_w1', 'right_w2', 'torso_t0']","(0.0, -0.1012427320004373, -0.9154030351706206, 1.5090536000822758, 0.286470912137601, 0.6523253300482722, 2.3466071102677115, -0.4759175394414496, -0.026077673394052033, 0.47016511148687934, 1.6122138080675699, 0.6404369789421602, -1.0354370318226542, -0.34246121089541864, 1.0235486807165424, 0.8367865197914932, -12.565987119160338)","(0.0, -0.008639379795751335, -0.0070685834692510935, -0.006283185306000972, 0.014137166938502187, -0.00510508806112579, 0.008246680714126275, -0.01060287520387664, -0.005497787142750851, 0.014922565101752308, -0.013351768775252066, 0.021991148571003403, -0.0070685834692510935, 0.006675884387626033, -0.01767145867312773, 0.0, 0.0)","(0.0, 0.0, -14.492, 11.076, 0.404, 4.216, 0.04, -2.628, 0.316, 7.552, -17.664, 0.62, -31.548, -0.428, -0.1, -0.156, -20.48)",250520,1522053799,787153077,robotiq_force_torque_frame_id,0.558999931812,2.89500004053,9.4829990387,-0.10000000149,-0.06499999761580001,-0.152999997139,616.0,632.0,848.0,1016.0,1694.0,701.0,772.0,805.0,821.0,1208.0,7,"(0.7168213157491783, -0.17274619130594374, 0.05381544828536605, 0.9800398411724756, -0.1948001850456499, 0.03652420466363232, 0.015517090400541212)",-0.26999998092699995,-0.15999996662000004,-0.2799987792900005,0.0010000020269999993,0.0,0.010000005364000003
1522082599.8,30976,1522053799,799437999,,785604,1522053797,162118378,,0.7138456491290001,-0.172422718711,0.0534030761484,0.979915583011,-0.195895979013,0.0337747181942,0.0157950621578,0.013397803787499999,0.0305288064949,0.0101825649306,0.022842398461199998,-0.0342316532339,0.029661888382000002,3.5397281646699996,1.66786122322,7.84614038467,0.0821415781975,2.1269817352300002,0.37936604023000003,786001,1522053797,160200214,,"['head_nod', 'head_pan', 'left_e0', 'left_e1', 'left_s0', 'left_s1', 'left_w0', 'left_w1', 'left_w2', 'right_e0', 'right_e1', 'right_s0', 'right_s1', 'right_w0', 'right_w1', 'right_w2', 'torso_t0']","(0.0, -0.1012427320004373, -0.9154030351706206, 1.5090536000822758, 0.286470912137601, 0.6523253300482722, 2.3466071102677115, -0.4759175394414496, -0.026077673394052033, 0.47016511148687934, 1.6122138080675699, 0.6404369789421602, -1.0354370318226542, -0.34246121089541864, 1.0235486807165424, 0.8367865197914932, -12.565987119160338)","(0.0, -0.008639379795751335, -0.0070685834692510935, -0.006283185306000972, 0.014137166938502187, -0.00510508806112579, 0.008246680714126275, -0.01060287520387664, -0.005497787142750851, 0.014922565101752308, -0.013351768775252066, 0.021991148571003403, -0.0070685834692510935, 0.006675884387626033, -0.01767145867312773, 0.0, 0.0)","(0.0, 0.0, -14.492, 11.076, 0.404, 4.216, 0.04, -2.628, 0.316, 7.552, -17.664, 0.62, -31.548, -0.428, -0.1, -0.156, -20.48)",250521,1522053799,795257035,robotiq_force_torque_frame_id,0.5089999794960001,2.81499999762,9.43299980164,-0.0909999981523,-0.0619999989867,-0.157000005245,609.0,632.0,848.0,1013.0,1694.0,711.0,772.0,805.0,821.0,1208.0,7,"(0.7168213157491783, -0.17274619130594374, 0.05381544828536605, 0.9800398411724756, -0.1948001850456499, 0.03652420466363232, 0.015517090400541212)",-0.04999995231599996,-0.08000004290999962,-0.04999923705999976,0.0090000033377,0.002999998629100012,-0.004000008105999986
1522082599.84,30977,1522053799,809442996,,785605,1522053797,172105802,,0.713472945105,-0.17252476024099997,0.0532943894637,0.9798898211329999,-0.196072467089,0.0334524640284,0.0158889502368,0.00044345580679500005,-0.015877406796200002,0.00445927755763,-0.025696052762700004,0.00021566103275099999,-0.00642438606921,3.5728867054,1.66061282158,7.7959442138699995,0.175780639052,2.1422431469,0.418514609337,310690,1522053797,182000128,,['l_gripper_l_finger_joint'],"(0.02083,)","(0.0,)","(0.0,)",250522,1522053799,807467784,robotiq_force_torque_frame_id,0.20900002718,2.66499996185,9.46299858093,-0.09000000357629999,-0.054999999702,-0.152999997139,609.0,629.0,851.0,1013.0,1696.0,711.0,767.0,812.0,821.0,1214.0,7,"(0.7168213157491783, -0.17274619130594374, 0.05381544828536605, 0.9800398411724756, -0.1948001850456499, 0.03652420466363232, 0.015517090400541212)",-0.2999999523160001,-0.1500000357700002,0.0299987792900005,0.0009999945760000156,0.0069999992846999995,0.004000008105999986
1522082599.84,30978,1522053799,819408893,,785605,1522053797,172105802,,0.713472945105,-0.17252476024099997,0.0532943894637,0.9798898211329999,-0.196072467089,0.0334524640284,0.0158889502368,0.00044345580679500005,-0.015877406796200002,0.00445927755763,-0.025696052762700004,0.00021566103275099999,-0.00642438606921,3.5728867054,1.66061282158,7.7959442138699995,0.175780639052,2.1422431469,0.418514609337,786003,1522053797,180167359,,"['head_nod', 'head_pan', 'left_e0', 'left_e1', 'left_s0', 'left_s1', 'left_w0', 'left_w1', 'left_w2', 'right_e0', 'right_e1', 'right_s0', 'right_s1', 'right_w0', 'right_w1', 'right_w2', 'torso_t0']","(0.0, -0.10200972239438001, -0.9146360447766779, 1.5098205904762185, 0.286470912137601, 0.6527088252452435, 2.3466071102677115, -0.47553404424447826, -0.026461168591023387, 0.4705486066838507, 1.6114468176736272, 0.6404369789421602, -1.0354370318226542, -0.34207771569844725, 1.0235486807165424, 0.8367865197914932, -12.565987119160338)","(0.0, 0.005890486224375911, -0.01688606050987761, -0.0070685834692510935, 0.007853981632501214, 0.00039269908162506076, 0.019634954081253035, -0.0035342917346255468, -0.003141592653000486, 0.009817477040626518, 0.006675884387626033, -0.01531526418337737, 0.009817477040626518, -0.008246680714126275, -0.010995574285501701, 0.004319689897875668, 0.0)","(0.0, 0.0, -14.524, 11.044, 0.34, 4.184, 0.04, -2.616, 0.316, 7.584, -17.664, 0.652, -31.548, -0.42, -0.1, -0.148, -20.48)",250523,1522053799,815600324,robotiq_force_torque_frame_id,-0.0909999251366,3.0749999880799996,9.80299873352,-0.0920000001788,-0.0489999987185,-0.152999997139,607.0,629.0,851.0,1030.0,1696.0,726.0,775.0,812.0,837.0,1214.0,7,"(0.7168213157491783, -0.17274619130594374, 0.05381544828536605, 0.9800398411724756, -0.1948001850456499, 0.03652420466363232, 0.015517090400541212)",-0.2999999523166,0.41000002622999965,0.34000015259000094,-0.001999996602500012,0.006000000983500002,0.0
1522082599.84,30979,1522053799,829442024,,785605,1522053797,172105802,,0.713472945105,-0.17252476024099997,0.0532943894637,0.9798898211329999,-0.196072467089,0.0334524640284,0.0158889502368,0.00044345580679500005,-0.015877406796200002,0.00445927755763,-0.025696052762700004,0.00021566103275099999,-0.00642438606921,3.5728867054,1.66061282158,7.7959442138699995,0.175780639052,2.1422431469,0.418514609337,786003,1522053797,180167359,,"['head_nod', 'head_pan', 'left_e0', 'left_e1', 'left_s0', 'left_s1', 'left_w0', 'left_w1', 'left_w2', 'right_e0', 'right_e1', 'right_s0', 'right_s1', 'right_w0', 'right_w1', 'right_w2', 'torso_t0']","(0.0, -0.10200972239438001, -0.9146360447766779, 1.5098205904762185, 0.286470912137601, 0.6527088252452435, 2.3466071102677115, -0.47553404424447826, -0.026461168591023387, 0.4705486066838507, 1.6114468176736272, 0.6404369789421602, -1.0354370318226542, -0.34207771569844725, 1.0235486807165424, 0.8367865197914932, -12.565987119160338)","(0.0, 0.005890486224375911, -0.01688606050987761, -0.0070685834692510935, 0.007853981632501214, 0.00039269908162506076, 0.019634954081253035, -0.0035342917346255468, -0.003141592653000486, 0.009817477040626518, 0.006675884387626033, -0.01531526418337737, 0.009817477040626518, -0.008246680714126275, -0.010995574285501701, 0.004319689897875668, 0.0)","(0.0, 0.0, -14.524, 11.044, 0.34, 4.184, 0.04, -2.616, 0.316, 7.584, -17.664, 0.652, -31.548, -0.42, -0.1, -0.148, -20.48)",250524,1522053799,827793136,robotiq_force_torque_frame_id,-0.831000053883,2.47500002384,9.80299873352,-0.09499999880789999,-0.06499999761580001,-0.145999997854,607.0,630.0,850.0,1030.0,1697.0,726.0,775.0,806.0,837.0,1223.0,7,"(0.7168213157491783, -0.17274619130594374, 0.05381544828536605, 0.9800398411724756, -0.1948001850456499, 0.03652420466363232, 0.015517090400541212)",-0.7400001287464,-0.5999999642399998,0.0,-0.002999998629099984,-0.015999998897300013,0.006999999285000003
1522082599.88,30980,1522053799,839564085,,785608,1522053797,202112217,,0.7141327411280001,-0.172943286741,0.053647862023900005,0.9798984868330001,-0.19589401262800002,0.0341550980702,0.016059906409,0.0096982464921,0.00461194205292,0.00733530329057,0.00968832370406,-0.0270219799913,-0.0102108371277,3.67368412018,1.77982246876,7.6927614212,0.0895826816559,2.17863082886,0.379330694675,786005,1522053797,200202264,,"['head_nod', 'head_pan', 'left_e0', 'left_e1', 'left_s0', 'left_s1', 'left_w0', 'left_w1', 'left_w2', 'right_e0', 'right_e1', 'right_s0', 'right_s1', 'right_w0', 'right_w1', 'right_w2', 'torso_t0']","(0.0, -0.10162622719740866, -0.9154030351706206, 1.5098205904762185, 0.28685440733457235, 0.6523253300482722, 2.346990605464683, -0.476301034638421, -0.026461168591023387, 0.47016511148687934, 1.6122138080675699, 0.6400534837451889, -1.0358205270196257, -0.3432282012893613, 1.0235486807165424, 0.8367865197914932, -12.565987119160338)","(0.0, -0.010995574285501701, -0.010995574285501701, 0.00510508806112579, 0.0035342917346255468, 0.014529866020127248, -0.010995574285501701, 0.005890486224375911, 0.011780972448751823, -0.005890486224375911, 0.001570796326500243, 0.00510508806112579, -0.014529866020127248, 0.008246680714126275, -0.018849555918002914, 0.007853981632501214, 0.0)","(0.0, 0.0, -14.588, 11.044, 0.436, 4.216, 0.06, -2.616, 0.316, 7.648, -17.664, 0.652, -31.428, -0.42, -0.12, -0.14, -20.48)",250525,1522053799,840000931,robotiq_force_torque_frame_id,-0.37099989652599996,1.77499997616,9.4829990387,-0.09000000357629999,-0.0670000016689,-0.131999999285,606.0,630.0,850.0,1016.0,1697.0,726.0,765.0,806.0,837.0,1214.0,7,"(0.7168213157491783, -0.17274619130594374, 0.05381544828536605, 0.9800398411724756, -0.1948001850456499, 0.03652420466363232, 0.015517090400541212)",0.46000015735700006,-0.7000000476799999,-0.3199996948200017,0.004999995231599996,-0.0020000040530999824,0.013999998569
1522082599.88,30981,1522053799,849404096,,785608,1522053797,202112217,,0.7141327411280001,-0.172943286741,0.053647862023900005,0.9798984868330001,-0.19589401262800002,0.0341550980702,0.016059906409,0.0096982464921,0.00461194205292,0.00733530329057,0.00968832370406,-0.0270219799913,-0.0102108371277,3.67368412018,1.77982246876,7.6927614212,0.0895826816559,2.17863082886,0.379330694675,786006,1522053797,210166669,,"['head_nod', 'head_pan', 'left_e0', 'left_e1', 'left_s0', 'left_s1', 'left_w0', 'left_w1', 'left_w2', 'right_e0', 'right_e1', 'right_s0', 'right_s1', 'right_w0', 'right_w1', 'right_w2', 'torso_t0']","(0.0, -0.10200972239438001, -0.9150195399736493, 1.509437095279247, 0.28685440733457235, 0.6523253300482722, 2.348141091055597, -0.4759175394414496, -0.026461168591023387, 0.4705486066838507, 1.6118303128705984, 0.6404369789421602, -1.0358205270196257, -0.34246121089541864, 1.0239321759135136, 0.8367865197914932, -12.565987119160338)","(0.0, 0.006283185306000972, 0.02081305132612822, -0.015707963265002428, 0.012566370612001944, -0.0027488935713754254, 0.0007853981632501215, 0.0023561944897503642, -0.003926990816250607, 0.001570796326500243, -0.001570796326500243, 0.023169245815878585, -0.009817477040626518, -0.01060287520387664, 0.004319689897875668, -0.003141592653000486, 0.0)","(0.0, 0.0, -14.46, 11.076, 0.404, 4.184, 0.04, -2.636, 0.336, 7.616, -17.632, 0.62, -31.488, -0.42, -0.128, -0.156, -20.48)",250526,1522053799,848147913,robotiq_force_torque_frame_id,0.39900008439999995,2.61500000954,9.31300086975,-0.0879999995232,-0.0579999983311,-0.143000006676,605.0,624.0,841.0,1001.0,1691.0,726.0,765.0,797.0,830.0,1214.0,7,"(0.7168213157491783, -0.17274619130594374, 0.05381544828536605, 0.9800398411724756, -0.1948001850456499, 0.03652420466363232, 0.015517090400541212)",0.7699999809259999,0.8400000333800002,-0.16999816894999853,0.0020000040530999824,0.009000003337799996,-0.011000007390999988
1522082599.88,30982,1522053799,859612941,,785610,1522053797,222110861,,0.7140965131479999,-0.173412604181,0.0537687627403,0.9798506944959999,-0.196127762711,0.0340990744806,0.0162410069977,0.008293652637029999,0.0007735821352210001,-4.3118788917e-06,0.0066478649256799995,-0.0166415892587,-0.008654060957600001,3.53683948517,1.70918953419,7.739530563350001,0.0695708915591,2.09622716904,0.367675423622,786006,1522053797,210166669,,"['head_nod', 'head_pan', 'left_e0', 'left_e1', 'left_s0', 'left_s1', 'left_w0', 'left_w1', 'left_w2', 'right_e0', 'right_e1', 'right_s0', 'right_s1', 'right_w0', 'right_w1', 'right_w2', 'torso_t0']","(0.0, -0.10200972239438001, -0.9150195399736493, 1.509437095279247, 0.28685440733457235, 0.6523253300482722, 2.348141091055597, -0.4759175394414496, -0.026461168591023387, 0.4705486066838507, 1.6118303128705984, 0.6404369789421602, -1.0358205270196257, -0.34246121089541864, 1.0239321759135136, 0.8367865197914932, -12.565987119160338)","(0.0, 0.006283185306000972, 0.02081305132612822, -0.015707963265002428, 0.012566370612001944, -0.0027488935713754254, 0.0007853981632501215, 0.0023561944897503642, -0.003926990816250607, 0.001570796326500243, -0.001570796326500243, 0.023169245815878585, -0.009817477040626518, -0.01060287520387664, 0.004319689897875668, -0.003141592653000486, 0.0)","(0.0, 0.0, -14.46, 11.076, 0.404, 4.184, 0.04, -2.636, 0.336, 7.616, -17.632, 0.62, -31.488, -0.42, -0.128, -0.156, -20.48)",250527,1522053799,856294189,robotiq_force_torque_frame_id,0.46900001764300003,2.84500002861,9.39299888611,-0.08900000154969999,-0.052000001072899996,-0.15099999308599998,605.0,623.0,841.0,1001.0,1686.0,722.0,762.0,802.0,830.0,1219.0,7,"(0.7168213157491783, -0.17274619130594374, 0.05381544828536605, 0.9800398411724756, -0.1948001850456499, 0.03652420466363232, 0.015517090400541212)",0.06999993324300008,0.23000001906999978,0.07999801635999937,-0.0010000020264999826,0.005999997258200003,-0.007999986409999993
1522082599.88,30983,1522053799,869422912,,785610,1522053797,222110861,,0.7140965131479999,-0.173412604181,0.0537687627403,0.9798506944959999,-0.196127762711,0.0340990744806,0.0162410069977,0.008293652637029999,0.0007735821352210001,-4.3118788917e-06,0.0066478649256799995,-0.0166415892587,-0.008654060957600001,3.53683948517,1.70918953419,7.739530563350001,0.0695708915591,2.09622716904,0.367675423622,786008,1522053797,230174037,,"['head_nod', 'head_pan', 'left_e0', 'left_e1', 'left_s0', 'left_s1', 'left_w0', 'left_w1', 'left_w2', 'right_e0', 'right_e1', 'right_s0', 'right_s1', 'right_w0', 'right_w1', 'right_w2', 'torso_t0']","(0.0, -0.10162622719740866, -0.9150195399736493, 1.5090536000822758, 0.28685440733457235, 0.6523253300482722, 2.346990605464683, -0.476301034638421, -0.026077673394052033, 0.4705486066838507, 1.6129807984615125, 0.6412039693361029, -1.036204022216597, -0.34284470609239, 1.0235486807165424, 0.8367865197914932, -12.565987119160338)","(0.0, -0.0027488935713754254, -0.023954643979128706, 0.014529866020127248, -0.013351768775252066, 0.014922565101752308, 0.014529866020127248, -0.0007853981632501215, -0.0035342917346255468, 0.014922565101752308, -0.004319689897875668, -0.007461282550876154, 0.00039269908162506076, 0.00039269908162506076, -0.009032078877376396, -0.012959069693627005, 0.0)","(0.0, 0.0, -14.46, 11.044, 0.372, 4.184, 0.068, -2.636, 0.316, 7.648, -17.664, 0.528, -31.488, -0.412, -0.12, -0.14, -20.48)",250528,1522053799,868495662,robotiq_force_torque_frame_id,1.01899996996,3.5350000113199997,9.69299812317,-0.09399999678130001,-0.0630000010133,-0.15000000596,604.0,623.0,842.0,994.0,1686.0,738.0,762.0,802.0,824.0,1219.0,7,"(0.7168213157491783, -0.17274619130594374, 0.05381544828536605, 0.9800398411724756, -0.1948001850456499, 0.03652420466363232, 0.015517090400541212)",0.549999952317,0.6899999827099998,0.29999923705999976,-0.004999995231600024,-0.010999999940400004,0.000999987125999996
1522082599.92,30984,1522053799,879515886,,785610,1522053797,222110861,,0.7140965131479999,-0.173412604181,0.0537687627403,0.9798506944959999,-0.196127762711,0.0340990744806,0.0162410069977,0.008293652637029999,0.0007735821352210001,-4.3118788917e-06,0.0066478649256799995,-0.0166415892587,-0.008654060957600001,3.53683948517,1.70918953419,7.739530563350001,0.0695708915591,2.09622716904,0.367675423622,786009,1522053797,240184680,,"['head_nod', 'head_pan', 'left_e0', 'left_e1', 'left_s0', 'left_s1', 'left_w0', 'left_w1', 'left_w2', 'right_e0', 'right_e1', 'right_s0', 'right_s1', 'right_w0', 'right_w1', 'right_w2', 'torso_t0']","(0.0, -0.10200972239438001, -0.9154030351706206, 1.509437095279247, 0.28723790253154374, 0.6523253300482722, 2.3477575958586256, -0.476301034638421, -0.026461168591023387, 0.4705486066838507, 1.6118303128705984, 0.6408204741391316, -1.0358205270196257, -0.3416942205014759, 1.0235486807165424, 0.8364030245945219, -12.565987119160338)","(0.0, 0.009424777959001457, 0.003141592653000486, 0.003141592653000486, -0.0007853981632501215, 0.0035342917346255468, -0.012173671530376884, -0.01649336142825255, 0.003926990816250607, -0.0070685834692510935, 0.01060287520387664, 0.012959069693627005, 0.003141592653000486, 0.005497787142750851, -0.005890486224375911, 0.008246680714126275, 0.0)","(0.0, 0.0, -14.524, 11.044, 0.372, 4.216, 0.04, -2.596, 0.336, 7.552, -17.692, 0.652, -31.46, -0.412, -0.14, -0.168, -20.48)",250529,1522053799,876630263,robotiq_force_torque_frame_id,1.11900011301,3.5750000178800003,9.33300132751,-0.09399999678130001,-0.0619999989867,-0.157000005245,604.0,622.0,842.0,1008.0,1686.0,738.0,760.0,805.0,824.0,1219.0,7,"(0.7168213157491783, -0.17274619130594374, 0.05381544828536605, 0.9800398411724756, -0.1948001850456499, 0.03652420466363232, 0.015517090400541212)",0.10000014304999993,0.04000000656000058,-0.359996795659999,0.0,0.0010000020265999998,-0.006999999285000003
1522082599.92,30985,1522053799,889391899,,785613,1522053797,252111620,,0.714007866574,-0.17268802826699997,0.053307559587900004,0.979901476304,-0.195926332125,0.034009557545,0.015789842052,0.008736111025350001,-0.0017464642983,-0.00443842669601,0.0173801101752,-0.000210141163185,-0.0173947191273,3.6141536235800005,1.78766596317,7.685287475589999,0.0377557426691,2.11326241493,0.383697271347,786009,1522053797,240184680,,"['head_nod', 'head_pan', 'left_e0', 'left_e1', 'left_s0', 'left_s1', 'left_w0', 'left_w1', 'left_w2', 'right_e0', 'right_e1', 'right_s0', 'right_s1', 'right_w0', 'right_w1', 'right_w2', 'torso_t0']","(0.0, -0.10200972239438001, -0.9154030351706206, 1.509437095279247, 0.28723790253154374, 0.6523253300482722, 2.3477575958586256, -0.476301034638421, -0.026461168591023387, 0.4705486066838507, 1.6118303128705984, 0.6408204741391316, -1.0358205270196257, -0.3416942205014759, 1.0235486807165424, 0.8364030245945219, -12.565987119160338)","(0.0, 0.009424777959001457, 0.003141592653000486, 0.003141592653000486, -0.0007853981632501215, 0.0035342917346255468, -0.012173671530376884, -0.01649336142825255, 0.003926990816250607, -0.0070685834692510935, 0.01060287520387664, 0.012959069693627005, 0.003141592653000486, 0.005497787142750851, -0.005890486224375911, 0.008246680714126275, 0.0)","(0.0, 0.0, -14.524, 11.044, 0.372, 4.216, 0.04, -2.596, 0.336, 7.552, -17.692, 0.652, -31.46, -0.412, -0.14, -0.168, -20.48)",250530,1522053799,888820955,robotiq_force_torque_frame_id,1.1290001034700001,3.6250000149,9.08300132751,-0.097000002861,-0.06499999761580001,-0.173999994993,604.0,622.0,842.0,1008.0,1686.0,746.0,758.0,800.0,824.0,1215.0,7,"(0.7168213157491783, -0.17274619130594374, 0.05381544828536605, 0.9800398411724756, -0.1948001850456499, 0.03652420466363232, 0.015517090400541212)",0.009999990460000108,0.049999997019999576,-0.25,-0.0030000060796999822,-0.002999998629100012,-0.016999989748000016
1522082599.92,30986,1522053799,899471998,,785613,1522053797,252111620,,0.714007866574,-0.17268802826699997,0.053307559587900004,0.979901476304,-0.195926332125,0.034009557545,0.015789842052,0.008736111025350001,-0.0017464642983,-0.00443842669601,0.0173801101752,-0.000210141163185,-0.0173947191273,3.6141536235800005,1.78766596317,7.685287475589999,0.0377557426691,2.11326241493,0.383697271347,786011,1522053797,260205917,,"['head_nod', 'head_pan', 'left_e0', 'left_e1', 'left_s0', 'left_s1', 'left_w0', 'left_w1', 'left_w2', 'right_e0', 'right_e1', 'right_s0', 'right_s1', 'right_w0', 'right_w1', 'right_w2', 'torso_t0']","(0.0, -0.10162622719740866, -0.9146360447766779, 1.509437095279247, 0.28723790253154374, 0.6527088252452435, 2.3477575958586256, -0.4770680250323637, -0.026077673394052033, 0.4705486066838507, 1.612597303264541, 0.6408204741391316, -1.0354370318226542, -0.3432282012893613, 1.0235486807165424, 0.8364030245945219, -12.565987119160338)","(0.0, -0.003926990816250607, 0.021598449489378342, -0.012173671530376884, 0.01060287520387664, -0.009817477040626518, -0.005890486224375911, 0.009817477040626518, 0.0035342917346255468, -0.00039269908162506076, -0.018456856836377853, -0.00510508806112579, 0.0035342917346255468, -0.006675884387626033, 0.011388273367126762, -0.012959069693627005, 0.0)","(0.0, 0.0, -14.556, 11.076, 0.404, 4.184, 0.068, -2.616, 0.336, 7.552, -17.664, 0.652, -31.46, -0.42, -0.128, -0.14, -20.48)",250531,1522053799,896974091,robotiq_force_torque_frame_id,1.1490000844,3.7050000149800004,9.39299888611,-0.09600000083450001,-0.0599999986589,-0.162000000477,607.0,618.0,835.0,1022.0,1679.0,746.0,758.0,800.0,824.0,1215.0,7,"(0.7168213157491783, -0.17274619130594374, 0.05381544828536605, 0.9800398411724756, -0.1948001850456499, 0.03652420466363232, 0.015517090400541212)",0.019999980929999772,0.08000000008000052,0.3099975585999992,0.0010000020264999826,0.004999998956900009,0.011999994516000007
1522082599.92,30987,1522053799,909478902,,785615,1522053797,272106225,,0.7136182653200001,-0.17305333292199998,0.0530698113166,0.9799124566349999,-0.19593796058200003,0.0335045753748,0.0160417069707,-0.0115986999061,-0.00179112603547,-0.00653139972975,-0.011229581609700001,0.017708372144,-0.0031957416407499997,3.60957837105,1.88545084,7.7618179321300005,0.016973376274099998,2.13010072708,0.369898915291,310694,1522053797,281999872,,['l_gripper_l_finger_joint'],"(0.02083,)","(0.0,)","(0.0,)",250532,1522053799,905117398,robotiq_force_torque_frame_id,0.318999922276,3.00499999523,9.62299842834,-0.09600000083450001,-0.0670000016689,-0.152999997139,607.0,615.0,835.0,1022.0,1673.0,748.0,776.0,804.0,820.0,1204.0,7,"(0.7168213157491783, -0.17274619130594374, 0.05381544828536605, 0.9800398411724756, -0.1948001850456499, 0.03652420466363232, 0.015517090400541212)",-0.8300001621239999,-0.7000000197500005,0.22999954223000074,0.0,-0.007000003009999992,0.009000003337999996
1522082599.92,30988,1522053799,919365882,,785615,1522053797,272106225,,0.7136182653200001,-0.17305333292199998,0.0530698113166,0.9799124566349999,-0.19593796058200003,0.0335045753748,0.0160417069707,-0.0115986999061,-0.00179112603547,-0.00653139972975,-0.011229581609700001,0.017708372144,-0.0031957416407499997,3.60957837105,1.88545084,7.7618179321300005,0.016973376274099998,2.13010072708,0.369898915291,786013,1522053797,280218996,,"['head_nod', 'head_pan', 'left_e0', 'left_e1', 'left_s0', 'left_s1', 'left_w0', 'left_w1', 'left_w2', 'right_e0', 'right_e1', 'right_s0', 'right_s1', 'right_w0', 'right_w1', 'right_w2', 'torso_t0']","(0.0, -0.10162622719740866, -0.915786530367592, 1.5090536000822758, 0.286470912137601, 0.6523253300482722, 2.3466071102677115, -0.476301034638421, -0.026077673394052033, 0.47016511148687934, 1.6118303128705984, 0.6404369789421602, -1.0358205270196257, -0.34284470609239, 1.0235486807165424, 0.8367865197914932, -12.565987119160338)","(0.0, 0.003141592653000486, -0.0023561944897503642, 0.001570796326500243, 0.005890486224375911, 0.012566370612001944, -0.013351768775252066, 0.001570796326500243, -0.003141592653000486, 0.00039269908162506076, 0.005890486224375911, 0.0047123889795007284, -0.005497787142750851, -0.0007853981632501215, 0.013744467856877126, 0.0007853981632501215, 0.0)","(0.0, 0.0, -14.524, 11.044, 0.404, 4.184, 0.076, -2.608, 0.344, 7.584, -17.692, 0.684, -31.488, -0.42, -0.128, -0.156, -20.48)",250533,1522053799,917309972,robotiq_force_torque_frame_id,0.498999989033,2.65499997139,9.55299873352,-0.10000000149,-0.0619999989867,-0.141000002623,613.0,615.0,841.0,1022.0,1673.0,743.0,776.0,804.0,828.0,1204.0,7,"(0.7168213157491783, -0.17274619130594374, 0.05381544828536605, 0.9800398411724756, -0.1948001850456499, 0.03652420466363232, 0.015517090400541212)",0.18000006675700003,-0.35000002383999984,-0.0699996948199999,-0.004000000655499991,0.005000002682199994,0.011999994516000007
1522082599.93,30989,1522053799,929439067,,785617,1522053797,292124800,,0.7134628429950001,-0.171801121371,0.0531037716758,0.9800957271809999,-0.195027958563,0.033514029000300004,0.0159144839855,-0.00389870264871,-0.0020085586673,0.0026608669224400003,-0.0025157641837299997,0.005968690151260001,-0.0152803726124,3.8994636535600002,1.8638809919400001,7.59215545654,0.00478395819664,2.22881770134,0.341087311506,786013,1522053797,280218996,,"['head_nod', 'head_pan', 'left_e0', 'left_e1', 'left_s0', 'left_s1', 'left_w0', 'left_w1', 'left_w2', 'right_e0', 'right_e1', 'right_s0', 'right_s1', 'right_w0', 'right_w1', 'right_w2', 'torso_t0']","(0.0, -0.10162622719740866, -0.915786530367592, 1.5090536000822758, 0.286470912137601, 0.6523253300482722, 2.3466071102677115, -0.476301034638421, -0.026077673394052033, 0.47016511148687934, 1.6118303128705984, 0.6404369789421602, -1.0358205270196257, -0.34284470609239, 1.0235486807165424, 0.8367865197914932, -12.565987119160338)","(0.0, 0.003141592653000486, -0.0023561944897503642, 0.001570796326500243, 0.005890486224375911, 0.012566370612001944, -0.013351768775252066, 0.001570796326500243, -0.003141592653000486, 0.00039269908162506076, 0.005890486224375911, 0.0047123889795007284, -0.005497787142750851, -0.0007853981632501215, 0.013744467856877126, 0.0007853981632501215, 0.0)","(0.0, 0.0, -14.524, 11.044, 0.404, 4.184, 0.076, -2.608, 0.344, 7.584, -17.692, 0.684, -31.488, -0.42, -0.128, -0.156, -20.48)",250534,1522053799,929535247,robotiq_force_torque_frame_id,0.20900002718,2.29499995708,9.41299934387,-0.10000000149,-0.057000000029800005,-0.136000007391,608.0,613.0,834.0,1018.0,1676.0,743.0,777.0,811.0,828.0,1211.0,7,"(0.7168213157491783, -0.17274619130594374, 0.05381544828536605, 0.9800398411724756, -0.1948001850456499, 0.03652420466363232, 0.015517090400541212)",-0.28999996185300003,-0.36000001431000017,-0.1399993896500007,0.0,0.004999998956899995,0.00499999523200001
1522082599.97,30990,1522053799,939380884,,785618,1522053797,302125973,,0.714585112935,-0.172352336426,0.0540419409007,0.979946260994,-0.19559076241300002,0.0346660564651,0.0157430540539,-0.0019457353505100002,0.00724702330689,-0.00662045674368,0.0134028329133,0.00022298359631799997,0.017188135681200003,3.58143925667,1.7567611932799998,7.59602165222,0.08529871702189999,2.09796214104,0.37664023041699995,786015,1522053797,300199955,,"['head_nod', 'head_pan', 'left_e0', 'left_e1', 'left_s0', 'left_s1', 'left_w0', 'left_w1', 'left_w2', 'right_e0', 'right_e1', 'right_s0', 'right_s1', 'right_w0', 'right_w1', 'right_w2', 'torso_t0']","(0.0, -0.10200972239438001, -0.9150195399736493, 1.5102040856731898, 0.286470912137601, 0.6515583396543295, 2.3477575958586256, -0.477451520229335, -0.026461168591023387, 0.4705486066838507, 1.6118303128705984, 0.6404369789421602, -1.036204022216597, -0.3432282012893613, 1.023165185519571, 0.8367865197914932, -12.565987119160338)","(0.0, -0.01531526418337737, -0.0011780972448751821, 0.01688606050987761, -0.008246680714126275, -0.003141592653000486, 0.0070685834692510935, -0.027488935713754253, -0.0035342917346255468, -0.0011780972448751821, 0.012566370612001944, 0.001570796326500243, 0.004319689897875668, 0.01021017612225158, -0.022383847652628464, -0.01727875959150267, 0.0)","(0.0, 0.0, -14.588, 11.044, 0.464, 4.252, 0.052, -2.608, 0.336, 7.616, -17.664, 0.652, -31.428, -0.428, -0.16, -0.14, -20.48)",250535,1522053799,937676927,robotiq_force_torque_frame_id,0.14900008439999998,2.03499996662,8.76299781799,-0.0920000001788,-0.0640000030398,-0.15099999308599998,608.0,614.0,834.0,1018.0,1676.0,727.0,771.0,811.0,823.0,1213.0,7,"(0.7168213157491783, -0.17274619130594374, 0.05381544828536605, 0.9800398411724756, -0.1948001850456499, 0.03652420466363232, 0.015517090400541212)",-0.05999994278000001,-0.2599999904599999,-0.6500015258800005,0.008000001311200003,-0.007000003009999992,-0.014999985694999995
1522082599.97,30991,1522053799,949389934,,785618,1522053797,302125973,,0.714585112935,-0.172352336426,0.0540419409007,0.979946260994,-0.19559076241300002,0.0346660564651,0.0157430540539,-0.0019457353505100002,0.00724702330689,-0.00662045674368,0.0134028329133,0.00022298359631799997,0.017188135681200003,3.58143925667,1.7567611932799998,7.59602165222,0.08529871702189999,2.09796214104,0.37664023041699995,786015,1522053797,300199955,,"['head_nod', 'head_pan', 'left_e0', 'left_e1', 'left_s0', 'left_s1', 'left_w0', 'left_w1', 'left_w2', 'right_e0', 'right_e1', 'right_s0', 'right_s1', 'right_w0', 'right_w1', 'right_w2', 'torso_t0']","(0.0, -0.10200972239438001, -0.9150195399736493, 1.5102040856731898, 0.286470912137601, 0.6515583396543295, 2.3477575958586256, -0.477451520229335, -0.026461168591023387, 0.4705486066838507, 1.6118303128705984, 0.6404369789421602, -1.036204022216597, -0.3432282012893613, 1.023165185519571, 0.8367865197914932, -12.565987119160338)","(0.0, -0.01531526418337737, -0.0011780972448751821, 0.01688606050987761, -0.008246680714126275, -0.003141592653000486, 0.0070685834692510935, -0.027488935713754253, -0.0035342917346255468, -0.0011780972448751821, 0.012566370612001944, 0.001570796326500243, 0.004319689897875668, 0.01021017612225158, -0.022383847652628464, -0.01727875959150267, 0.0)","(0.0, 0.0, -14.588, 11.044, 0.464, 4.252, 0.052, -2.608, 0.336, 7.616, -17.664, 0.652, -31.428, -0.428, -0.16, -0.14, -20.48)",250535,1522053799,937676927,robotiq_force_torque_frame_id,0.14900008439999998,2.03499996662,8.76299781799,-0.0920000001788,-0.0640000030398,-0.15099999308599998,607.0,614.0,829.0,1026.0,1686.0,727.0,771.0,820.0,823.0,1213.0,7,"(0.7168213157491783, -0.17274619130594374, 0.05381544828536605, 0.9800398411724756, -0.1948001850456499, 0.03652420466363232, 0.015517090400541212)",0.0,0.0,0.0,0.0,0.0,0.0
1522082599.97,30992,1522053799,959454059,,785620,1522053797,322133266,,0.7137330664110001,-0.172735284156,0.0533919596973,0.979917657148,-0.19590282687899999,0.0336148593988,0.0159219615174,-0.00356008401382,0.0038818733289,-0.00856315177758,-5.76656944762e-05,0.012872454734799999,0.007897079488390002,3.60611629486,1.71117985249,7.647969245910001,0.10346208512800001,2.10467481613,0.383525669575,786017,1522053797,320221258,,"['head_nod', 'head_pan', 'left_e0', 'left_e1', 'left_s0', 'left_s1', 'left_w0', 'left_w1', 'left_w2', 'right_e0', 'right_e1', 'right_s0', 'right_s1', 'right_w0', 'right_w1', 'right_w2', 'torso_t0']","(0.0, -0.10200972239438001, -0.9154030351706206, 1.509437095279247, 0.28608741694062967, 0.6523253300482722, 2.346990605464683, -0.4770680250323637, -0.026077673394052033, 0.47016511148687934, 1.6122138080675699, 0.6400534837451889, -1.0354370318226542, -0.34246121089541864, 1.0239321759135136, 0.8364030245945219, -12.565987119160338)","(0.0, -0.0027488935713754254, -0.013744467856877126, -0.0007853981632501215, -0.004319689897875668, 0.023561944897503646, -0.009424777959001457, 0.0027488935713754254, 0.005497787142750851, 0.005497787142750851, -0.004319689897875668, 0.0027488935713754254, 0.019242254999627974, -0.007853981632501214, 0.0011780972448751821, 0.0023561944897503642, 0.0)","(0.0, 0.0, -14.492, 11.044, 0.436, 4.216, 0.032, -2.608, 0.316, 7.616, -17.664, 0.62, -31.46, -0.436, -0.148, -0.14, -20.48)",250536,1522053799,949872626,robotiq_force_torque_frame_id,0.67900005579,2.6449999809299998,8.7329990387,-0.0930000022054,-0.0560000017285,-0.14499999582800002,607.0,614.0,829.0,1026.0,1686.0,746.0,771.0,820.0,826.0,1213.0,7,"(0.7168213157491783, -0.17274619130594374, 0.05381544828536605, 0.9800398411724756, -0.1948001850456499, 0.03652420466363232, 0.015517090400541212)",0.52999997139,0.6100000143099997,-0.0299987792900005,-0.0010000020265999998,0.0080000013113,0.005999997257999962
1522082600.01,30993,1522053799,969445943,,785620,1522053797,322133266,,0.7137330664110001,-0.172735284156,0.0533919596973,0.979917657148,-0.19590282687899999,0.0336148593988,0.0159219615174,-0.00356008401382,0.0038818733289,-0.00856315177758,-5.76656944762e-05,0.012872454734799999,0.007897079488390002,3.60611629486,1.71117985249,7.647969245910001,0.10346208512800001,2.10467481613,0.383525669575,310696,1522053797,332999936,,['l_gripper_l_finger_joint'],"(0.02083,)","(0.0,)","(0.0,)",250538,1522053799,966155276,robotiq_force_torque_frame_id,0.409000074863,2.625,9.1730014801,-0.10400000214600001,-0.0670000016689,-0.135000005364,606.0,607.0,837.0,1009.0,1686.0,737.0,762.0,812.0,829.0,1218.0,7,"(0.7168213157491783, -0.17274619130594374, 0.05381544828536605, 0.9800398411724756, -0.1948001850456499, 0.03652420466363232, 0.015517090400541212)",-0.269999980927,-0.019999980929999772,0.4400024414000008,-0.010999999940600011,-0.010999999940399997,0.00999999046400002
1522082600.01,30994,1522053799,979362964,,785622,1522053797,342150943,,0.714007546562,-0.17230934203200002,0.0533216474526,0.980027648732,-0.195266500758,0.0341086300387,0.015918629307299998,-0.00186685117465,-0.00223707882923,-0.00014979799306600003,-0.0020558373223199997,0.00099239150347,0.00989722687068,3.5264451503800003,1.56895208359,7.69292163849,0.183945715427,2.07786726952,0.406004220247,786019,1522053797,340226854,,"['head_nod', 'head_pan', 'left_e0', 'left_e1', 'left_s0', 'left_s1', 'left_w0', 'left_w1', 'left_w2', 'right_e0', 'right_e1', 'right_s0', 'right_s1', 'right_w0', 'right_w1', 'right_w2', 'torso_t0']","(0.0, -0.10162622719740866, -0.9150195399736493, 1.509437095279247, 0.286470912137601, 0.6523253300482722, 2.3477575958586256, -0.476301034638421, -0.026077673394052033, 0.47016511148687934, 1.612597303264541, 0.6408204741391316, -1.0354370318226542, -0.3432282012893613, 1.0227816903225997, 0.8364030245945219, -12.565987119160338)","(0.0, 0.009424777959001457, 0.018849555918002914, 0.02042035224450316, -0.008639379795751335, -0.0019634954081253035, 0.014922565101752308, -0.02081305132612822, 0.00510508806112579, 0.01610066234662749, 0.0070685834692510935, -0.014137166938502187, -0.0007853981632501215, -0.01021017612225158, -0.00039269908162506076, -0.0035342917346255468, 0.0)","(0.0, 0.0, -14.524, 11.044, 0.404, 4.184, 0.06, -2.636, 0.316, 7.584, -17.664, 0.56, -31.488, -0.428, -0.16, -0.156, -20.48)",250539,1522053799,978347068,robotiq_force_torque_frame_id,-0.29099997281999995,3.15500003099,9.40300102234,-0.109999999404,-0.0729999989271,-0.136000007391,607.0,609.0,835.0,1009.0,1690.0,737.0,760.0,810.0,829.0,1222.0,7,"(0.7168213157491783, -0.17274619130594374, 0.05381544828536605, 0.9800398411724756, -0.1948001850456499, 0.03652420466363232, 0.015517090400541212)",-0.700000047683,0.5300000309900001,0.22999954223999985,-0.005999997257999989,-0.00599999725820001,-0.0010000020269999854
1522082600.01,30995,1522053799,989386081,,785624,1522053797,362124334,,0.713980763758,-0.17206153927099999,0.053667512968800006,0.979993274753,-0.19545584176300002,0.0340623015743,0.015809964310700003,0.00191105338421,-0.011637459051099999,0.0043924315098,-0.015555509904399998,-0.00568339896974,-0.0253406343363,3.5457398891400005,1.6258620023700001,7.825063705439999,0.105664588511,2.10368728638,0.387289166451,310697,1522053797,361999872,,['r_gripper_l_finger_joint'],"(0.007654601775407791,)","(0.0,)","(0.2946236729621887,)",250540,1522053799,986492219,robotiq_force_torque_frame_id,-0.511000001431,3.09500002861,8.83300132751,-0.0920000001788,-0.0560000017285,-0.143999993801,609.0,609.0,835.0,1023.0,1690.0,738.0,758.0,810.0,831.0,1222.0,7,"(0.7168213157491783, -0.17274619130594374, 0.05381544828536605, 0.9800398411724756, -0.1948001850456499, 0.03652420466363232, 0.015517090400541212)",-0.22000002861100004,-0.06000000238000025,-0.569999694829999,0.0179999992252,0.016999997198600007,-0.00799998641000002
1522082600.01,30996,1522053799,999420881,,785624,1522053797,362124334,,0.713980763758,-0.17206153927099999,0.053667512968800006,0.979993274753,-0.19545584176300002,0.0340623015743,0.015809964310700003,0.00191105338421,-0.011637459051099999,0.0043924315098,-0.015555509904399998,-0.00568339896974,-0.0253406343363,3.5457398891400005,1.6258620023700001,7.825063705439999,0.105664588511,2.10368728638,0.387289166451,786021,1522053797,360217469,,"['head_nod', 'head_pan', 'left_e0', 'left_e1', 'left_s0', 'left_s1', 'left_w0', 'left_w1', 'left_w2', 'right_e0', 'right_e1', 'right_s0', 'right_s1', 'right_w0', 'right_w1', 'right_w2', 'torso_t0']","(0.0, -0.10200972239438001, -0.9150195399736493, 1.5090536000822758, 0.286470912137601, 0.6519418348513009, 2.348141091055597, -0.476301034638421, -0.026077673394052033, 0.4705486066838507, 1.6122138080675699, 0.6408204741391316, -1.0358205270196257, -0.34284470609239, 1.0235486807165424, 0.8367865197914932, -12.565987119160338)","(0.0, -0.0047123889795007284, -0.012173671530376884, 0.0007853981632501215, 0.019634954081253035, -0.0011780972448751821, -0.02120575040775328, -0.009032078877376396, -0.014922565101752308, -0.021598449489378342, 0.0011780972448751821, 0.008246680714126275, -0.012173671530376884, -0.001570796326500243, 0.005497787142750851, 0.015707963265002428, 0.0)","(0.0, 0.0, -14.492, 11.044, 0.464, 4.184, 0.076, -2.596, 0.324, 7.552, -17.692, 0.592, -31.548, -0.444, -0.128, -0.156, -20.48)",250541,1522053799,998694064,robotiq_force_torque_frame_id,0.09899989366530001,2.30500006676,9.02299995422,-0.0909999981523,-0.0579999983311,-0.14499999582800002,609.0,611.0,834.0,1014.0,1678.0,738.0,758.0,808.0,831.0,1218.0,7,"(0.7168213157491783, -0.17274619130594374, 0.05381544828536605, 0.9800398411724756, -0.1948001850456499, 0.03652420466363232, 0.015517090400541212)",0.6099998950963,-0.78999996185,0.18999862670999867,0.0010000020264999965,-0.0019999966026000016,-0.0010000020270000132
1522082600.01,30997,1522053800,9421110,,785625,1522053797,372127199,,0.7138456491290001,-0.172422718711,0.0534030761484,0.979915583011,-0.195895979013,0.0337747181942,0.0157950621578,-0.00467734825621,0.00543866963925,-0.00447033038837,0.00318469316705,0.005514025528640001,-0.0168126828899,3.76092147827,1.5993841886500002,7.71587085724,0.146760955453,2.19797897339,0.413663268089,310698,1522053797,383000064,,['l_gripper_l_finger_joint'],"(0.02083,)","(0.0,)","(0.0,)",250542,1522053800,6838487,robotiq_force_torque_frame_id,0.45900002718000005,2.125,9.203000259400001,-0.097000002861,-0.0640000030398,-0.141000002623,607.0,611.0,834.0,1014.0,1680.0,742.0,772.0,814.0,821.0,1215.0,7,"(0.7168213157491783, -0.17274619130594374, 0.05381544828536605, 0.9800398411724756, -0.1948001850456499, 0.03652420466363232, 0.015517090400541212)",0.36000013351470006,-0.1800000667599999,0.18000030518000187,-0.006000004708699991,-0.006000004708699998,0.003999993205000024
1522082600.02,30998,1522053800,19511938,,785625,1522053797,372127199,,0.7138456491290001,-0.172422718711,0.0534030761484,0.979915583011,-0.195895979013,0.0337747181942,0.0157950621578,-0.00467734825621,0.00543866963925,-0.00447033038837,0.00318469316705,0.005514025528640001,-0.0168126828899,3.76092147827,1.5993841886500002,7.71587085724,0.146760955453,2.19797897339,0.413663268089,310698,1522053797,383000064,,['l_gripper_l_finger_joint'],"(0.02083,)","(0.0,)","(0.0,)",250543,1522053800,19069538,robotiq_force_torque_frame_id,0.689000046253,1.98500001431,9.293000411989999,-0.103000000119,-0.0680000036955,-0.128999993205,606.0,609.0,833.0,1000.0,1680.0,742.0,772.0,814.0,825.0,1215.0,7,"(0.7168213157491783, -0.17274619130594374, 0.05381544828536605, 0.9800398411724756, -0.1948001850456499, 0.03652420466363232, 0.015517090400541212)",0.230000019073,-0.13999998569000005,0.09000015258999738,-0.005999997258000003,-0.004000000655699998,0.012000009418000002
1522082600.03,30999,1522053800,29432058,,785627,1522053797,392123556,,0.713806113476,-0.172780973864,0.0531673808026,0.979940252055,-0.195768266889,0.0336792369476,0.0160498311723,0.0014832185408299998,-0.018184151659999998,0.00197812465547,-0.00905001609701,-0.00335746540933,-0.00196136711186,3.63999557495,1.7688953876499998,7.7178273201,0.0396662056446,2.13232159615,0.38510632515,786023,1522053797,380186314,,"['head_nod', 'head_pan', 'left_e0', 'left_e1', 'left_s0', 'left_s1', 'left_w0', 'left_w1', 'left_w2', 'right_e0', 'right_e1', 'right_s0', 'right_s1', 'right_w0', 'right_w1', 'right_w2', 'torso_t0']","(0.0, -0.10239321759135137, -0.9150195399736493, 1.509437095279247, 0.28608741694062967, 0.6519418348513009, 2.348141091055597, -0.4770680250323637, -0.026461168591023387, 0.46978161628990794, 1.612597303264541, 0.6396699885482175, -1.035053536625683, -0.3432282012893613, 1.0235486807165424, 0.8367865197914932, -12.565987119160338)","(0.0, 0.0007853981632501215, 0.00039269908162506076, -0.008639379795751335, -0.0035342917346255468, -0.005890486224375911, 0.0019634954081253035, -0.0019634954081253035, 0.01021017612225158, -0.014922565101752308, -0.014922565101752308, -0.009032078877376396, 0.0047123889795007284, 0.00510508806112579, 0.0070685834692510935, 0.0, 0.0)","(0.0, 0.0, -14.492, 11.044, 0.496, 4.184, 0.052, -2.628, 0.336, 7.616, -17.692, 0.684, -31.488, -0.444, -0.14, -0.12, -20.48)",250544,1522053800,27246090,robotiq_force_torque_frame_id,0.439000046253,1.4550000429199998,9.31300086975,-0.097999997437,-0.06599999964240001,-0.136999994516,606.0,608.0,832.0,1000.0,1681.0,749.0,774.0,822.0,825.0,1216.0,7,"(0.7168213157491783, -0.17274619130594374, 0.05381544828536605, 0.9800398411724756, -0.1948001850456499, 0.03652420466363232, 0.015517090400541212)",-0.25000000000000006,-0.5299999713900001,0.020000457760001922,0.0050000026820000015,0.0020000040530999824,-0.00800000131100001
1522082600.04,31000,1522053800,39414882,,785628,1522053797,402121478,,0.7137549767810001,-0.17296582059300003,0.0532304943314,0.979965065173,-0.195596902225,0.0338067552068,0.0163531704462,0.0082389546755,0.0033275114795100003,0.00341641732326,-0.000190596256318,-0.015127708954700001,0.0124902131029,3.5704529285400004,1.7210919857,7.7635846138,0.0406236723065,2.10407209396,0.36660122871399997,310699,1522053797,412999936,,['r_gripper_l_finger_joint'],"(0.007654601775407791,)","(0.0,)","(0.30215054750442505,)",250544,1522053800,27246090,robotiq_force_torque_frame_id,0.439000046253,1.4550000429199998,9.31300086975,-0.097999997437,-0.06599999964240001,-0.136999994516,601.0,608.0,832.0,989.0,1681.0,743.0,774.0,821.0,822.0,1216.0,7,"(0.7168213157491783, -0.17274619130594374, 0.05381544828536605, 0.9800398411724756, -0.1948001850456499, 0.03652420466363232, 0.015517090400541212)",0.0,0.0,0.0,0.0,0.0,0.0
1522082600.05,31001,1522053800,49392938,,785628,1522053797,402121478,,0.7137549767810001,-0.17296582059300003,0.0532304943314,0.979965065173,-0.195596902225,0.0338067552068,0.0163531704462,0.0082389546755,0.0033275114795100003,0.00341641732326,-0.000190596256318,-0.015127708954700001,0.0124902131029,3.5704529285400004,1.7210919857,7.7635846138,0.0406236723065,2.10407209396,0.36660122871399997,310699,1522053797,412999936,,['r_gripper_l_finger_joint'],"(0.007654601775407791,)","(0.0,)","(0.30215054750442505,)",250546,1522053800,47581265,robotiq_force_torque_frame_id,-1.2210000395799998,3.5150000155,8.953000259400001,-0.09399999678130001,-0.0630000010133,-0.163000002503,601.0,610.0,832.0,985.0,1679.0,743.0,780.0,813.0,821.0,1205.0,7,"(0.7168213157491783, -0.17274619130594374, 0.05381544828536605, 0.9800398411724756, -0.1948001850456499, 0.03652420466363232, 0.015517090400541212)",-1.6600000858329997,2.05999997258,-0.3600006103499993,0.004000000655699984,0.002999998629100012,-0.026000007987
1522082600.06,31002,1522053800,59412002,,785630,1522053797,422128125,,0.713797570335,-0.171535401298,0.0531752213655,0.980101065274,-0.19494785266399997,0.0339176916079,0.015710722041799997,0.0159975030437,0.00286916500549,0.00941752671326,0.018184013508299998,-0.0387451896025,0.0004883021793319999,3.62155652046,1.65452098846,7.676711082460001,0.0921946465969,2.11613559723,0.378847062588,786027,1522053797,420217246,,"['head_nod', 'head_pan', 'left_e0', 'left_e1', 'left_s0', 'left_s1', 'left_w0', 'left_w1', 'left_w2', 'right_e0', 'right_e1', 'right_s0', 'right_s1', 'right_w0', 'right_w1', 'right_w2', 'torso_t0']","(0.0, -0.10162622719740866, -0.9154030351706206, 1.5090536000822758, 0.28685440733457235, 0.6523253300482722, 2.349291576646511, -0.4759175394414496, -0.025310683000109326, 0.470932101880822, 1.612597303264541, 0.6412039693361029, -1.035053536625683, -0.3432282012893613, 1.0227816903225997, 0.8367865197914932, -12.565987119160338)","(0.0, 0.0047123889795007284, 0.00039269908162506076, 0.005890486224375911, -0.009032078877376396, -0.0007853981632501215, -0.023954643979128706, 0.0023561944897503642, 0.008246680714126275, 0.02042035224450316, -0.0007853981632501215, -0.022383847652628464, -0.011388273367126762, -0.0027488935713754254, -0.027096236632129192, -0.0023561944897503642, 0.0)","(0.0, 0.0, -14.46, 11.076, 0.496, 4.184, 0.032, -2.608, 0.336, 7.552, -17.664, 0.592, -31.488, -0.444, -0.14, -0.148, -20.48)",250546,1522053800,47581265,robotiq_force_torque_frame_id,-1.2210000395799998,3.5150000155,8.953000259400001,-0.09399999678130001,-0.0630000010133,-0.163000002503,601.0,610.0,832.0,985.0,1679.0,762.0,784.0,806.0,818.0,1201.0,7,"(0.7168213157491783, -0.17274619130594374, 0.05381544828536605, 0.9800398411724756, -0.1948001850456499, 0.03652420466363232, 0.015517090400541212)",0.0,0.0,0.0,0.0,0.0,0.0
1522082600.07,31003,1522053800,69493055,,785630,1522053797,422128125,,0.713797570335,-0.171535401298,0.0531752213655,0.980101065274,-0.19494785266399997,0.0339176916079,0.015710722041799997,0.0159975030437,0.00286916500549,0.00941752671326,0.018184013508299998,-0.0387451896025,0.0004883021793319999,3.62155652046,1.65452098846,7.676711082460001,0.0921946465969,2.11613559723,0.378847062588,310700,1522053797,433999872,,['l_gripper_l_finger_joint'],"(0.02083,)","(0.0,)","(0.0,)",250548,1522053800,67917719,robotiq_force_torque_frame_id,-0.54099997282,4.11500000954,9.06300086975,-0.09399999678130001,-0.0640000030398,-0.162000000477,601.0,609.0,835.0,989.0,1677.0,762.0,784.0,806.0,818.0,1201.0,7,"(0.7168213157491783, -0.17274619130594374, 0.05381544828536605, 0.9800398411724756, -0.1948001850456499, 0.03652420466363232, 0.015517090400541212)",0.6800000667599998,0.59999999404,0.1100006103499993,0.0,-0.0010000020264999965,0.0010000020260000075
1522082600.08,31004,1522053800,79376935,,785632,1522053797,442133100,,0.71343793456,-0.172613991148,0.0531179911865,0.9799986952899999,-0.195486806358,0.0335422352201,0.0161982784948,-0.018279711885099997,-0.017183291736400003,-0.010056231123499999,-0.0199002719437,0.043297644637000005,-0.0196080101588,3.8504300117500003,1.85768246651,7.6731534004199995,-0.009989559650420001,2.21984410286,0.344734191895,786029,1522053797,440183240,,"['head_nod', 'head_pan', 'left_e0', 'left_e1', 'left_s0', 'left_s1', 'left_w0', 'left_w1', 'left_w2', 'right_e0', 'right_e1', 'right_s0', 'right_s1', 'right_w0', 'right_w1', 'right_w2', 'torso_t0']","(0.0, -0.1012427320004373, -0.9142525495797066, 1.5086701048853044, 0.28685440733457235, 0.6519418348513009, 2.3477575958586256, -0.4759175394414496, -0.026077673394052033, 0.46978161628990794, 1.6129807984615125, 0.6408204741391316, -1.0354370318226542, -0.34284470609239, 1.0235486807165424, 0.8364030245945219, -12.565987119160338)","(0.0, -0.001570796326500243, 0.00510508806112579, 0.012173671530376884, 0.005890486224375911, 0.01767145867312773, 0.0023561944897503642, 0.007853981632501214, -0.015707963265002428, -0.01021017612225158, 0.009032078877376396, -0.005890486224375911, 0.009424777959001457, -0.0023561944897503642, 0.028667032958629435, 0.006283185306000972, 0.0)","(0.0, 0.0, -14.492, 11.012, 0.404, 4.184, 0.032, -2.616, 0.324, 7.552, -17.692, 0.684, -31.46, -0.436, -0.12, -0.14, -20.48)",250549,1522053800,76055293,robotiq_force_torque_frame_id,-0.0110000014305,3.89500001073,9.16299934387,-0.101999998093,-0.0630000010133,-0.159999996424,601.0,611.0,835.0,989.0,1679.0,753.0,776.0,807.0,808.0,1205.0,7,"(0.7168213157491783, -0.17274619130594374, 0.05381544828536605, 0.9800398411724756, -0.1948001850456499, 0.03652420466363232, 0.015517090400541212)",0.5299999713895001,-0.2199999988100001,0.09999847411999951,-0.008000001311699992,0.0010000020264999965,0.002000004052999993
1522082600.09,31005,1522053800,89417934,,785634,1522053797,462123149,,0.7141794593009999,-0.171956411166,0.0540839473073,0.980040748089,-0.19518004598900002,0.0343427839449,0.0156670011083,0.00997180144142,0.0101026697205,0.0067470071481899995,0.0174679261415,-0.0181868251993,0.011575133392799999,3.45611453056,1.63340950012,7.73558282852,0.132132276893,2.0605418682099996,0.405518531799,310701,1522053797,463000064,,['r_gripper_l_finger_joint'],"(0.007654601775407791,)","(0.0,)","(0.28602150082588196,)",250550,1522053800,88257604,robotiq_force_torque_frame_id,-0.0010000109672499999,3.38500002027,9.05299873352,-0.09499999880789999,-0.0579999983311,-0.149000003934,601.0,611.0,834.0,1000.0,1679.0,754.0,776.0,799.0,808.0,1205.0,7,"(0.7168213157491783, -0.17274619130594374, 0.05381544828536605, 0.9800398411724756, -0.1948001850456499, 0.03652420466363232, 0.015517090400541212)",0.009999990463250001,-0.5099999904599999,-0.1100006103499993,0.00699999928510002,0.005000002682200001,0.010999992489999999
1522082600.1,31006,1522053800,99405050,,785634,1522053797,462123149,,0.7141794593009999,-0.171956411166,0.0540839473073,0.980040748089,-0.19518004598900002,0.0343427839449,0.0156670011083,0.00997180144142,0.0101026697205,0.0067470071481899995,0.0174679261415,-0.0181868251993,0.011575133392799999,3.45611453056,1.63340950012,7.73558282852,0.132132276893,2.0605418682099996,0.405518531799,786031,1522053797,460199914,,"['head_nod', 'head_pan', 'left_e0', 'left_e1', 'left_s0', 'left_s1', 'left_w0', 'left_w1', 'left_w2', 'right_e0', 'right_e1', 'right_s0', 'right_s1', 'right_w0', 'right_w1', 'right_w2', 'torso_t0']","(0.0, -0.10200972239438001, -0.9150195399736493, 1.5086701048853044, 0.286470912137601, 0.6523253300482722, 2.3473741006616544, -0.476301034638421, -0.02569417819708068, 0.4705486066838507, 1.6122138080675699, 0.6408204741391316, -1.0365875174135684, -0.34246121089541864, 1.0235486807165424, 0.8360195293975505, -12.565987119160338)","(0.0, 0.0, -0.0019634954081253035, -0.009817477040626518, 0.005890486224375911, 0.001570796326500243, -0.012173671530376884, -0.03652101459113065, -0.006675884387626033, 0.0023561944897503642, -0.013351768775252066, 0.0019634954081253035, -0.003926990816250607, 0.013744467856877126, -0.007853981632501214, -0.01688606050987761, 0.0)","(0.0, 0.0, -14.524, 11.044, 0.496, 4.152, 0.06, -2.628, 0.308, 7.584, -17.664, 0.62, -31.488, -0.428, -0.148, -0.168, -20.48)",250551,1522053800,96403602,robotiq_force_torque_frame_id,-0.0709999442101,3.24500000477,9.19299812317,-0.0930000022054,-0.0680000036955,-0.143999993801,601.0,609.0,833.0,1024.0,1697.0,754.0,770.0,799.0,810.0,1212.0,7,"(0.7168213157491783, -0.17274619130594374, 0.05381544828536605, 0.9800398411724756, -0.1948001850456499, 0.03652420466363232, 0.015517090400541212)",-0.06999993324285,-0.14000001550000007,0.13999938964999892,0.0019999966024999843,-0.010000005364399996,0.005000010132999999
