time,.header.seq,.header.stamp.secs,.header.stamp.nsecs,.header.frame_id,.endpoint_state.header.seq,.endpoint_state.header.stamp.secs,.endpoint_state.header.stamp.nsecs,.endpoint_state.header.frame_id,.endpoint_state.pose.position.x,.endpoint_state.pose.position.y,.endpoint_state.pose.position.z,.endpoint_state.pose.orientation.x,.endpoint_state.pose.orientation.y,.endpoint_state.pose.orientation.z,.endpoint_state.pose.orientation.w,.endpoint_state.twist.linear.x,.endpoint_state.twist.linear.y,.endpoint_state.twist.linear.z,.endpoint_state.twist.angular.x,.endpoint_state.twist.angular.y,.endpoint_state.twist.angular.z,.endpoint_state.wrench.force.x,.endpoint_state.wrench.force.y,.endpoint_state.wrench.force.z,.endpoint_state.wrench.torque.x,.endpoint_state.wrench.torque.y,.endpoint_state.wrench.torque.z,.joint_state.header.seq,.joint_state.header.stamp.secs,.joint_state.header.stamp.nsecs,.joint_state.header.frame_id,.joint_state.name,.joint_state.position,.joint_state.velocity,.joint_state.effort,.wrench_stamped.header.seq,.wrench_stamped.header.stamp.secs,.wrench_stamped.header.stamp.nsecs,.wrench_stamped.header.frame_id,.wrench_stamped.wrench.force.x,.wrench_stamped.wrench.force.y,.wrench_stamped.wrench.force.z,.wrench_stamped.wrench.torque.x,.wrench_stamped.wrench.torque.y,.wrench_stamped.wrench.torque.z,.tactile_values.tactile_values_0,.tactile_values.tactile_values_1,.tactile_values.tactile_values_2,.tactile_values.tactile_values_3,.tactile_values.tactile_values_4,.tactile_values.tactile_values_5,.tactile_values.tactile_values_6,.tactile_values.tactile_values_7,.tactile_values.tactile_values_8,.tactile_values.tactile_values_9,.tag,.goal_vector,.delta_wrench.force.x,.delta_wrench.force.y,.delta_wrench.force.z,.delta_wrench.torque.x,.delta_wrench.torque.y,.delta_wrench.torque.z
1522690898.24,19274,1522662098,208704948,,1237267,1522662095,707453654,,0.8076254419419999,-0.19964233077500002,0.0879968838488,0.897691350505,0.438362144795,-0.0438305695564,-0.00823106378105,0.014227735907399999,-0.010101201981299998,0.00195811230327,-0.015715328812,-0.0381793493611,-0.005906044845949999,12.3731689453,0.819915056229,14.69161129,-0.399132043123,5.20538902283,-0.100276499987,1237618,1522662095,715511925,,"['head_nod', 'head_pan', 'left_e0', 'left_e1', 'left_s0', 'left_s1', 'left_w0', 'left_w1', 'left_w2', 'right_e0', 'right_e1', 'right_s0', 'right_s1', 'right_w0', 'right_w1', 'right_w2', 'torso_t0']","(0.0, -0.1012427320004373, -0.9069661408372509, 1.5021506865367915, 0.27880100819817394, 0.6446554261088451, 2.3431556534949696, -0.48780589054756157, -0.03413107253045045, 0.15224759319762732, 0.7263399030637434, 0.8064903992307563, -0.5813787186085718, -0.14189322287940076, 1.5220924367793018, 2.3627139085405084, -12.565987119160338)","(0.0, 0.007853981632501214, -0.01649336142825255, 0.0, 0.007461282550876154, 0.0007853981632501215, -0.0035342917346255468, 0.009817477040626518, -0.0011780972448751821, -0.001570796326500243, 0.001570796326500243, 0.0047123889795007284, -0.010995574285501701, -0.029845130203504617, -0.03573561642788053, 0.006675884387626033, 0.0)","(0.0, 0.0, -14.588, 10.916, 0.308, 5.168, 0.084, -2.648, 0.24, 2.296, -19.552, -0.248, -37.44, -0.064, 1.312, 0.064, -20.48)",1220136,1522662098,207648731,robotiq_force_torque_frame_id,-0.702999830246,0.98499994278,8.8110004425,-0.142000004649,-0.212999999523,-0.123000003397,309.0,407.0,798.0,804.0,880.0,284.0,578.0,644.0,979.0,1074.0,7,"(0.8039857054974986, -0.21150183174059065, 0.06728575385437291, -0.4403258222488476, 0.8974538853606555, 0.002712960663003458, -0.026121519028974572)",0.0,0.0,0.0,0.0,0.0,0.0
1522690898.24,19275,1522662098,222049951,,1237268,1522662095,717456937,,0.807952703585,-0.201482308765,0.0876781929032,0.89807431558,0.43757884106000006,-0.043955372400000005,-0.0074301271526800005,0.0176070682549,-0.00739548871241,0.005806137031180001,-0.0265369399698,-0.04881227839169999,0.00197087228928,12.953424453699999,0.973200559616,14.8163919449,-0.4205750525,5.4808034896899995,-0.115290239453,1237619,1522662095,725513091,,"['head_nod', 'head_pan', 'left_e0', 'left_e1', 'left_s0', 'left_s1', 'left_w0', 'left_w1', 'left_w2', 'right_e0', 'right_e1', 'right_s0', 'right_s1', 'right_w0', 'right_w1', 'right_w2', 'torso_t0']","(0.0, -0.1012427320004373, -0.9065826456402796, 1.5021506865367915, 0.27880100819817394, 0.6446554261088451, 2.341621672707084, -0.48780589054756157, -0.033364082136507746, 0.15263108839459866, 0.7259564078667721, 0.807257389624699, -0.5817622138055432, -0.14189322287940076, 1.5232429223702157, 2.3630974037374797, -12.565987119160338)","(0.0, -0.006283185306000972, 0.0035342917346255468, -0.011780972448751823, 0.006283185306000972, 0.003141592653000486, -0.007853981632501214, -0.010995574285501701, -0.008639379795751335, -0.008246680714126275, 0.0070685834692510935, 0.01649336142825255, 0.005497787142750851, -0.01531526418337737, -0.029845130203504617, -0.011388273367126762, 0.0)","(0.0, 0.0, -14.62, 10.916, 0.308, 5.132, 0.096, -2.664, 0.224, 2.484, -19.46, -0.124, -37.352, -0.032, 1.312, 0.072, -20.48)",1220137,1522662098,219864717,robotiq_force_torque_frame_id,-0.672999858856,1.925,8.98099861145,-0.151999995112,-0.20999999344300002,-0.133000001311,309.0,401.0,789.0,798.0,880.0,278.0,566.0,656.0,975.0,1068.0,7,"(0.8039857054974986, -0.21150183174059065, 0.06728575385437291, -0.4403258222488476, 0.8974538853606555, 0.002712960663003458, -0.026121519028974572)",0.02999997138999999,0.94000005722,0.1699981689500003,-0.009999990462999986,0.0030000060799999784,-0.009999997914000011
1522690898.24,19276,1522662098,228800058,,1237269,1522662095,727469903,,0.807740436136,-0.200724060691,0.08811642482169998,0.897948859823,0.437820445268,-0.0440857620891,-0.00758606811395,0.006743565383859999,0.0024656209452,-0.00727842240838,-0.0180413335796,-0.0189449962547,0.0266707814869,12.4286394119,1.1285982131999999,14.6757135391,-0.40547516942,5.28762817383,-0.10350747406500001,1237619,1522662095,725513091,,"['head_nod', 'head_pan', 'left_e0', 'left_e1', 'left_s0', 'left_s1', 'left_w0', 'left_w1', 'left_w2', 'right_e0', 'right_e1', 'right_s0', 'right_s1', 'right_w0', 'right_w1', 'right_w2', 'torso_t0']","(0.0, -0.1012427320004373, -0.9065826456402796, 1.5021506865367915, 0.27880100819817394, 0.6446554261088451, 2.341621672707084, -0.48780589054756157, -0.033364082136507746, 0.15263108839459866, 0.7259564078667721, 0.807257389624699, -0.5817622138055432, -0.14189322287940076, 1.5232429223702157, 2.3630974037374797, -12.565987119160338)","(0.0, -0.006283185306000972, 0.0035342917346255468, -0.011780972448751823, 0.006283185306000972, 0.003141592653000486, -0.007853981632501214, -0.010995574285501701, -0.008639379795751335, -0.008246680714126275, 0.0070685834692510935, 0.01649336142825255, 0.005497787142750851, -0.01531526418337737, -0.029845130203504617, -0.011388273367126762, 0.0)","(0.0, 0.0, -14.62, 10.916, 0.308, 5.132, 0.096, -2.664, 0.224, 2.484, -19.46, -0.124, -37.352, -0.032, 1.312, 0.072, -20.48)",1220138,1522662098,228008232,robotiq_force_torque_frame_id,-1.27300000191,1.41500000954,8.92100105286,-0.171000003815,-0.21099999547000003,-0.122000001371,312.0,401.0,789.0,813.0,877.0,278.0,566.0,656.0,975.0,1068.0,7,"(0.8039857054974986, -0.21150183174059065, 0.06728575385437291, -0.4403258222488476, 0.8974538853606555, 0.002712960663003458, -0.026121519028974572)",-0.6000001430540001,-0.5099999904600001,-0.05999755859000011,-0.019000008703000004,-0.0010000020270000132,0.010999999940000005
1522690898.28,19277,1522662098,238779067,,1237271,1522662095,747460054,,0.8077259507760001,-0.200809419537,0.08756089845899999,0.897932972758,0.437856839173,-0.0440094149307,-0.00780616556248,0.0198037651608,-0.0147927291625,-0.00267024855099,-0.00233131944259,-0.0475305981665,-0.022151883728900004,11.3650026321,0.875877201557,14.404024124100001,-0.245997965336,4.79409217834,-0.10294726491,1237620,1522662095,735505641,,"['head_nod', 'head_pan', 'left_e0', 'left_e1', 'left_s0', 'left_s1', 'left_w0', 'left_w1', 'left_w2', 'right_e0', 'right_e1', 'right_s0', 'right_s1', 'right_w0', 'right_w1', 'right_w2', 'torso_t0']","(0.0, -0.1012427320004373, -0.9073496360342223, 1.5021506865367915, 0.27765052260725986, 0.6454224165027879, 2.3420051679040554, -0.48742239535059023, -0.033364082136507746, 0.15339807878854136, 0.7263399030637434, 0.807257389624699, -0.5813787186085718, -0.14227671807637213, 1.5228594271732445, 2.3630974037374797, -12.565987119160338)","(0.0, -0.006283185306000972, 0.009032078877376396, 0.014922565101752308, -0.006283185306000972, 0.012173671530376884, 0.012566370612001944, 0.001570796326500243, 0.0, -0.005890486224375911, -0.014922565101752308, -0.013351768775252066, 0.003141592653000486, -0.03848450999925595, -0.02513274122400389, -0.021991148571003403, 0.0)","(0.0, 0.0, -14.652, 10.948, 0.184, 5.132, 0.084, -2.664, 0.24, 2.58, -19.432, -0.184, -37.44, -0.008, 1.284, 0.064, -20.48)",1220138,1522662098,228008232,robotiq_force_torque_frame_id,-1.27300000191,1.41500000954,8.92100105286,-0.171000003815,-0.21099999547000003,-0.122000001371,312.0,397.0,801.0,813.0,877.0,269.0,573.0,673.0,1007.0,1071.0,7,"(0.8039857054974986, -0.21150183174059065, 0.06728575385437291, -0.4403258222488476, 0.8974538853606555, 0.002712960663003458, -0.026121519028974572)",0.0,0.0,0.0,0.0,0.0,0.0
1522690898.28,19278,1522662098,248742103,,1237271,1522662095,747460054,,0.8077259507760001,-0.200809419537,0.08756089845899999,0.897932972758,0.437856839173,-0.0440094149307,-0.00780616556248,0.0198037651608,-0.0147927291625,-0.00267024855099,-0.00233131944259,-0.0475305981665,-0.022151883728900004,11.3650026321,0.875877201557,14.404024124100001,-0.245997965336,4.79409217834,-0.10294726491,1237620,1522662095,735505641,,"['head_nod', 'head_pan', 'left_e0', 'left_e1', 'left_s0', 'left_s1', 'left_w0', 'left_w1', 'left_w2', 'right_e0', 'right_e1', 'right_s0', 'right_s1', 'right_w0', 'right_w1', 'right_w2', 'torso_t0']","(0.0, -0.1012427320004373, -0.9073496360342223, 1.5021506865367915, 0.27765052260725986, 0.6454224165027879, 2.3420051679040554, -0.48742239535059023, -0.033364082136507746, 0.15339807878854136, 0.7263399030637434, 0.807257389624699, -0.5813787186085718, -0.14227671807637213, 1.5228594271732445, 2.3630974037374797, -12.565987119160338)","(0.0, -0.006283185306000972, 0.009032078877376396, 0.014922565101752308, -0.006283185306000972, 0.012173671530376884, 0.012566370612001944, 0.001570796326500243, 0.0, -0.005890486224375911, -0.014922565101752308, -0.013351768775252066, 0.003141592653000486, -0.03848450999925595, -0.02513274122400389, -0.021991148571003403, 0.0)","(0.0, 0.0, -14.652, 10.948, 0.184, 5.132, 0.084, -2.664, 0.24, 2.58, -19.432, -0.184, -37.44, -0.008, 1.284, 0.064, -20.48)",1220140,1522662098,248351380,robotiq_force_torque_frame_id,-0.7730000019069999,1.46499996185,9.13100013733,-0.216999992728,-0.187999993563,-0.11400000006,307.0,397.0,799.0,809.0,882.0,269.0,573.0,673.0,1007.0,1071.0,7,"(0.8039857054974986, -0.21150183174059065, 0.06728575385437291, -0.4403258222488476, 0.8974538853606555, 0.002712960663003458, -0.026121519028974572)",0.5000000000030002,0.049999952310000095,0.2099990844700006,-0.045999988913,0.023000001907000023,0.00800000131100001
1522690898.28,19279,1522662098,258853912,,1237272,1522662095,756468227,,0.8080977572139999,-0.20078470092700001,0.0879297076543,0.897842897119,0.43809248641000004,-0.04360066306319999,-0.00721717573049,0.0100997414411,-0.0114554708818,0.0015966765951700003,-0.0120422439336,-0.028508115493099995,-0.029689890723700003,10.4720935822,0.7886364459990001,14.268985748299999,-0.164419516921,4.36073112488,-0.0804432854056,1237622,1522662095,754513882,,"['head_nod', 'head_pan', 'left_e0', 'left_e1', 'left_s0', 'left_s1', 'left_w0', 'left_w1', 'left_w2', 'right_e0', 'right_e1', 'right_s0', 'right_s1', 'right_w0', 'right_w1', 'right_w2', 'torso_t0']","(0.0, -0.10162622719740866, -0.9061991504433081, 1.50176719133982, 0.2784175130012026, 0.6446554261088451, 2.341621672707084, -0.48742239535059023, -0.03259709174256504, 0.15263108839459866, 0.7271068934576861, 0.807257389624699, -0.5821457090025145, -0.14227671807637213, 1.5213254463853592, 2.3627139085405084, -12.565987119160338)","(0.0, -0.0007853981632501215, 0.005890486224375911, -0.007853981632501214, -0.008246680714126275, -0.018849555918002914, 0.009032078877376396, -0.003926990816250607, 0.006283185306000972, -0.01688606050987761, 0.009817477040626518, -0.0035342917346255468, -0.009424777959001457, 0.0007853981632501215, -0.028274333877004374, 0.018456856836377853, 0.0)","(0.0, 0.0, -14.588, 10.98, 0.248, 5.132, 0.076, -2.664, 0.24, 2.548, -19.4, -0.248, -37.412, 0.032, 1.104, 0.056, -20.48)",1220140,1522662098,248351380,robotiq_force_torque_frame_id,-0.7730000019069999,1.46499996185,9.13100013733,-0.216999992728,-0.187999993563,-0.11400000006,307.0,394.0,799.0,806.0,879.0,274.0,567.0,682.0,1000.0,1062.0,7,"(0.8039857054974986, -0.21150183174059065, 0.06728575385437291, -0.4403258222488476, 0.8974538853606555, 0.002712960663003458, -0.026121519028974572)",0.0,0.0,0.0,0.0,0.0,0.0
1522690898.28,19280,1522662098,268727064,,1237273,1522662095,767456013,,0.8081365324590001,-0.20046785378600002,0.0873850521821,0.8977561484190001,0.438271052901,-0.043587686005699997,-0.007245398028600001,0.0295314387908,0.0101765111723,-0.00111399140755,-0.0046788622745100004,-0.0780017848532,0.0225137957548,10.9075145721,0.850226342678,14.137176513699998,-0.175348177552,4.4540977478,-0.09813944995400001,489302,1522662095,772000000,,['r_gripper_l_finger_joint'],"(0.005791756161153317,)","(0.0,)","(0.28602150082588196,)",1220141,1522662098,260568515,robotiq_force_torque_frame_id,-0.6929998397830001,1.83500008583,8.14099845886,-0.20800000429200002,-0.202999994159,-0.119999997318,318.0,392.0,800.0,806.0,879.0,274.0,573.0,682.0,1000.0,1059.0,7,"(0.8039857054974986, -0.21150183174059065, 0.06728575385437291, -0.4403258222488476, 0.8974538853606555, 0.002712960663003458, -0.026121519028974572)",0.08000016212399985,0.37000012397999993,-0.9900016784699996,0.008999988435999973,-0.015000000595999985,-0.005999997258000003
1522690898.28,19281,1522662098,281284093,,1237275,1522662095,787455956,,0.809045461323,-0.201180315098,0.0875684932253,0.8980139973989999,0.437850918168,-0.0425682746311,-0.00673616573967,0.036410787410699995,-0.0303135182117,-0.008240977895569998,-0.0102979480195,-0.09104866772119999,-0.019145523405900002,12.7577018738,0.968543946743,14.3595657349,-0.209360659122,5.19966983795,-0.104122407734,1237625,1522662095,785513223,,"['head_nod', 'head_pan', 'left_e0', 'left_e1', 'left_s0', 'left_s1', 'left_w0', 'left_w1', 'left_w2', 'right_e0', 'right_e1', 'right_s0', 'right_s1', 'right_w0', 'right_w1', 'right_w2', 'torso_t0']","(0.0, -0.1012427320004373, -0.9065826456402796, 1.5021506865367915, 0.27880100819817394, 0.6446554261088451, 2.341621672707084, -0.4881893857445329, -0.033364082136507746, 0.15224759319762732, 0.7271068934576861, 0.8068738944277276, -0.5817622138055432, -0.14227671807637213, 1.5186409800065597, 2.3627139085405084, -12.565987119160338)","(0.0, -0.003926990816250607, 0.01727875959150267, 0.015707963265002428, -0.0027488935713754254, 0.01610066234662749, 0.0035342917346255468, 0.018849555918002914, 0.003141592653000486, -0.01021017612225158, 0.014529866020127248, -0.0310232274483798, -0.00039269908162506076, -0.014922565101752308, -0.10406525663064109, -0.012173671530376884, 0.0)","(0.0, 0.0, -14.588, 10.884, 0.28, 5.2, 0.096, -2.664, 0.24, 2.58, -19.64, -0.28, -37.352, 0.016, 1.044, 0.072, -20.48)",1220143,1522662098,276852599,robotiq_force_torque_frame_id,-0.672999858856,1.51499991417,9.20099983215,-0.103000000119,-0.270999997854,-0.151999995112,311.0,392.0,767.0,778.0,868.0,270.0,573.0,696.0,1002.0,1059.0,7,"(0.8039857054974986, -0.21150183174059065, 0.06728575385437291, -0.4403258222488476, 0.8974538853606555, 0.002712960663003458, -0.026121519028974572)",0.01999998092700006,-0.32000017166000005,1.0600013732899995,0.10500000417300002,-0.06800000369499998,-0.03199999779399999
1522690898.29,19282,1522662098,288748025,,1237276,1522662095,797453081,,0.8094067711849999,-0.201100047622,0.08743906550010001,0.8980175913539999,0.43788602231299995,-0.042128524193099995,-0.0067397724026,0.0268511974641,0.00437347548101,-0.000649966871536,0.00600683515376,-0.07310975198030001,0.010056298364,13.3646945953,1.13293659687,14.3805894852,-0.330548763275,5.47426128387,-0.106844902039,1237626,1522662095,795523903,,"['head_nod', 'head_pan', 'left_e0', 'left_e1', 'left_s0', 'left_s1', 'left_w0', 'left_w1', 'left_w2', 'right_e0', 'right_e1', 'right_s0', 'right_s1', 'right_w0', 'right_w1', 'right_w2', 'torso_t0']","(0.0, -0.1012427320004373, -0.9069661408372509, 1.50176719133982, 0.27880100819817394, 0.6442719309118737, 2.3412381775101125, -0.4881893857445329, -0.03259709174256504, 0.15301458359157002, 0.7267233982607147, 0.8064903992307563, -0.5813787186085718, -0.14266021327334347, 1.517873989612617, 2.3627139085405084, -12.565987119160338)","(0.0, 0.012173671530376884, -0.019634954081253035, -0.02120575040775328, 0.006283185306000972, 0.001570796326500243, -0.005497787142750851, 0.0023561944897503642, -0.004319689897875668, 0.007461282550876154, 0.009817477040626518, -0.00039269908162506076, -0.0070685834692510935, -0.009424777959001457, -0.07539822367201165, -0.0027488935713754254, 0.0)","(0.0, 0.0, -14.588, 10.916, 0.216, 5.2, 0.084, -2.656, 0.224, 2.548, -19.64, -0.184, -37.292, -0.008, 1.084, 0.072, -20.48)",1220143,1522662098,276852599,robotiq_force_torque_frame_id,-0.672999858856,1.51499991417,9.20099983215,-0.103000000119,-0.270999997854,-0.151999995112,311.0,386.0,767.0,778.0,868.0,279.0,559.0,692.0,1002.0,1068.0,7,"(0.8039857054974986, -0.21150183174059065, 0.06728575385437291, -0.4403258222488476, 0.8974538853606555, 0.002712960663003458, -0.026121519028974572)",0.0,0.0,0.0,0.0,0.0,0.0
1522690898.33,19283,1522662098,298732995,,1237277,1522662095,807453500,,0.809642167273,-0.20088151209199998,0.08767165539930001,0.8980049034990001,0.43794720204,-0.0417789255664,-0.0066304521726499996,0.0292574126192,0.0111797918169,0.00101593499347,0.0167991447823,-0.0771831586445,0.00137618110207,12.7272081375,0.969324409962,14.396907806400002,-0.26834467053399996,5.2344956398,-0.122252106667,1237626,1522662095,795523903,,"['head_nod', 'head_pan', 'left_e0', 'left_e1', 'left_s0', 'left_s1', 'left_w0', 'left_w1', 'left_w2', 'right_e0', 'right_e1', 'right_s0', 'right_s1', 'right_w0', 'right_w1', 'right_w2', 'torso_t0']","(0.0, -0.1012427320004373, -0.9069661408372509, 1.50176719133982, 0.27880100819817394, 0.6442719309118737, 2.3412381775101125, -0.4881893857445329, -0.03259709174256504, 0.15301458359157002, 0.7267233982607147, 0.8064903992307563, -0.5813787186085718, -0.14266021327334347, 1.517873989612617, 2.3627139085405084, -12.565987119160338)","(0.0, 0.012173671530376884, -0.019634954081253035, -0.02120575040775328, 0.006283185306000972, 0.001570796326500243, -0.005497787142750851, 0.0023561944897503642, -0.004319689897875668, 0.007461282550876154, 0.009817477040626518, -0.00039269908162506076, -0.0070685834692510935, -0.009424777959001457, -0.07539822367201165, -0.0027488935713754254, 0.0)","(0.0, 0.0, -14.588, 10.916, 0.216, 5.2, 0.084, -2.656, 0.224, 2.548, -19.64, -0.184, -37.292, -0.008, 1.084, 0.072, -20.48)",1220145,1522662098,297253730,robotiq_force_torque_frame_id,-0.40299987793000003,1.7850001335099999,9.530997848510001,-0.097000002861,-0.27500000596,-0.138999998569,323.0,386.0,769.0,769.0,871.0,279.0,559.0,692.0,988.0,1068.0,7,"(0.8039857054974986, -0.21150183174059065, 0.06728575385437291, -0.4403258222488476, 0.8974538853606555, 0.002712960663003458, -0.026121519028974572)",0.26999998092599997,0.27000021933999996,0.32999801636000115,0.005999997258000003,-0.004000008106000041,0.012999996542999992
1522690898.33,19284,1522662098,308705091,,1237278,1522662095,817462195,,0.809695033292,-0.201151335208,0.08739952499389998,0.898171442619,0.43760598304399995,-0.041771426698,-0.0066491487876999995,0.0328314685363,0.00741577289552,-0.000555491691803,0.0304940717049,-0.07810585003539999,-0.0210041046458,12.216156005899999,1.0677101612100002,14.4818067551,-0.30617329478300004,5.05561447144,-0.077159255743,489303,1522662095,812000000,,['l_gripper_l_finger_joint'],"(0.0032494800670444966,)","(0.0,)","(0.0,)",1220145,1522662098,297253730,robotiq_force_torque_frame_id,-0.40299987793000003,1.7850001335099999,9.530997848510001,-0.097000002861,-0.27500000596,-0.138999998569,323.0,386.0,769.0,769.0,894.0,285.0,556.0,700.0,985.0,1064.0,7,"(0.8039857054974986, -0.21150183174059065, 0.06728575385437291, -0.4403258222488476, 0.8974538853606555, 0.002712960663003458, -0.026121519028974572)",0.0,0.0,0.0,0.0,0.0,0.0
1522690898.33,19285,1522662098,318800926,,1237279,1522662095,827457479,,0.810132706223,-0.200959777877,0.0873646825357,0.898013912429,0.437980383272,-0.041288044444699995,-0.00628445210114,0.024168693542599998,-0.0142832475019,-0.0057556025445799994,0.00943220888091,-0.0549051757249,-0.048720737911,12.0740327835,1.3053144216500001,14.4486694336,-0.46119204163599997,5.06632661819,-0.10506977886,1237629,1522662095,825548776,,"['head_nod', 'head_pan', 'left_e0', 'left_e1', 'left_s0', 'left_s1', 'left_w0', 'left_w1', 'left_w2', 'right_e0', 'right_e1', 'right_s0', 'right_s1', 'right_w0', 'right_w1', 'right_w2', 'torso_t0']","(0.0, -0.1012427320004373, -0.9077331312311936, 1.50176719133982, 0.2791845033951453, 0.6446554261088451, 2.341621672707084, -0.48780589054756157, -0.033364082136507746, 0.15263108839459866, 0.7267233982607147, 0.8068738944277276, -0.5813787186085718, -0.14266021327334347, 1.5159565136277602, 2.3627139085405084, -12.565987119160338)","(0.0, -0.0070685834692510935, 0.003926990816250607, 0.011780972448751823, 0.011780972448751823, -0.0047123889795007284, 0.0023561944897503642, 0.011388273367126762, 0.008246680714126275, -0.009032078877376396, -0.012173671530376884, -0.02081305132612822, 0.011388273367126762, 0.01060287520387664, -0.05537057050913356, 0.02081305132612822, 0.0)","(0.0, 0.0, -14.524, 10.916, 0.28, 5.2, 0.076, -2.704, 0.232, 2.484, -19.492, 0.06, -37.38, 0.024, 1.164, 0.064, -20.48)",1220147,1522662098,317658946,robotiq_force_torque_frame_id,-0.192999839783,2.00500004292,9.22100028992,-0.143000006676,-0.293999999762,-0.130999997258,297.0,382.0,778.0,783.0,894.0,285.0,556.0,700.0,985.0,1057.0,7,"(0.8039857054974986, -0.21150183174059065, 0.06728575385437291, -0.4403258222488476, 0.8974538853606555, 0.002712960663003458, -0.026121519028974572)",0.21000003814700002,0.21999990941000003,-0.3099975585900019,-0.046000003814999996,-0.01899999380199996,0.00800000131100001
1522690898.37,19286,1522662098,328752040,,1237280,1522662095,836480811,,0.8101575637289999,-0.201380677577,0.0873627926344,0.8981910880789999,0.437620075262,-0.0412241102402,-0.0064816477857,0.020999414961799998,-0.0278623503332,-0.00208516491758,0.00168336536517,-0.049178578361599994,-0.033840663163900005,11.8057851791,1.37484228611,14.469853401199998,-0.43698373436899995,5.0144519805900005,-0.08486178517339998,1237630,1522662095,834565398,,"['head_nod', 'head_pan', 'left_e0', 'left_e1', 'left_s0', 'left_s1', 'left_w0', 'left_w1', 'left_w2', 'right_e0', 'right_e1', 'right_s0', 'right_s1', 'right_w0', 'right_w1', 'right_w2', 'torso_t0']","(0.0, -0.10085923680346595, -0.9069661408372509, 1.5021506865367915, 0.2784175130012026, 0.6454224165027879, 2.343539148691941, -0.48742239535059023, -0.03298058693953639, 0.15263108839459866, 0.7267233982607147, 0.8061069040337849, -0.5813787186085718, -0.14227671807637213, 1.5159565136277602, 2.3627139085405084, -12.565987119160338)","(0.0, -0.00510508806112579, -0.018064157754752792, -0.005497787142750851, 0.00510508806112579, -0.0007853981632501215, 0.012959069693627005, 0.011388273367126762, -0.010995574285501701, -0.009817477040626518, 0.0027488935713754254, -0.034164820101380285, -0.0011780972448751821, 0.003141592653000486, -0.051443579692882956, -0.00510508806112579, 0.0)","(0.0, 0.0, -14.62, 10.884, 0.248, 5.2, 0.084, -2.676, 0.232, 2.644, -19.432, 0.124, -37.352, 0.024, 1.212, 0.064, -20.48)",1220147,1522662098,317658946,robotiq_force_torque_frame_id,-0.192999839783,2.00500004292,9.22100028992,-0.143000006676,-0.293999999762,-0.130999997258,297.0,382.0,778.0,793.0,895.0,283.0,557.0,706.0,963.0,1057.0,7,"(0.8039857054974986, -0.21150183174059065, 0.06728575385437291, -0.4403258222488476, 0.8974538853606555, 0.002712960663003458, -0.026121519028974572)",0.0,0.0,0.0,0.0,0.0,0.0
1522690898.37,19287,1522662098,338742017,,1237281,1522662095,847457194,,0.8101183816509999,-0.201941862385,0.08723537187899999,0.898223780557,0.437524538719,-0.0415888756088,-0.006056689380100001,0.013585528934500001,-0.020739770589799998,-0.00143000157336,-0.0253787497872,-0.032842752398799996,-0.00228855503544,11.8646144867,1.6890845298800001,14.6001605988,-0.585873782635,5.06726026535,-0.088767118752,1237631,1522662095,845570843,,"['head_nod', 'head_pan', 'left_e0', 'left_e1', 'left_s0', 'left_s1', 'left_w0', 'left_w1', 'left_w2', 'right_e0', 'right_e1', 'right_s0', 'right_s1', 'right_w0', 'right_w1', 'right_w2', 'torso_t0']","(0.0, -0.10085923680346595, -0.9065826456402796, 1.5013836961428486, 0.2784175130012026, 0.6446554261088451, 2.3420051679040554, -0.48742239535059023, -0.03259709174256504, 0.15224759319762732, 0.7263399030637434, 0.8061069040337849, -0.5809952234116005, -0.14304370847031483, 1.5163400088247314, 2.3627139085405084, -12.565987119160338)","(0.0, 0.0035342917346255468, -0.0027488935713754254, -0.0035342917346255468, 0.0, 0.009424777959001457, 0.0011780972448751821, 0.006283185306000972, 0.0011780972448751821, -0.012959069693627005, 0.0011780972448751821, -0.008639379795751335, -0.00039269908162506076, -0.019634954081253035, -0.031415926530004856, -0.01021017612225158, 0.0)","(0.0, 0.0, -14.684, 10.852, 0.216, 5.168, 0.096, -2.656, 0.224, 2.672, -19.432, 0.372, -37.412, 0.024, 1.252, 0.064, -20.48)",1220149,1522662098,338009108,robotiq_force_torque_frame_id,-1.4229998588600001,0.19499998092700002,9.14099845886,-0.131999999285,-0.256999999285,-0.119000002742,308.0,382.0,773.0,793.0,895.0,281.0,555.0,699.0,963.0,1048.0,7,"(0.8039857054974986, -0.21150183174059065, 0.06728575385437291, -0.4403258222488476, 0.8974538853606555, 0.002712960663003458, -0.026121519028974572)",-1.2300000190770002,-1.810000061993,-0.08000183105999881,0.011000007390999988,0.03700000047699997,0.011999994515999993
1522690898.37,19288,1522662098,348867893,,1237282,1522662095,857466003,,0.810495518115,-0.20218666114300002,0.0876029045474,0.8983179866230001,0.43738438264,-0.041055078572999996,-0.00584613158919,0.0181445813223,-0.006240496770170001,-0.00141133962612,-0.00808246235439,-0.0474611617662,0.00514610120656,11.9465579987,1.66350877285,14.6357536316,-0.550985097885,5.16158151627,-0.0820150896907,1237631,1522662095,845570843,,"['head_nod', 'head_pan', 'left_e0', 'left_e1', 'left_s0', 'left_s1', 'left_w0', 'left_w1', 'left_w2', 'right_e0', 'right_e1', 'right_s0', 'right_s1', 'right_w0', 'right_w1', 'right_w2', 'torso_t0']","(0.0, -0.10085923680346595, -0.9065826456402796, 1.5013836961428486, 0.2784175130012026, 0.6446554261088451, 2.3420051679040554, -0.48742239535059023, -0.03259709174256504, 0.15224759319762732, 0.7263399030637434, 0.8061069040337849, -0.5809952234116005, -0.14304370847031483, 1.5163400088247314, 2.3627139085405084, -12.565987119160338)","(0.0, 0.0035342917346255468, -0.0027488935713754254, -0.0035342917346255468, 0.0, 0.009424777959001457, 0.0011780972448751821, 0.006283185306000972, 0.0011780972448751821, -0.012959069693627005, 0.0011780972448751821, -0.008639379795751335, -0.00039269908162506076, -0.019634954081253035, -0.031415926530004856, -0.01021017612225158, 0.0)","(0.0, 0.0, -14.684, 10.852, 0.216, 5.168, 0.096, -2.656, 0.224, 2.672, -19.432, 0.372, -37.412, 0.024, 1.252, 0.064, -20.48)",1220149,1522662098,338009108,robotiq_force_torque_frame_id,-1.4229998588600001,0.19499998092700002,9.14099845886,-0.131999999285,-0.256999999285,-0.119000002742,321.0,382.0,789.0,801.0,900.0,281.0,555.0,699.0,966.0,1048.0,7,"(0.8039857054974986, -0.21150183174059065, 0.06728575385437291, -0.4403258222488476, 0.8974538853606555, 0.002712960663003458, -0.026121519028974572)",0.0,0.0,0.0,0.0,0.0,0.0
1522690898.37,19289,1522662098,358812093,,1237283,1522662095,867458144,,0.8109838341869999,-0.201532385905,0.0876029162001,0.898171461126,0.437743560667,-0.0404389176373,-0.0057702212715399995,0.0155167631159,-0.0190322602821,-0.00359334249642,-0.0157938980497,-0.0386563381802,-0.016894011387100002,12.0276060104,1.7616640329400004,14.797771453900001,-0.610829293728,5.25771665573,-0.09926645457739999,489305,1522662095,863000064,,['l_gripper_l_finger_joint'],"(0.0032494800670444966,)","(0.0,)","(0.0,)",1220151,1522662098,358374390,robotiq_force_torque_frame_id,-0.642999887466,1.84500007629,9.41099891663,-0.172999992967,-0.194000005722,-0.135000005364,321.0,382.0,789.0,801.0,900.0,276.0,545.0,686.0,976.0,1056.0,7,"(0.8039857054974986, -0.21150183174059065, 0.06728575385437291, -0.4403258222488476, 0.8974538853606555, 0.002712960663003458, -0.026121519028974572)",0.7799999713940001,1.650000095363,0.27000045776999926,-0.040999993682,0.06299999356300001,-0.016000002622000006
1522690898.41,19290,1522662098,368691921,,1237284,1522662095,877479767,,0.810597981475,-0.20132430883299998,0.0873264314536,0.898126504109,0.43780622947400005,-0.0406783333191,-0.00630565212553,0.025327567215999998,0.012614748885700001,0.014177275770199999,0.0247774079035,-0.067710655989,0.000183735318909,12.2002363205,1.5789142847100002,14.860724449200001,-0.557930231094,5.38228082657,-0.0742005109787,1237634,1522662095,875545423,,"['head_nod', 'head_pan', 'left_e0', 'left_e1', 'left_s0', 'left_s1', 'left_w0', 'left_w1', 'left_w2', 'right_e0', 'right_e1', 'right_s0', 'right_s1', 'right_w0', 'right_w1', 'right_w2', 'torso_t0']","(0.0, -0.10085923680346595, -0.9065826456402796, 1.5021506865367915, 0.27880100819817394, 0.6442719309118737, 2.3412381775101125, -0.4881893857445329, -0.03259709174256504, 0.15263108839459866, 0.7267233982607147, 0.8061069040337849, -0.5813787186085718, -0.14227671807637213, 1.514806028036846, 2.362330413343537, -12.565987119160338)","(0.0, -0.01060287520387664, 0.011780972448751823, 0.0011780972448751821, 0.0011780972448751821, -0.014922565101752308, -0.006675884387626033, 0.00510508806112579, -0.0070685834692510935, 0.010995574285501701, -0.013351768775252066, 0.0, -0.015707963265002428, 0.009032078877376396, -0.040448005407381256, 0.0035342917346255468, 0.0)","(0.0, 0.0, -14.524, 10.916, 0.184, 5.168, 0.096, -2.676, 0.26, 2.644, -19.372, 0.28, -37.38, 0.04, 1.432, 0.044, -20.48)",1220151,1522662098,358374390,robotiq_force_torque_frame_id,-0.642999887466,1.84500007629,9.41099891663,-0.172999992967,-0.194000005722,-0.135000005364,322.0,390.0,803.0,817.0,892.0,276.0,545.0,686.0,976.0,1056.0,7,"(0.8039857054974986, -0.21150183174059065, 0.06728575385437291, -0.4403258222488476, 0.8974538853606555, 0.002712960663003458, -0.026121519028974572)",0.0,0.0,0.0,0.0,0.0,0.0
1522690898.41,19291,1522662098,378705024,,1237285,1522662095,887451766,,0.811127872994,-0.201738274958,0.0875741986166,0.898243735202,0.43761503973000004,-0.0401985721961,-0.005945079147270001,0.027943580536599996,-0.0126925523348,0.00830894307117,0.007191575858960001,-0.06565132187509999,-0.0159224913882,11.8643789291,1.68923819065,14.9823532104,-0.599793076515,5.31135797501,-0.093502946198,1237635,1522662095,885526932,,"['head_nod', 'head_pan', 'left_e0', 'left_e1', 'left_s0', 'left_s1', 'left_w0', 'left_w1', 'left_w2', 'right_e0', 'right_e1', 'right_s0', 'right_s1', 'right_w0', 'right_w1', 'right_w2', 'torso_t0']","(0.0, -0.1012427320004373, -0.9073496360342223, 1.50176719133982, 0.2791845033951453, 0.6450389213058165, 2.3423886631010267, -0.48742239535059023, -0.03259709174256504, 0.15263108839459866, 0.7259564078667721, 0.8057234088368136, -0.5813787186085718, -0.14266021327334347, 1.5144225328398748, 2.362330413343537, -12.565987119160338)","(0.0, 0.014922565101752308, -0.00510508806112579, -0.015707963265002428, 0.008246680714126275, -0.008246680714126275, -0.01610066234662749, -0.003926990816250607, -0.009817477040626518, 0.003926990816250607, -0.024740042142378828, -0.02081305132612822, -0.001570796326500243, -0.004319689897875668, -0.039662607244131134, -0.0047123889795007284, 0.0)","(0.0, 0.0, -14.588, 10.916, 0.308, 5.2, 0.084, -2.676, 0.24, 2.672, -19.34, 0.372, -37.44, 0.056, 1.484, 0.064, -20.48)",1220152,1522662098,370696268,robotiq_force_torque_frame_id,-0.523000001907,1.94499998093,9.55099830627,-0.18999999761599998,-0.186000004411,-0.123999997973,322.0,390.0,812.0,817.0,901.0,287.0,557.0,691.0,952.0,1070.0,7,"(0.8039857054974986, -0.21150183174059065, 0.06728575385437291, -0.4403258222488476, 0.8974538853606555, 0.002712960663003458, -0.026121519028974572)",0.11999988555899999,0.09999990463999997,0.1399993896399998,-0.017000004648999978,0.008000001310999982,0.011000007391000002
1522690898.41,19292,1522662098,388806104,,1237286,1522662095,897457453,,0.811240885461,-0.20192647789299997,0.08726856547180001,0.898441412676,0.43722278309100004,-0.040080183296199993,-0.005731042020020001,0.012512141948299998,-0.00748431491315,-0.014058777099799998,-0.00583406626333,-0.027757058874,-0.0118161916472,11.564273834200002,1.87523257732,14.9383354187,-0.681430637836,5.218327045440001,-0.0913638025522,1237636,1522662095,895556935,,"['head_nod', 'head_pan', 'left_e0', 'left_e1', 'left_s0', 'left_s1', 'left_w0', 'left_w1', 'left_w2', 'right_e0', 'right_e1', 'right_s0', 'right_s1', 'right_w0', 'right_w1', 'right_w2', 'torso_t0']","(0.0, -0.10085923680346595, -0.9065826456402796, 1.50176719133982, 0.2791845033951453, 0.6450389213058165, 2.3420051679040554, -0.48703890015361884, -0.033364082136507746, 0.15224759319762732, 0.7267233982607147, 0.8057234088368136, -0.5813787186085718, -0.14266021327334347, 1.5132720472489607, 2.3630974037374797, -12.565987119160338)","(0.0, -0.012566370612001944, -0.006675884387626033, -0.007853981632501214, 0.012959069693627005, 0.014922565101752308, 0.028667032958629435, 0.005497787142750851, -0.00510508806112579, -0.0011780972448751821, 0.0011780972448751821, -0.006675884387626033, 0.018064157754752792, -0.009817477040626518, -0.045945792550132106, 0.006675884387626033, 0.0)","(0.0, 0.0, -14.62, 10.948, 0.216, 5.232, 0.084, -2.696, 0.24, 2.736, -19.28, 0.528, -37.412, 0.04, 1.504, 0.072, -20.48)",1220153,1522662098,378842021,robotiq_force_torque_frame_id,-0.37299990654,1.8750000476800002,10.340999221799999,-0.20000000298,-0.187999993563,-0.118000000715,323.0,396.0,812.0,838.0,901.0,287.0,557.0,691.0,952.0,1070.0,7,"(0.8039857054974986, -0.21150183174059065, 0.06728575385437291, -0.4403258222488476, 0.8974538853606555, 0.002712960663003458, -0.026121519028974572)",0.15000009536700004,-0.06999993324999987,0.7900009155299994,-0.01000000536400003,-0.0019999891520000035,0.005999997258000003
1522690898.41,19293,1522662098,398849964,,1237287,1522662095,907456234,,0.811618005451,-0.200819861019,0.08779906079260001,0.8980180722650001,0.43814674051299995,-0.0394837357422,-0.005657762469350001,0.00800257475602,-0.0117520655441,-0.00676557975438,-0.00459556553389,-0.020411233630099997,-0.0198586064599,10.7568788528,1.7246958017299998,14.8772878647,-0.637094080448,4.90541315079,-0.079447157681,1237636,1522662095,895556935,,"['head_nod', 'head_pan', 'left_e0', 'left_e1', 'left_s0', 'left_s1', 'left_w0', 'left_w1', 'left_w2', 'right_e0', 'right_e1', 'right_s0', 'right_s1', 'right_w0', 'right_w1', 'right_w2', 'torso_t0']","(0.0, -0.10085923680346595, -0.9065826456402796, 1.50176719133982, 0.2791845033951453, 0.6450389213058165, 2.3420051679040554, -0.48703890015361884, -0.033364082136507746, 0.15224759319762732, 0.7267233982607147, 0.8057234088368136, -0.5813787186085718, -0.14266021327334347, 1.5132720472489607, 2.3630974037374797, -12.565987119160338)","(0.0, -0.012566370612001944, -0.006675884387626033, -0.007853981632501214, 0.012959069693627005, 0.014922565101752308, 0.028667032958629435, 0.005497787142750851, -0.00510508806112579, -0.0011780972448751821, 0.0011780972448751821, -0.006675884387626033, 0.018064157754752792, -0.009817477040626518, -0.045945792550132106, 0.006675884387626033, 0.0)","(0.0, 0.0, -14.62, 10.948, 0.216, 5.232, 0.084, -2.696, 0.24, 2.736, -19.28, 0.528, -37.412, 0.04, 1.504, 0.072, -20.48)",1220155,1522662098,397346212,robotiq_force_torque_frame_id,-0.84299993515,1.2649999141700001,10.6009975433,-0.19900000095400003,-0.18999999761599998,-0.115999996662,325.0,396.0,823.0,838.0,912.0,284.0,555.0,691.0,966.0,1073.0,7,"(0.8039857054974986, -0.21150183174059065, 0.06728575385437291, -0.4403258222488476, 0.8974538853606555, 0.002712960663003458, -0.026121519028974572)",-0.47000002861000006,-0.61000013351,0.25999832150000124,0.0010000020259999798,-0.002000004052999965,0.002000004052999993
1522690898.45,19294,1522662098,408857107,,1237288,1522662095,917458473,,0.8119734952680001,-0.202408086151,0.0878831554878,0.8985339824959999,0.43711348287600005,-0.03925325786080001,-0.00525995584333,0.036530281414,-0.00230491530673,0.0190455507595,-0.008212349288020001,-0.0972385776856,0.000344901239317,10.7942171097,1.6581799984,14.933974266099998,-0.555041432381,4.9220700264,-0.059545502066599997,489307,1522662095,912999936,,['l_gripper_l_finger_joint'],"(0.0032494800670444966,)","(0.0,)","(0.0,)",1220155,1522662098,397346212,robotiq_force_torque_frame_id,-0.84299993515,1.2649999141700001,10.6009975433,-0.19900000095400003,-0.18999999761599998,-0.115999996662,325.0,400.0,823.0,870.0,912.0,285.0,545.0,695.0,976.0,1075.0,7,"(0.8039857054974986, -0.21150183174059065, 0.06728575385437291, -0.4403258222488476, 0.8974538853606555, 0.002712960663003458, -0.026121519028974572)",0.0,0.0,0.0,0.0,0.0,0.0
1522690898.45,19295,1522662098,418731927,,1237289,1522662095,927456092,,0.8122078180940001,-0.202104544312,0.08760826931739998,0.898477001662,0.437248031357,-0.0390634207243,-0.00522357355123,0.00699433845096,0.00458448015603,0.00231609259534,0.00147468723673,-0.0233537040593,0.0087570662767,10.8809909821,1.6419619321799999,14.845951080299999,-0.5680038332940001,4.96703529358,-0.0712923035026,1237639,1522662095,925511399,,"['head_nod', 'head_pan', 'left_e0', 'left_e1', 'left_s0', 'left_s1', 'left_w0', 'left_w1', 'left_w2', 'right_e0', 'right_e1', 'right_s0', 'right_s1', 'right_w0', 'right_w1', 'right_w2', 'torso_t0']","(0.0, -0.10085923680346595, -0.9069661408372509, 1.5021506865367915, 0.2784175130012026, 0.6450389213058165, 2.3412381775101125, -0.4881893857445329, -0.03298058693953639, 0.15186409800065595, 0.7255729126698007, 0.8057234088368136, -0.5813787186085718, -0.14266021327334347, 1.5121215616580466, 2.3627139085405084, -12.565987119160338)","(0.0, 0.0047123889795007284, 0.007853981632501214, 0.01021017612225158, -0.00510508806112579, 0.01060287520387664, -0.013351768775252066, -0.01649336142825255, 0.011780972448751823, -0.011388273367126762, 0.013351768775252066, 0.009424777959001457, -0.011780972448751823, 0.008639379795751335, -0.02591813938725401, -0.0047123889795007284, 0.0)","(0.0, 0.0, -14.62, 10.98, 0.248, 5.2, 0.068, -2.684, 0.252, 2.736, -19.22, 0.404, -37.412, 0.032, 1.492, 0.056, -20.48)",1220157,1522662098,417695116,robotiq_force_torque_frame_id,-0.132999897003,1.55500011444,10.6409984589,-0.181999996305,-0.184000000358,-0.11100000143100001,344.0,400.0,831.0,886.0,901.0,285.0,545.0,695.0,976.0,1075.0,7,"(0.8039857054974986, -0.21150183174059065, 0.06728575385437291, -0.4403258222488476, 0.8974538853606555, 0.002712960663003458, -0.026121519028974572)",0.7100000381470001,0.29000020026999995,0.0400009156000003,0.017000004649000033,0.005999997257999989,0.00499999523099999
1522690898.45,19296,1522662098,428702116,,1237290,1522662095,937460486,,0.8118899880079999,-0.20124976209800002,0.0879183532425,0.8984015889620001,0.437400984799,-0.0389968010808,-0.00584918397521,0.00885853718219,0.011324937554799998,0.00571687779681,0.029513243119799998,-0.0218836328008,-0.0012991872053399998,11.830783844,1.84808719158,14.954586029100001,-0.646227777004,5.3605470657300005,-0.0684337168932,1237640,1522662095,935527950,,"['head_nod', 'head_pan', 'left_e0', 'left_e1', 'left_s0', 'left_s1', 'left_w0', 'left_w1', 'left_w2', 'right_e0', 'right_e1', 'right_s0', 'right_s1', 'right_w0', 'right_w1', 'right_w2', 'torso_t0']","(0.0, -0.10085923680346595, -0.9073496360342223, 1.5025341817337627, 0.27880100819817394, 0.6446554261088451, 2.3412381775101125, -0.48742239535059023, -0.03298058693953639, 0.15301458359157002, 0.7263399030637434, 0.8057234088368136, -0.5821457090025145, -0.14227671807637213, 1.512505056855018, 2.3630974037374797, -12.565987119160338)","(0.0, -0.00510508806112579, 0.0019634954081253035, 0.00039269908162506076, -0.006283185306000972, -0.001570796326500243, -0.014922565101752308, -0.008639379795751335, -0.0047123889795007284, 0.022776546734253524, -0.011780972448751823, -0.009032078877376396, -0.0019634954081253035, 0.008246680714126275, -0.009817477040626518, 0.0023561944897503642, 0.0)","(0.0, 0.0, -14.556, 10.916, 0.216, 5.168, 0.076, -2.676, 0.232, 2.8, -19.28, 0.496, -37.352, 0.048, 1.524, 0.056, -20.48)",1220157,1522662098,417695116,robotiq_force_torque_frame_id,-0.132999897003,1.55500011444,10.6409984589,-0.181999996305,-0.184000000358,-0.11100000143100001,344.0,407.0,837.0,886.0,908.0,271.0,545.0,698.0,972.0,1080.0,7,"(0.8039857054974986, -0.21150183174059065, 0.06728575385437291, -0.4403258222488476, 0.8974538853606555, 0.002712960663003458, -0.026121519028974572)",0.0,0.0,0.0,0.0,0.0,0.0
1522690898.45,19297,1522662098,438719034,,1237291,1522662095,946483171,,0.8118733170389999,-0.20147796678899998,0.0872411109936,0.898366710403,0.43745258912199997,-0.0392236769275,-0.00583001523095,0.00045902026962699996,-0.0161314713555,-0.013505379451099999,-0.0195536437435,0.0047607292348599995,-0.020727324744400002,11.592245101900001,1.90447247028,14.8867511749,-0.7432227730750001,5.28050756454,-0.100442022085,1237641,1522662095,944548856,,"['head_nod', 'head_pan', 'left_e0', 'left_e1', 'left_s0', 'left_s1', 'left_w0', 'left_w1', 'left_w2', 'right_e0', 'right_e1', 'right_s0', 'right_s1', 'right_w0', 'right_w1', 'right_w2', 'torso_t0']","(0.0, -0.10085923680346595, -0.9065826456402796, 1.5021506865367915, 0.27880100819817394, 0.6446554261088451, 2.3427721582979983, -0.48780589054756157, -0.03298058693953639, 0.15263108839459866, 0.7259564078667721, 0.8057234088368136, -0.5809952234116005, -0.14227671807637213, 1.5121215616580466, 2.3627139085405084, -12.565987119160338)","(0.0, -0.008639379795751335, -0.01021017612225158, 0.005890486224375911, 0.010995574285501701, 0.001570796326500243, -0.0019634954081253035, 0.014137166938502187, -0.01060287520387664, -0.021991148571003403, -0.00039269908162506076, -0.0027488935713754254, 0.018456856836377853, -0.0019634954081253035, -0.012566370612001944, 0.006283185306000972, 0.0)","(0.0, 0.0, -14.62, 10.916, 0.248, 5.132, 0.084, -2.684, 0.232, 2.644, -19.22, 0.56, -37.352, 0.056, 1.544, 0.072, -20.48)",1220159,1522662098,438038202,robotiq_force_torque_frame_id,0.11700010299699999,2.03500001431,10.320998764,-0.180999994278,-0.179000005126,-0.109999999404,346.0,409.0,837.0,898.0,908.0,271.0,545.0,698.0,972.0,1077.0,7,"(0.8039857054974986, -0.21150183174059065, 0.06728575385437291, -0.4403258222488476, 0.8974538853606555, 0.002712960663003458, -0.026121519028974572)",0.25,0.4799998998699999,-0.3199996948999999,0.0010000020269999854,0.004999995231999982,0.0010000020270000132
1522690898.45,19298,1522662098,448695898,,1237292,1522662095,957461103,,0.8117028744399999,-0.20175134244100001,0.0873761720029,0.898378478835,0.43740052461900003,-0.0396004650352,-0.00535658461367,0.00357435567036,0.00863291240549,0.0030083345672100004,0.0286929312346,-0.010307894067700002,-0.000956406270633,11.533975601199998,1.71582853794,14.939034462,-0.601430356503,5.2503099441500005,-0.0845345556736,1237641,1522662095,944548856,,"['head_nod', 'head_pan', 'left_e0', 'left_e1', 'left_s0', 'left_s1', 'left_w0', 'left_w1', 'left_w2', 'right_e0', 'right_e1', 'right_s0', 'right_s1', 'right_w0', 'right_w1', 'right_w2', 'torso_t0']","(0.0, -0.10085923680346595, -0.9065826456402796, 1.5021506865367915, 0.27880100819817394, 0.6446554261088451, 2.3427721582979983, -0.48780589054756157, -0.03298058693953639, 0.15263108839459866, 0.7259564078667721, 0.8057234088368136, -0.5809952234116005, -0.14227671807637213, 1.5121215616580466, 2.3627139085405084, -12.565987119160338)","(0.0, -0.008639379795751335, -0.01021017612225158, 0.005890486224375911, 0.010995574285501701, 0.001570796326500243, -0.0019634954081253035, 0.014137166938502187, -0.01060287520387664, -0.021991148571003403, -0.00039269908162506076, -0.0027488935713754254, 0.018456856836377853, -0.0019634954081253035, -0.012566370612001944, 0.006283185306000972, 0.0)","(0.0, 0.0, -14.62, 10.916, 0.248, 5.132, 0.084, -2.684, 0.232, 2.644, -19.22, 0.56, -37.352, 0.056, 1.544, 0.072, -20.48)",1220159,1522662098,438038202,robotiq_force_torque_frame_id,0.11700010299699999,2.03500001431,10.320998764,-0.180999994278,-0.179000005126,-0.109999999404,356.0,409.0,827.0,898.0,906.0,271.0,545.0,700.0,977.0,1077.0,7,"(0.8039857054974986, -0.21150183174059065, 0.06728575385437291, -0.4403258222488476, 0.8974538853606555, 0.002712960663003458, -0.026121519028974572)",0.0,0.0,0.0,0.0,0.0,0.0
1522690898.46,19299,1522662098,458719015,,1237293,1522662095,967456016,,0.8115750428190001,-0.201649570828,0.08712590496860001,0.8985008860510001,0.437139642281,-0.039647563518199994,-0.005758612585069999,-0.00717444871257,0.0051533808805799995,-0.00286095738223,-0.0188454458232,0.015181004437799999,0.0133820740839,10.643657684299999,1.4549666643099999,14.7431907654,-0.478317290545,4.87998580933,-0.056654445827,489309,1522662095,964000000,,['l_gripper_l_finger_joint'],"(0.0032494800670444966,)","(0.0,)","(0.0,)",1220161,1522662098,458378596,robotiq_force_torque_frame_id,0.437000274658,2.90500001907,10.4109989166,-0.19499999284699998,-0.17599999904599997,-0.11500000208599999,356.0,414.0,827.0,906.0,907.0,275.0,549.0,695.0,977.0,1078.0,7,"(0.8039857054974986, -0.21150183174059065, 0.06728575385437291, -0.4403258222488476, 0.8974538853606555, 0.002712960663003458, -0.026121519028974572)",0.32000017166100003,0.8700000047600001,0.09000015260000005,-0.013999998568999972,0.003000006080000034,-0.005000002681999988
1522690898.47,19300,1522662098,468708992,,1237294,1522662095,977452722,,0.811571686157,-0.20146927993500002,0.08725170577610002,0.898317742172,0.437514707931,-0.0396539327699,-0.005803452289260001,-0.008801905765540002,-0.00015569850483700002,-0.00489889271348,-0.00989219833812,0.024707947349400003,-0.000878776768432,10.7030229568,1.67489290237,14.7510213852,-0.5669146776199999,4.90234613419,-0.0669580847025,1237644,1522662095,975547964,,"['head_nod', 'head_pan', 'left_e0', 'left_e1', 'left_s0', 'left_s1', 'left_w0', 'left_w1', 'left_w2', 'right_e0', 'right_e1', 'right_s0', 'right_s1', 'right_w0', 'right_w1', 'right_w2', 'torso_t0']","(0.0, -0.10085923680346595, -0.9073496360342223, 1.5021506865367915, 0.2795679985921167, 0.6450389213058165, 2.3420051679040554, -0.4881893857445329, -0.03298058693953639, 0.15224759319762732, 0.7259564078667721, 0.8061069040337849, -0.5809952234116005, -0.14227671807637213, 1.5128885520519892, 2.3627139085405084, -12.565987119160338)","(0.0, 0.010995574285501701, -0.009424777959001457, -0.0027488935713754254, 0.001570796326500243, -0.0047123889795007284, -0.018849555918002914, -0.006675884387626033, -0.006675884387626033, -0.008246680714126275, -0.0035342917346255468, 0.008246680714126275, 0.009424777959001457, -0.00039269908162506076, 0.019242254999627974, 0.003926990816250607, 0.0)","(0.0, 0.0, -14.684, 10.916, 0.216, 5.264, 0.084, -2.636, 0.252, 2.768, -19.16, 0.436, -37.352, 0.056, 1.504, 0.056, -20.48)",1220161,1522662098,458378596,robotiq_force_torque_frame_id,0.437000274658,2.90500001907,10.4109989166,-0.19499999284699998,-0.17599999904599997,-0.11500000208599999,356.0,414.0,838.0,890.0,908.0,275.0,549.0,695.0,965.0,1078.0,7,"(0.8039857054974986, -0.21150183174059065, 0.06728575385437291, -0.4403258222488476, 0.8974538853606555, 0.002712960663003458, -0.026121519028974572)",0.0,0.0,0.0,0.0,0.0,0.0
1522690898.48,19301,1522662098,478898048,,1237295,1522662095,987456079,,0.812031916108,-0.202467246785,0.0877290962294,0.898461522509,0.43725056828000003,-0.0394438598489,-0.00479739827539,0.00346210949701,-0.008781171974219999,0.0049058378506600005,-0.009252492314049999,-0.005826656694369999,-0.0039244596404400004,10.858735084500001,1.51235759258,14.663107872000001,-0.434915751219,4.96829605103,-0.07894276082519999,1237645,1522662095,985531120,,"['head_nod', 'head_pan', 'left_e0', 'left_e1', 'left_s0', 'left_s1', 'left_w0', 'left_w1', 'left_w2', 'right_e0', 'right_e1', 'right_s0', 'right_s1', 'right_w0', 'right_w1', 'right_w2', 'torso_t0']","(0.0, -0.1004757416064946, -0.9065826456402796, 1.5021506865367915, 0.2791845033951453, 0.6450389213058165, 2.3420051679040554, -0.48780589054756157, -0.033364082136507746, 0.15109710760671324, 0.7259564078667721, 0.8061069040337849, -0.5817622138055432, -0.14304370847031483, 1.512505056855018, 2.3627139085405084, -12.565987119160338)","(0.0, -0.0007853981632501215, -0.0011780972448751821, 0.004319689897875668, -0.01060287520387664, -0.0027488935713754254, -0.02631083846887907, 0.01060287520387664, -0.0047123889795007284, -0.008246680714126275, -0.012959069693627005, -0.0027488935713754254, -0.0007853981632501215, -0.003141592653000486, 0.008246680714126275, -0.0047123889795007284, 0.0)","(0.0, 0.0, -14.556, 10.948, 0.248, 5.168, 0.068, -2.648, 0.224, 2.8, -19.16, 0.28, -37.264, 0.056, 1.492, 0.064, -20.48)",1220162,1522662098,470576931,robotiq_force_torque_frame_id,0.626999855042,3.30499999523,10.6209980011,-0.20000000298,-0.184000000358,-0.122000001371,356.0,411.0,838.0,890.0,906.0,271.0,556.0,687.0,967.0,1083.0,7,"(0.8039857054974986, -0.21150183174059065, 0.06728575385437291, -0.4403258222488476, 0.8974538853606555, 0.002712960663003458, -0.026121519028974572)",0.18999958038399994,0.39999997616000016,0.2099990844999997,-0.005000010133000027,-0.008000001312000016,-0.0069999992850000164
1522690898.52,19302,1522662098,488828897,,1237296,1522662095,997451738,,0.811851351725,-0.202488074153,0.08791176145539999,0.8985456309190001,0.437069984257,-0.0394922126491,-0.00509344255073,0.0133195747455,-0.004331405141840001,0.021269862923400003,-0.0188418416323,-0.0366390371237,0.016399382402700002,11.3211164474,1.7046678066299998,14.718866348299999,-0.501291394234,5.12217140198,-0.0570392347872,1237646,1522662095,995545794,,"['head_nod', 'head_pan', 'left_e0', 'left_e1', 'left_s0', 'left_s1', 'left_w0', 'left_w1', 'left_w2', 'right_e0', 'right_e1', 'right_s0', 'right_s1', 'right_w0', 'right_w1', 'right_w2', 'torso_t0']","(0.0, -0.10085923680346595, -0.9069661408372509, 1.5021506865367915, 0.27803401780423126, 0.6450389213058165, 2.3412381775101125, -0.48780589054756157, -0.0337475773334791, 0.15224759319762732, 0.7263399030637434, 0.8053399136398423, -0.5821457090025145, -0.14342720366728617, 1.5128885520519892, 2.3630974037374797, -12.565987119160338)","(0.0, -0.0047123889795007284, 0.007853981632501214, -0.004319689897875668, -0.014529866020127248, -0.01021017612225158, 0.006675884387626033, -0.006283185306000972, 0.006283185306000972, -0.001570796326500243, -0.018064157754752792, 0.006283185306000972, -0.021991148571003403, -0.02042035224450316, 0.005497787142750851, -0.01060287520387664, 0.0)","(0.0, 0.0, -14.556, 10.884, 0.248, 5.264, 0.096, -2.664, 0.232, 2.924, -19.22, 0.404, -37.264, 0.032, 1.472, 0.056, -20.48)",1220164,1522662098,486869241,robotiq_force_torque_frame_id,1.27699995041,2.21499996185,9.600997543330001,-0.194000005722,-0.186000004411,-0.11699999868899999,356.0,408.0,803.0,877.0,906.0,271.0,556.0,687.0,967.0,1083.0,7,"(0.8039857054974986, -0.21150183174059065, 0.06728575385437291, -0.4403258222488476, 0.8974538853606555, 0.002712960663003458, -0.026121519028974572)",0.6500000953680001,-1.0900000333800004,-1.0200004577699993,0.005999997258000017,-0.0020000040530000207,0.005000002682000015
1522690898.52,19303,1522662098,498713016,,1237297,1522662096,7496626,,0.8118093038680001,-0.201373954238,0.08778772990849999,0.898359999247,0.437462404273,-0.039301773458400004,-0.00559707098982,0.0014434814216400002,-0.0105340396955,0.0013574937734200001,-0.00134118211308,-0.00398028435317,-0.00832396387487,11.973985672000001,1.76732182503,14.6621007919,-0.602327525616,5.32913160324,-0.08631366491319999,1237646,1522662095,995545794,,"['head_nod', 'head_pan', 'left_e0', 'left_e1', 'left_s0', 'left_s1', 'left_w0', 'left_w1', 'left_w2', 'right_e0', 'right_e1', 'right_s0', 'right_s1', 'right_w0', 'right_w1', 'right_w2', 'torso_t0']","(0.0, -0.10085923680346595, -0.9069661408372509, 1.5021506865367915, 0.27803401780423126, 0.6450389213058165, 2.3412381775101125, -0.48780589054756157, -0.0337475773334791, 0.15224759319762732, 0.7263399030637434, 0.8053399136398423, -0.5821457090025145, -0.14342720366728617, 1.5128885520519892, 2.3630974037374797, -12.565987119160338)","(0.0, -0.0047123889795007284, 0.007853981632501214, -0.004319689897875668, -0.014529866020127248, -0.01021017612225158, 0.006675884387626033, -0.006283185306000972, 0.006283185306000972, -0.001570796326500243, -0.018064157754752792, 0.006283185306000972, -0.021991148571003403, -0.02042035224450316, 0.005497787142750851, -0.01060287520387664, 0.0)","(0.0, 0.0, -14.556, 10.884, 0.248, 5.264, 0.096, -2.664, 0.232, 2.924, -19.22, 0.404, -37.264, 0.032, 1.472, 0.056, -20.48)",1220164,1522662098,486869241,robotiq_force_torque_frame_id,1.27699995041,2.21499996185,9.600997543330001,-0.194000005722,-0.186000004411,-0.11699999868899999,356.0,408.0,812.0,877.0,901.0,264.0,554.0,685.0,977.0,1083.0,7,"(0.8039857054974986, -0.21150183174059065, 0.06728575385437291, -0.4403258222488476, 0.8974538853606555, 0.002712960663003458, -0.026121519028974572)",0.0,0.0,0.0,0.0,0.0,0.0
1522690898.52,19304,1522662098,508696079,,1237298,1522662096,17458926,,0.811492300197,-0.201046503926,0.08738528794849999,0.898130031991,0.43789647500900003,-0.03972240591869999,-0.0055904631956700005,-0.012958512273899998,0.027424503281900003,-0.00385206032145,0.029295509850099998,0.02616517929,0.021683498809199998,12.831281662,1.71334791183,14.728770255999999,-0.588891923428,5.64247560501,-0.09088212251660001,489311,1522662096,15000064,,['l_gripper_l_finger_joint'],"(0.0032494800670444966,)","(0.0,)","(0.0,)",1220166,1522662098,507227749,robotiq_force_torque_frame_id,-0.322999954224,2.08499996662,8.86099967957,-0.203999996185,-0.188999995589,-0.112000003457,356.0,413.0,812.0,887.0,901.0,264.0,560.0,685.0,977.0,1079.0,7,"(0.8039857054974986, -0.21150183174059065, 0.06728575385437291, -0.4403258222488476, 0.8974538853606555, 0.002712960663003458, -0.026121519028974572)",-1.599999904634,-0.12999999522999994,-0.7399978637600011,-0.009999990463000014,-0.0029999911779999833,0.004999995231999996
1522690898.56,19305,1522662098,518831014,,1237299,1522662096,27453736,,0.8113687749230001,-0.20143031397,0.08782273263250001,0.898257597183,0.437620995409,-0.039845295458900004,-0.00578842904109,-0.00974184334308,-0.00720703562415,-0.00041362398222600003,-0.0006511724115199999,0.024562521195200002,-0.0015828323455100001,13.0593938828,1.7664570808400002,14.702044487,-0.569785892963,5.73193502426,-0.0748343840241,1237649,1522662096,25549676,,"['head_nod', 'head_pan', 'left_e0', 'left_e1', 'left_s0', 'left_s1', 'left_w0', 'left_w1', 'left_w2', 'right_e0', 'right_e1', 'right_s0', 'right_s1', 'right_w0', 'right_w1', 'right_w2', 'torso_t0']","(0.0, -0.1012427320004373, -0.9077331312311936, 1.50176719133982, 0.27880100819817394, 0.6446554261088451, 2.3412381775101125, -0.4881893857445329, -0.03298058693953639, 0.15263108839459866, 0.7259564078667721, 0.8061069040337849, -0.5817622138055432, -0.14266021327334347, 1.5140390376429034, 2.3627139085405084, -12.565987119160338)","(0.0, -0.001570796326500243, -0.005497787142750851, -0.005890486224375911, 0.018456856836377853, -0.0027488935713754254, 0.0027488935713754254, -0.0027488935713754254, 0.015707963265002428, -0.00510508806112579, 0.009424777959001457, -0.007461282550876154, -0.0035342917346255468, 0.006283185306000972, 0.018064157754752792, -0.008639379795751335, 0.0)","(0.0, 0.0, -14.684, 10.948, 0.216, 5.2, 0.076, -2.676, 0.232, 2.8, -19.372, 0.34, -37.176, 0.032, 1.424, 0.056, -20.48)",1220166,1522662098,507227749,robotiq_force_torque_frame_id,-0.322999954224,2.08499996662,8.86099967957,-0.203999996185,-0.188999995589,-0.112000003457,363.0,413.0,839.0,887.0,904.0,270.0,560.0,675.0,973.0,1079.0,7,"(0.8039857054974986, -0.21150183174059065, 0.06728575385437291, -0.4403258222488476, 0.8974538853606555, 0.002712960663003458, -0.026121519028974572)",0.0,0.0,0.0,0.0,0.0,0.0
1522690898.56,19306,1522662098,528662919,,1237300,1522662096,37457223,,0.811574303179,-0.201272194229,0.0882053093328,0.898251520678,0.43766408934199996,-0.0395577329966,-0.005434727235229999,-0.000198564243976,0.00232106450281,0.012898564812799999,-0.00118203186604,-0.00037788087102599995,-0.0102472695095,12.2254114151,1.6347404718399998,14.6721611023,-0.496735811234,5.359756469730001,-0.0802505984902,1237650,1522662096,35503142,,"['head_nod', 'head_pan', 'left_e0', 'left_e1', 'left_s0', 'left_s1', 'left_w0', 'left_w1', 'left_w2', 'right_e0', 'right_e1', 'right_s0', 'right_s1', 'right_w0', 'right_w1', 'right_w2', 'torso_t0']","(0.0, -0.10085923680346595, -0.9069661408372509, 1.50176719133982, 0.2784175130012026, 0.6446554261088451, 2.3420051679040554, -0.48780589054756157, -0.033364082136507746, 0.15263108839459866, 0.7263399030637434, 0.8064903992307563, -0.5825292041994858, -0.14304370847031483, 1.513655542445932, 2.3630974037374797, -12.565987119160338)","(0.0, 0.01021017612225158, -0.003926990816250607, 0.00039269908162506076, 0.005890486224375911, 0.005890486224375911, -0.014922565101752308, -0.01021017612225158, 0.011780972448751823, -0.0019634954081253035, -0.014137166938502187, 0.0047123889795007284, -0.010995574285501701, 0.0027488935713754254, 0.024740042142378828, 0.011388273367126762, 0.0)","(0.0, 0.0, -14.588, 10.916, 0.216, 5.232, 0.104, -2.656, 0.232, 2.8, -19.372, 0.28, -37.264, 0.04, 1.364, 0.064, -20.48)",1220168,1522662098,527585184,robotiq_force_torque_frame_id,-1.45299983025,1.07500009537,8.42100105286,-0.20000000298,-0.193000003695,-0.11100000143100001,363.0,413.0,839.0,887.0,904.0,275.0,576.0,687.0,970.0,1076.0,7,"(0.8039857054974986, -0.21150183174059065, 0.06728575385437291, -0.4403258222488476, 0.8974538853606555, 0.002712960663003458, -0.026121519028974572)",-1.129999876026,-1.0099998712499998,-0.43999862671000045,0.0039999932049999964,-0.004000008106000014,0.0010000020259999798
