,Unnamed: 0,.header.seq,.header.stamp.secs,.header.stamp.nsecs,.header.frame_id,.endpoint_state.header.seq,.endpoint_state.header.stamp.secs,.endpoint_state.header.stamp.nsecs,.endpoint_state.header.frame_id,.endpoint_state.pose.position.x,.endpoint_state.pose.position.y,.endpoint_state.pose.position.z,.endpoint_state.pose.orientation.x,.endpoint_state.pose.orientation.y,.endpoint_state.pose.orientation.z,.endpoint_state.pose.orientation.w,.endpoint_state.twist.linear.x,.endpoint_state.twist.linear.y,.endpoint_state.twist.linear.z,.endpoint_state.twist.angular.x,.endpoint_state.twist.angular.y,.endpoint_state.twist.angular.z,.endpoint_state.wrench.force.x,.endpoint_state.wrench.force.y,.endpoint_state.wrench.force.z,.endpoint_state.wrench.torque.x,.endpoint_state.wrench.torque.y,.endpoint_state.wrench.torque.z,.joint_state.header.seq,.joint_state.header.stamp.secs,.joint_state.header.stamp.nsecs,.joint_state.header.frame_id,.joint_state.name,.joint_state.position,.joint_state.velocity,.joint_state.effort,.wrench_stamped.header.seq,.wrench_stamped.header.stamp.secs,.wrench_stamped.header.stamp.nsecs,.wrench_stamped.header.frame_id,.wrench_stamped.wrench.force.x,.wrench_stamped.wrench.force.y,.wrench_stamped.wrench.force.z,.wrench_stamped.wrench.torque.x,.wrench_stamped.wrench.torque.y,.wrench_stamped.wrench.torque.z,.tag
0,27.268678,2742.5,1518245061.0,689088290.0,,1944457.5,1518245061.0,689088290.0,,0.760448008906,-0.290745632255,0.126290762354,-0.0265862172408,0.999517556299,0.00325066069543,0.0157184683516,-0.0138955953309,-0.000599560154525,-0.0147758427033,-0.0372627502456,0.0195949170185,0.006004694836,3.00472509861,1.58551257849,3.89401400089,-0.405694961548,1.19813811779,0.23881547153,1356825.0,1518245061.0,690075372.0,,,,,,87465.5,1518245061.0,690759124.5,,0.0720000043512,-1.4630000174,-0.793000002205,0.00200000009499,0.00599999981932,0.0145000005141,3.0
1,27.3712421026,2755.5,1518245061.0,824091407.0,,1944471.0,1518245061.0,824091407.0,,0.758478020925,-0.29114814145,0.120823192145,-0.0324027635909,0.999374020578,-0.00156187300398,0.0140790305068,-0.03329594346,-0.0157640308362,-0.0534153361344,-0.123194026866,0.0640002917803,0.118659645871,4.30091261864,1.04769152403,4.50544357299,-0.140670944005,1.88977867365,0.268203526735,1356835.0,1518245061.0,820590713.0,,,,,,87479.0,1518245061.0,826981855.5,,1.85699996724,-0.458000051975,0.181999999285,0.00499999988824,0.000499999616295,0.0374999996275,3.0
2,27.4738062051,2763.5,1518245061.0,899091871.0,,1944478.5,1518245061.0,899091871.0,,0.755426440372,-0.291079225517,0.11697999438,-0.0332717186659,0.999380653819,-0.00414936840833,0.0106762973842,-0.0412798487089,0.0103725507673,-0.0478011204675,-0.0578155245435,0.0860925762749,0.0386814218028,2.82671225071,1.19494140148,4.25715279579,-0.190364278853,1.28076642752,0.219452857971,768856.5,1518245061.0,905500032.0,,,,,,87486.5,1518245061.0,900812739.5,,2.59699997679,-2.51300001442,-1.01300000008,0.0240000002087,-0.019999999553,0.0645000003278,3.0
3,27.5763703077,2773.5,1518245061.5,499085412.5,,1944488.5,1518245061.5,499085412.5,,0.750343297976,-0.288916946124,0.111609299882,-0.0354381695173,0.999346524034,-0.00430505351747,0.00564714610846,-0.064251677235,0.021114236806,-0.0544665456147,0.00694464341092,0.136122666665,0.0175034583726,3.4018548727,1.54239600897,4.73303961754,-0.321803495288,1.47851580382,0.212920561432,1356846.5,1518245061.5,497071636.5,,,,,,87496.5,1518245061.5,501736926.0,,1.5369999744,-1.71800002008,0.257000046968,0.0155000002123,-0.0245000012219,0.0630000010132,3.0
4,27.6789344103,2784.5,1518245062.0,109085615.0,,1944499.5,1518245062.0,109085615.0,,0.74533785128,-0.285198491921,0.106486233198,-0.0380444416554,0.999267991007,-0.00395765082822,0.000626607033208,-0.0478796814474,0.0473093414179,-0.0521860145844,0.0157716615052,0.0860691995896,0.0369814211547,4.97085261345,1.34139746427,4.98751473427,-0.167445115745,2.04850882292,0.209123924375,768865.0,1518245062.0,112999936.0,,,,,,87507.5,1518245062.0,110746794.0,,1.21199998632,0.197000038624,0.482000011206,0.00900000007823,0.00550000020303,0.0320000005886,3.0
5,27.7814985128,2797.5,1518245062.0,239085334.5,,1944512.5,1518245062.0,239085334.5,,0.741216711613,-0.281972944218,0.0991705488441,-0.0435759754693,0.999025392878,-0.00632040470552,-0.00305185632333,-0.00551532368519,0.0319242149883,-0.0493982822343,-0.0303688968162,-0.0120626088357,0.106355311642,4.68246173859,1.04996407032,4.96196293831,-0.0158714838326,1.89558106661,0.230080924928,1944857.5,1518245062.0,237163625.0,,,,,,87520.5,1518245062.0,240408902.0,,-1.04799997434,-0.458000051975,0.481999951601,0.0119999998715,0.00249999994412,0.0240000011399,3.0
6,27.8840626154,2805.5,1518245062.0,319091055.0,,1944520.5,1518245062.0,319091055.0,,0.740525976785,-0.279536186182,0.094746581551,-0.0474453457422,0.998848667185,-0.0064829824336,-0.00285158408893,-0.00847801048036,0.0449512451282,-0.0597172609512,0.0165426904011,-0.00932790431602,0.087474684102,3.78252923488,1.66167461872,5.14989161492,-0.511007353664,1.68575900793,0.162913948297,1356869.5,1518245062.0,319074233.0,,,,,,87528.5,1518245062.0,320914682.5,,0.791999999434,-0.998000043628,-0.118000012636,0.00850000022909,0.0209999997169,0.0215000007302,3.0
7,27.9866267179,2815.5,1518245062.0,419091803.5,,1944530.5,1518245062.0,419091803.5,,0.737470614206,-0.27689243221,0.0918596374698,-0.0484653685347,0.998780902803,-0.00735236647579,-0.00579187344901,-0.0496477608342,-0.0103979892286,-0.0475868427657,-0.0516876440326,0.0997858138601,0.0123611616077,3.74829554558,0.800152957439,5.21150350571,-0.00937660224735,1.66147106885,0.251945838332,1356876.5,1518245062.0,419103354.0,,,,,,87539.0,1518245062.0,427071888.5,,-1.03299998865,-1.41800003052,-0.393000003695,0.00100000016391,0.022500000894,0.0515000000596,3.0
8,28.0891908205,2827.5,1518245062.0,539088147.0,,1944542.5,1518245062.0,539088147.0,,0.732628472091,-0.274334384494,0.0875787093251,-0.0528662565705,0.998507166622,-0.00851704886259,-0.010755393537,-0.0369994221841,0.0100629004069,-0.0255344327663,-0.0011770466853,0.0846542877001,0.023230439303,2.61344146728,0.766563683749,4.53124809265,-0.0284459218382,1.11566191912,0.255233407021,1944887.5,1518245062.0,537153810.5,,,,,,87550.5,1518245062.0,542512732.5,,-1.37799998745,-0.048000025749,0.867000001669,0.0189999998547,-0.0180000001565,0.0295000001788,3.0
9,28.1917549231,2834.5,1518245062.0,609096957.0,,1944549.5,1518245062.0,609096957.0,,0.731218250918,-0.274636189439,0.0853698217217,-0.0535248339631,0.998450115796,-0.00928547732051,-0.01209021021,-0.0253246032176,-0.0116788877004,-0.0283428129203,-0.056976624162,0.0596452338998,0.0026244225053,2.93091213703,1.10850805044,4.30054044724,-0.114493843168,1.22642087936,0.225944615901,768884.5,1518245062.0,612999936.0,,,,,,87557.5,1518245062.0,612511330.0,,-1.16300001368,-2.10800002813,0.177000004053,0.00350000010803,-0.00849999999627,0.0465000011027,3.0
10,28.2943190256,2847.5,1518245062.0,739090954.5,,1944562.5,1518245062.0,739090954.5,,0.730224761585,-0.272848313787,0.081175610868,-0.0559463915045,0.998299214313,-0.010559490385,-0.0125333740589,-0.0103847224624,0.00976088074842,-0.0343283071294,0.00397405004345,0.016619102377,0.0288457002674,3.38694024086,1.34953981638,4.76542878151,-0.282170534134,1.4762712121,0.21214863658,1944907.5,1518245062.0,737166678.5,,,,,,87570.5,1518245062.0,742328332.0,,-0.16799999401,-0.327999997139,-0.318000000715,0.0270000007003,-0.00150000001304,0.0280000008642,3.0
11,28.3968831282,2854.5,1518245062.0,809090900.0,,1944569.5,1518245062.0,809090900.0,,0.729637251649,-0.271259667281,0.0784061125692,-0.0570555045502,0.99824515331,-0.00937996693236,-0.012775972915,-0.0220146475917,0.00674744968435,-0.0431281825661,0.0143445825816,0.0362880877595,0.0186057516633,4.13658511639,1.42998284102,5.05934429169,-0.344706892968,1.95370936394,0.187839873135,768892.5,1518245062.0,815500032.0,,,,,,87577.5,1518245062.0,812548363.5,,-0.237999987789,-1.12300001383,-0.412999999523,0.00650000013411,0.0115000001388,0.0130000002682,3.0
12,28.4994472308,2868.5,1518245062.0,949099557.5,,1944583.5,1518245062.0,949099557.5,,0.727899184543,-0.270001698925,0.0737444031032,-0.0582762606589,0.998142791158,-0.00999721985777,-0.014655290831,-0.0131475350032,0.00172495343812,-0.0390451740214,-0.0417715168597,0.0289053314123,-0.0151741992858,4.08293306828,1.09726727008,4.10841822624,-0.101447284222,1.60132521391,0.192730166018,1944928.0,1518245062.0,942145472.0,,,,,,87591.5,1518245062.0,952645906.0,,-1.11799999699,-2.06800003089,0.0219999730587,-0.00399999972435,0.0105000003241,0.0394999999553,3.0
13,28.6020113333,2875.5,1518245063.0,19088992.5,,1944590.5,1518245063.0,19088992.5,,0.726951043382,-0.269642917598,0.0709784449578,-0.0595359044046,0.998045148624,-0.0110165568097,-0.0154868332495,-0.00502341186846,0.00718002568702,-0.0294626420828,-0.0413548820756,0.0147231546934,0.0519276951096,2.65595638752,1.45828908682,4.84298086166,-0.430011987687,1.17648139596,0.150600850582,1356918.0,1518245063.0,17581484.5,,,,,,87598.5,1518245063.0,22541621.0,,-1.98299994692,-0.758000034092,-0.752999988198,0.0235000005923,-0.00550000020303,0.0185000002384,3.0
14,28.7045754359,2887.5,1518245063.0,139122074.0,,1944602.5,1518245063.0,139122074.0,,0.726303844928,-0.267847239891,0.0676059440291,-0.0609233982961,0.99797765529,-0.00938376246863,-0.0155184716041,-0.00433930743314,0.00733214073877,-0.0248950074938,0.00636526708618,-0.0022525136117,0.0246273702127,4.34449028969,1.50544691085,4.40466046333,-0.432859420776,1.76449036598,0.140576392412,1944947.5,1518245063.0,137173855.5,,,,,,87610.5,1518245063.0,144015470.0,,-0.128000002354,-1.11300002336,-0.318000000715,-0.00300000014249,0.0250000003725,0.0184999993071,3.0
15,28.8071395385,2899.5,1518245063.0,259087836.0,,1944614.5,1518245063.0,259087836.0,,0.726580806292,-0.266973912132,0.0641857604636,-0.0620461837919,0.997918119144,-0.0095145231779,-0.0148016278306,0.0109444586783,-0.0110033950739,-0.0356576496001,-0.0260210122332,-0.0242327905353,0.0202548786005,4.57765388489,1.63271659613,3.97376167774,-0.51113653183,1.94606178999,0.142280250788,1356934.0,1518245063.0,254070616.0,,,,,,87622.5,1518245063.0,263593690.0,,-0.328000005335,-1.14300002456,-0.0880000114443,0.0,0.0280000008642,0.0570000000298,3.0
16,28.909703641,2906.5,1518245063.0,329092011.0,,1944621.5,1518245063.0,329092011.0,,0.72663519077,-0.266171628532,0.0623403754883,-0.0620756495214,0.997919343947,-0.00979864080213,-0.0144021445861,-0.00231797874898,0.00814990563569,-0.0361120821002,0.000338229317871,0.00166617125235,-0.0019736770434,4.2713329792,1.18835568428,4.19034266472,-0.268819451332,1.8511517644,0.184828005731,1356940.0,1518245063.0,329593705.0,,,,,,87629.5,1518245063.0,333799613.5,,-0.0679999999702,-2.16300002039,0.607000011206,0.00499999983003,-0.00249999971129,0.0355000002309,3.0
17,29.0122677436,2920.5,1518245063.0,469094285.0,,1944635.5,1518245063.0,469094285.0,,0.725955739315,-0.265976092062,0.0572263113926,-0.0626144749768,0.997876291243,-0.00949731382064,-0.0152338864573,0.00473051842832,0.00847644330087,-0.0351378501756,0.0203873618995,-0.0185726833872,0.00974156266261,4.48012590408,0.814914941788,4.01483774185,-0.0205412618816,1.81798827649,0.192309848964,768918.5,1518245063.0,474000000.0,,,,,,87643.5,1518245063.0,473807434.5,,0.487000008114,-0.323000001907,0.0270000278947,-0.00150000001303,0.0339999999851,0.0329999998212,3.0
18,29.1148318462,2927.5,1518245063.0,539090776.5,,1944642.5,1518245063.0,539090776.5,,0.7263175971,-0.265936107655,0.0550348211602,-0.0626185053333,0.997886423423,-0.00909379393916,-0.0147919376178,-0.00305242492814,0.00250939269841,-0.036714231642,0.0128546065479,0.00652251185744,-0.00362930033448,3.49348962307,1.11917871237,3.76418697834,-0.287583805621,1.32113718986,0.170645408332,1944987.5,1518245063.0,537158422.0,,,,,,87650.5,1518245063.0,543899701.5,,-0.0930000059305,-1.67800002843,-0.818000000715,0.0054999999702,-0.010499999742,0.0264999996871,3.0
19,29.2173959487,2936.5,1518245063.0,634086581.0,,1944652.0,1518245063.0,634086581.0,,0.727081197411,-0.26612546043,0.051349688347,-0.0625761397,0.997893675329,-0.00929859171457,-0.0143518525146,-0.000950192397837,-0.0216592697961,-0.0419681171482,-0.0172029212979,0.000359982243222,0.0148966826664,2.85778641701,1.13997626305,4.99265146255,-0.341565191746,1.26069056988,0.108528926969,1944997.0,1518245063.0,632181158.0,,,,,,87660.0,1518245063.0,638426346.0,,0.0969999991357,-1.21300004721,-0.628000003099,0.0230000000447,0.00499999988824,0.0340000018477,3.0
20,29.3199600513,2948.5,1518245063.0,749088903.0,,1944663.5,1518245063.0,749088903.0,,0.726669872287,-0.269445472469,0.0487126141777,-0.0621927335953,0.997866223717,-0.0127089817155,-0.0152738259725,-0.0121901587709,-0.0604137460166,-0.00962885926203,-0.132276656868,0.0321649974983,-0.0049532878255,3.62034511566,1.04202985764,2.21561944485,-0.210706681013,1.41666948795,0.121152706444,1945008.0,1518245063.0,742147867.0,,,,,,87672.0,1518245063.0,758169088.0,,-0.298000004142,-4.01800005436,-5.66300002932,0.255999997258,0.0960000008344,0.0834999978542,-1.0
21,29.4225241538,2961.5,1518245063.0,879087897.5,,1944676.5,1518245063.0,879087897.5,,0.728791110403,-0.271821300624,0.0479413943119,-0.0627233282734,0.99783326856,-0.0152478468336,-0.0127265522295,0.012969856328,0.012317806203,-0.0144622835189,0.0335348572222,-0.038827622497,0.00082133588035,3.56996250153,1.8663366437,1.7844594717,-0.339379996061,1.4663978219,0.172702215612,1945021.5,1518245063.0,877177646.5,,,,,,87684.5,1518245063.0,883953498.5,,-0.097999991849,-2.58800001741,-3.35800008178,0.144500002265,0.107500001788,0.0764999985695,-1.0
22,29.5250882564,2968.5,1518245063.0,949089638.0,,1944683.5,1518245063.0,949089638.0,,0.728275936678,-0.272352351248,0.0477404473717,-0.0620376892437,0.997867075415,-0.0153371285589,-0.0133095604899,5.4185835595e-05,-0.00342403616682,0.00803967503866,-0.0198967788809,-0.00197949239333,0.0121042488905,3.96756768226,1.67041671276,1.72208797931,-0.247261397541,1.61987310648,0.175855614245,1945028.0,1518245063.0,942170837.0,,,,,,87691.5,1518245063.0,953808088.5,,-0.643000002951,-1.43800004125,-4.43800000548,0.216499999166,0.127000000328,0.0584999993443,-1.0
23,29.627652359,2980.5,1518245064.0,69105569.5,,1944695.5,1518245064.0,69105569.5,,0.728248112015,-0.271415736435,0.0479320757449,-0.063028210713,0.997803517685,-0.0155304624665,-0.0132013945603,0.0033349679865,0.0189185854412,0.00124119352313,0.00312377317816,-0.0124411691354,0.0318764325848,3.69670569897,1.15383267403,1.78863734007,0.0475165620446,1.51594781876,0.209184214473,1945039.5,1518245064.0,57164228.5,,,,,,87703.5,1518245064.0,75321214.5,,0.10699999705,-3.27799998522,-5.34299985766,0.243500001729,0.10000000149,0.089999999851,-1.0
24,29.7302164615,2990.5,1518245064.0,169091038.0,,1944705.5,1518245064.0,169091038.0,,0.728113960586,-0.270942191379,0.0479758337052,-0.0632594339605,0.997786656262,-0.0154391849932,-0.0134725787052,-0.00881089932762,0.0066278746203,-0.00322065587803,0.0147458443858,0.0191115907759,-0.0066237872875,3.35232293606,1.0534427166,1.85925918817,0.0999275185166,1.38839709758,0.221402108669,1356997.0,1518245064.0,159575999.5,,,,,,87713.5,1518245064.0,174127082.0,,0.0670000016689,-3.29300003052,-5.25799981952,0.252500005067,0.129999998956,0.089999999851,-1.0
25,29.8327805641,3001.5,1518245064.0,279101916.5,,1944716.5,1518245064.0,279101916.5,,0.728045998554,-0.271296134895,0.047776624157,-0.0631000452459,0.997797983794,-0.0153227211012,-0.0135186672392,-0.000637692214655,0.0138441882118,-0.00094949409381,-0.00187827670295,0.00280644432425,0.0174239106318,3.4447593689,1.28876549005,1.84790498019,-0.0079014338553,1.42901295423,0.206426493823,768950.5,1518245064.0,283000064.0,,,,,,87724.5,1518245064.0,285320813.5,,-0.0130000002685,-1.88800002932,-5.21299998164,0.234499998391,0.109000001103,0.0419999994338,-1.0
26,29.9353446667,3012.5,1518245064.0,389093683.5,,1944727.5,1518245064.0,389093683.5,,0.727859519657,-0.271357655212,0.0475510539444,-0.0631134011108,0.997796148366,-0.0153449681584,-0.0135666417324,-0.0023453826276,-0.00382115373157,-0.00431937917516,-0.00163798736192,0.00678939361205,-0.0012115882568,3.49883079529,1.2557271719,1.82675182819,0.0269339829683,1.43728017807,0.211156591773,1357014.0,1518245064.0,390592511.5,,,,,,87735.5,1518245064.0,394619707.5,,1.13200000301,-3.94800006152,-4.71299998164,0.248000003398,0.107999999076,0.0875000022352,-1.0
27,30.0379087692,3021.5,1518245064.0,479099119.5,,1944736.5,1518245064.0,479099119.5,,0.728214965449,-0.270395518788,0.0480204266641,-0.0631662120077,0.997802796662,-0.0150180714526,-0.0131884300425,-0.00171475242184,0.00851318591196,0.00279426641114,0.00271700573323,0.003348976843,0.00857710616772,3.20495402812,1.26248782873,1.88965076208,0.0539779439569,1.35949468613,0.204434789718,768958.5,1518245064.0,485499904.0,,,,,,87744.5,1518245064.0,484470626.0,,0.871999997645,-4.29800002575,-4.68300001025,0.267499998211,0.107500001789,0.0795000009239,-1.0
28,30.1404728718,3031.5,1518245064.0,579092180.5,,1944746.5,1518245064.0,579092180.5,,0.72783520812,-0.270532576605,0.047643889303,-0.0628759847085,0.997824237431,-0.0144118751349,-0.0136248085215,-0.0104261328354,0.019755506557,-0.00869124248919,0.0141650999507,0.0104915589303,0.0365262841176,2.53818428516,1.23180258274,1.65305173397,0.0219447538257,1.07864427567,0.200481377542,1357027.0,1518245064.0,581590249.5,,,,,,87754.5,1518245064.0,583487438.5,,1.79199999943,-4.32300006151,-5.18800000548,0.291500002146,0.109500002116,0.0670000016689,-1.0
29,30.2430369744,3042.5,1518245064.0,689087741.5,,1944757.5,1518245064.0,689087741.5,,0.72779401048,-0.27087872719,0.0476796814895,-0.0623134604311,0.997858201596,-0.0144600172502,-0.0136654949039,-0.00188769629881,-0.0252750104388,0.000514693874205,-0.0161709654027,0.00826966829328,-0.0357515071384,2.59348082542,1.13286644221,1.78143638373,0.0980942659078,1.12109667063,0.189400911331,1357034.5,1518245064.0,687079596.0,,,,,,87765.5,1518245064.0,694769167.5,,-0.0580000020563,-4.36300008297,-5.26299993396,0.307999998331,0.0830000005662,0.0610000006855,-1.0
30,30.3456010769,3052.5,1518245064.0,789100236.0,,1944767.5,1518245064.0,789100236.0,,0.728202548322,-0.270520925433,0.0479300477081,-0.062493642383,0.99785306181,-0.0144467825271,-0.0132297046393,-0.00888760626489,-0.00260448936363,-0.0115647018164,-0.00264909573105,0.0142062560709,0.00621908960013,2.63196516037,1.30557310581,1.75425195694,0.037929248065,1.14151400328,0.194781050086,768970.5,1518245064.0,789499904.0,,,,,,87775.5,1518245064.0,793779828.5,,0.917000014333,-2.98800002337,-5.57300011516,0.298499986529,0.0854999981821,0.0555000007152,-1.0
31,30.4481651795,3063.5,1518245064.0,899092827.0,,1944778.5,1518245064.0,899092827.0,,0.728237857961,-0.270573186055,0.0480415076487,-0.0627627759363,0.997833221888,-0.0146797909503,-0.0131939604498,-0.0120175792707,-0.00121211817585,-0.00319300793883,-0.00680959461047,0.019140741527,0.00735097261643,2.21697163581,1.17935615778,1.72460860014,0.135417263955,0.97848328948,0.222980707884,768975.0,1518245064.0,895000064.0,,,,,,87786.5,1518245064.0,905193670.5,,0.576999988407,-2.49800001383,-5.07299999595,0.295000001788,0.105500001461,0.0329999998212,-1.0
32,30.5507292821,3070.5,1518245064.0,969088888.0,,1944785.5,1518245064.0,969088888.0,,0.728050354417,-0.270767665042,0.0479262230944,-0.0625720503942,0.997846324928,-0.014486623052,-0.0133223850321,0.00151665484715,-0.00666640902062,0.00611210993732,-0.0092474126142,-0.00329894320625,-0.0113481404783,2.36094307899,1.11672991514,1.8685439229,0.167557261884,1.03222692013,0.222233697772,768977.5,1518245064.0,965499904.0,,,,,,87793.5,1518245064.0,974553575.0,,-0.51800000295,-3.14800001979,-5.34300009608,0.284000009298,0.115499999374,0.0425000004471,-1.0
33,30.6532933846,3084.5,1518245065.0,109089736.5,,1944799.5,1518245065.0,109089736.5,,0.727747323647,-0.270660226985,0.0478246452535,-0.0625394226234,0.997840469446,-0.0147153747617,-0.0136318016355,-0.00463807412941,-0.00291739311782,0.00188588970303,-0.00497808885353,0.0127882460147,-0.0153976407759,2.42074632645,1.1204829216,1.77587985992,0.152689754963,1.05090004206,0.215904787183,768983.0,1518245065.0,97999872.0,,,,,,87807.5,1518245065.0,114597069.0,,-0.952999975534,-2.84300001264,-5.29800001979,0.284500002861,0.113000001759,0.0520000010729,-1.0
34,30.7558574872,3094.5,1518245065.0,209089209.0,,1944809.5,1518245065.0,209089209.0,,0.728180100545,-0.271164734244,0.0478595479464,-0.0620961658178,0.997875714876,-0.0146474547212,-0.013172501984,0.0031942590375,0.00336928066626,0.00327222840095,-0.00278983356018,-0.00261954806505,0.013356198812,2.40222096444,1.22968310118,1.88527113199,0.146980315447,1.06717050076,0.219987049699,768987.0,1518245065.0,199000064.0,,,,,,87817.5,1518245065.0,215603582.5,,-0.768000032755,-2.6030000329,-5.59300009608,0.292999997735,0.107999999076,0.0559999998659,-1.0
35,30.8584215897,3104.5,1518245065.0,309091898.5,,1944819.5,1518245065.0,309091898.5,,0.728288995831,-0.270232893379,0.0479054813299,-0.0626349912925,0.997849489865,-0.0141483975597,-0.0131514468039,-0.0026418550467,0.0109659422998,-0.00341742268779,0.0146695942171,0.00643568856475,0.00857973160173,2.50654411316,1.05213218928,1.87797415256,0.239076018334,1.09770548344,0.233816243708,768991.0,1518245065.0,300999936.0,,,,,,87827.5,1518245065.0,314528318.5,,-0.848000016061,-2.96800004244,-5.51300017237,0.305999994278,0.116499997676,0.0630000010133,-1.0
36,30.9609856923,3115.5,1518245065.0,419093194.5,,1944830.5,1518245065.0,419093194.5,,0.727910126338,-0.269862055501,0.0480535234689,-0.062720679296,0.997841649619,-0.0140437819047,-0.0134463883727,-0.00792653103961,0.012405353779,-0.00164359094368,0.00671752649898,0.00984097505709,0.0122567617002,2.40749597549,1.12049156427,1.86729323864,0.159457288682,1.0614323616,0.213081851602,1357085.5,1518245065.0,412577512.0,,,,,,87838.5,1518245065.0,424778349.5,,-0.177999999374,-2.36300002337,-5.32299987674,0.287499994039,0.11400000006,0.0675000026822,-1.0
37,31.0635497949,3125.5,1518245065.0,519088877.0,,1944840.5,1518245065.0,519088877.0,,0.728384076246,-0.270308051298,0.0482714914721,-0.062013317635,0.997891234224,-0.0141495924374,-0.0129277165698,0.0139707797078,0.00987152613806,0.00524329935322,0.00733300647694,-0.0348681928906,0.0214391296336,2.20259571075,1.03331044316,1.95090055466,0.259179905057,0.986693739889,0.228630304337,1357092.5,1518245065.0,512569961.0,,,,,,87848.5,1518245065.0,525754407.0,,-0.227999996394,-2.95300005674,-5.19800011516,0.303499996662,0.112999998033,0.0625000018627,-1.0
38,31.1661138974,3134.5,1518245065.0,609090230.0,,1944849.5,1518245065.0,609090230.0,,0.727966276023,-0.27025707953,0.0479744435442,-0.0623584798145,0.997865689734,-0.0138638398713,-0.0135302046271,0.00367559449617,-0.0128078964119,0.00417684701479,-0.0113874878683,-0.00460283091635,-0.0165778028427,2.2918305397,1.02798804641,1.95116758347,0.29970369488,1.02601474523,0.250105142594,769003.0,1518245065.0,603000064.0,,,,,,87857.5,1518245065.0,616459522.5,,0.227000001818,-2.9780000329,-5.42300001979,0.303499996662,0.118999999017,0.0490000005811,-1.0
39,31.268678,3145.5,1518245065.0,719093007.0,,1944860.5,1518245065.0,719093007.0,,0.727983361659,-0.269996083213,0.0481762176725,-0.0625946332639,0.997849888869,-0.0141657400842,-0.0132953114829,-0.00167384414492,-0.0133359382083,-7.1098677795e-05,-0.0132535908332,0.00354761054925,-0.0130224244472,1.94271403551,0.895751357079,2.05190169812,0.410290136934,0.899929851294,0.27380207181,1357106.5,1518245065.0,713074110.0,,,,,,87868.5,1518245065.0,725546855.0,,-0.432999994606,-2.03300002515,-4.94300000071,0.292500004172,0.0975000001489,0.0625000018627,-1.0
