,Unnamed: 0,.header.seq,.header.stamp.secs,.header.stamp.nsecs,.header.frame_id,.endpoint_state.header.seq,.endpoint_state.header.stamp.secs,.endpoint_state.header.stamp.nsecs,.endpoint_state.header.frame_id,.endpoint_state.pose.position.x,.endpoint_state.pose.position.y,.endpoint_state.pose.position.z,.endpoint_state.pose.orientation.x,.endpoint_state.pose.orientation.y,.endpoint_state.pose.orientation.z,.endpoint_state.pose.orientation.w,.endpoint_state.twist.linear.x,.endpoint_state.twist.linear.y,.endpoint_state.twist.linear.z,.endpoint_state.twist.angular.x,.endpoint_state.twist.angular.y,.endpoint_state.twist.angular.z,.endpoint_state.wrench.force.x,.endpoint_state.wrench.force.y,.endpoint_state.wrench.force.z,.endpoint_state.wrench.torque.x,.endpoint_state.wrench.torque.y,.endpoint_state.wrench.torque.z,.joint_state.header.seq,.joint_state.header.stamp.secs,.joint_state.header.stamp.nsecs,.joint_state.header.frame_id,.joint_state.name,.joint_state.position,.joint_state.velocity,.joint_state.effort,.wrench_stamped.header.seq,.wrench_stamped.header.stamp.secs,.wrench_stamped.header.stamp.nsecs,.wrench_stamped.header.frame_id,.wrench_stamped.wrench.force.x,.wrench_stamped.wrench.force.y,.wrench_stamped.wrench.force.z,.wrench_stamped.wrench.torque.x,.wrench_stamped.wrench.torque.y,.wrench_stamped.wrench.torque.z,.tag
0,83.040041,8319.5,1518246554.0,579571554.0,,2093746.5,1518246554.0,579571554.0,,0.761131706614,-0.292684126662,0.126799449721,-0.0247169375426,0.999554330435,0.00348733239758,0.0163685317451,-0.0140687099229,-0.00930232277112,-0.014874067147,-0.025423184334,0.0243191930481,0.00330228581354,1.24635100365,1.12585532665,5.23079872131,-0.258350402117,0.718265175819,0.257061362267,1460997.5,1518246554.0,580828286.0,,,,,,236583.5,1518246554.0,582334289.0,,1.22600000631,0.768000078202,0.324999985099,0.00249999994412,-0.00900000007823,0.0439999997616,3.0
1,83.1426051026,8327.5,1518246554.0,659581172.0,,2093754.5,1518246554.0,659581172.0,,0.759481636755,-0.292222061265,0.124138841975,-0.0262082634675,0.999537953772,0.00292360664065,0.0151144587594,-0.00803740651276,0.0151276819058,-0.0226021624182,-0.0241224964369,-0.00215530703425,0.0645147110578,1.57552897931,1.91213059425,5.00852894783,-0.773584216833,0.79540270567,0.140685427934,2094098.0,1518246554.0,642652569.0,,,,,,236591.5,1518246554.0,662279915.0,,0.646000000648,1.02300001383,-0.0650000005959,-0.00799999968151,0.0034999996424,0.0690000019967,3.0
2,83.2451692051,8340.5,1518246554.0,789569050.5,,2093767.5,1518246554.0,789569050.5,,0.754658654775,-0.291480299675,0.120168269244,-0.029909114402,0.999497770975,-0.000844503235306,0.0104265939432,-0.0512299082334,-0.00686349088634,-0.0346908354955,-0.0777854737386,0.105803689448,0.0103117267255,2.41020065546,1.67628800869,5.67641568184,-0.515191927552,1.14309701324,0.174244783819,1461012.5,1518246554.0,791812667.0,,,,,,236604.5,1518246554.0,792201325.5,,0.995999998411,1.07800008058,0.660000053048,-0.00800000014714,-0.0159999998286,0.0410000011324,3.0
3,83.3477333077,8349.5,1518246554.0,879578870.5,,2093776.5,1518246554.0,879578870.5,,0.752630667523,-0.290477464876,0.117413419094,-0.0319091837713,0.999443939959,-0.00284062528067,0.00923260244995,-0.0204091915949,0.0212565380675,-0.0382825668327,-0.0352266251595,0.0258729428729,0.0613317120341,2.44187510013,1.32599723339,5.12747955323,-0.226803675294,1.13153293729,0.208971172571,1461018.5,1518246554.0,879818878.5,,,,,,236613.5,1518246554.0,882984166.5,,-0.388999992051,0.663000059128,0.319999989867,0.0,0.0069999998086,0.0534999985248,3.0
4,83.4502974103,8361.5,1518246554.5,499572177.5,,2093788.5,1518246554.5,499572177.5,,0.749050553121,-0.286205183827,0.11273424679,-0.0369113326899,0.999291901182,-0.0039407023153,0.0061318326976,-0.0310674278787,0.0150008926606,-0.048399043255,-0.0340161790748,0.0587054586536,0.0619886324958,2.47618573904,1.01082354784,4.95874762535,-0.0805802680552,1.12240704894,0.248303100467,827920.0,1518246554.0,993999872.0,,,,,,236625.5,1518246554.5,502426063.5,,1.60099995788,0.933000040053,-0.0999999970196,0.00849999999627,0.0145000005141,0.0499999988824,3.0
5,83.5528615128,8371.5,1518246555.0,94572756.0,,2093798.0,1518246555.0,94572756.0,,0.746036506459,-0.283685138261,0.108452564221,-0.0392466481923,0.99920857079,-0.00558810497334,0.00325400866421,-0.0329634154362,0.0271382826999,-0.0560112276503,-0.0235652620135,0.0601422612962,0.0403825416409,3.6943873167,0.873040258884,4.55477714538,0.0415761545301,1.55910694599,0.265359967947,827924.0,1518246555.0,95000064.0,,,,,,236635.5,1518246555.0,103988423.0,,1.80599997099,1.2380000472,-0.260000000894,0.020499999635,0.0115000000224,0.0355000011623,3.0
6,83.6554256154,8381.5,1518246555.0,199577189.5,,2093808.5,1518246555.0,199577189.5,,0.742537799739,-0.280249878335,0.102742951389,-0.0433096897209,0.999044261697,-0.0058618722874,-0.000112166775281,-0.0232962829076,0.0323899209949,-0.0525039981685,0.00869627452502,0.0525294287658,0.0593978604149,3.53594589234,0.950083196163,4.80561614037,-0.106206703931,1.46654570103,0.252921715379,827928.0,1518246555.0,196000000.0,,,,,,236645.5,1518246555.0,203499501.5,,-0.233999990858,0.748000037673,-0.110000009835,0.0224999999627,0.020499999635,0.0314999995754,3.0
7,83.7579897179,8390.5,1518246555.0,289578230.5,,2093817.5,1518246555.0,289578230.5,,0.739606614367,-0.276480208876,0.0987527442423,-0.0474447262333,0.998851251624,-0.00585295273394,-0.0031592078783,-0.0423296806138,0.0171922667096,-0.0405527649574,-0.0287085445603,0.102940716844,0.040908150007,1.60577431321,0.956123799084,5.13660430908,-0.155422069133,0.834065169098,0.240224987269,1461047.0,1518246555.0,289831946.0,,,,,,236654.5,1518246555.0,293950181.5,,0.545999995432,1.31800003051,-0.290000002087,0.00949999981095,0.0290000000969,0.00500000035392,3.0
8,83.8605538205,8398.5,1518246555.0,369571821.0,,2093825.5,1518246555.0,369571821.0,,0.735744508313,-0.275922401659,0.0947112128394,-0.0480215855059,0.998792413972,-0.00726143658346,-0.007401941186,-0.0501577206646,0.0027219632775,-0.046751979433,-0.0438073520143,0.117703465676,0.0238291752426,2.43442517519,0.727842688561,4.82802128791,0.0647806040945,1.03160449862,0.290521398187,827934.5,1518246555.0,365500032.0,,,,,,236662.5,1518246555.0,374410993.0,,-0.579000019468,-0.0970000505446,-0.175,0.036000000313,-0.0339999990538,0.0129999998025,3.0
9,83.9631179231,8412.5,1518246555.0,509576752.5,,2093839.5,1518246555.0,509576752.5,,0.732198356345,-0.272860667587,0.0884597161923,-0.0518591021534,0.998571555112,-0.00717928027515,-0.0106727320745,-0.00186232363061,0.0258085007987,-0.0355962509863,0.0244938225272,-0.0184516809017,0.0398463134217,3.18961691857,0.911038666963,4.96913719178,-0.0980607420206,1.24365270138,0.254910416901,827940.0,1518246555.0,499000064.0,,,,,,236676.5,1518246555.0,514822431.0,,-0.11399998609,-0.451999950409,0.354999986291,0.0355000002309,0.00150000001304,0.00650000013411,3.0
10,84.0656820256,8422.5,1518246555.0,609574406.5,,2093849.5,1518246555.0,609574406.5,,0.73125375154,-0.271888761594,0.0851641466152,-0.0540302475095,0.998441535013,-0.00812381237391,-0.0113565675312,-0.0350475930579,-0.0106093170104,-0.0363071436774,-0.0565928090543,0.0738488449659,0.0446304921599,2.49313557148,1.09958899021,4.45501327514,-0.134788773954,1.07536309958,0.221622206271,827944.0,1518246555.0,600999936.0,,,,,,236686.5,1518246555.0,614222854.5,,-1.50400003139,-0.107000041008,0.104999986291,0.0119999996386,0.00500000023748,0.0105000005569,3.0
11,84.1682461282,8432.5,1518246555.0,709575788.5,,2093859.5,1518246555.0,709575788.5,,0.729583304274,-0.271730424431,0.0820498832612,-0.0537983652549,0.998430970255,-0.008378966566,-0.0130688883751,-0.0233824341522,-0.0127884174902,-0.0254842583354,-0.0052737210046,0.0558962773025,-0.0138365858134,2.99175989628,1.35701656341,4.35688209534,-0.36954370141,1.30837363004,0.185249105096,827948.0,1518246555.0,702000128.0,,,,,,236696.5,1518246555.0,714377544.5,,0.715999997221,0.938000035286,0.594999995827,0.0164999999106,0.020499999635,0.00600000005215,3.0
12,84.2708102308,8442.5,1518246555.0,809566314.5,,2093869.5,1518246555.0,809566314.5,,0.728939037708,-0.270979191337,0.0786710136448,-0.0554626634805,0.998329231786,-0.00901533314871,-0.0134649436588,0.0034855425727,0.0443640746771,-0.0334391713695,0.0254832284429,-0.0140577230227,0.0762175864722,4.14714574814,1.3521669507,4.24760270119,-0.287013620138,1.80169183016,0.187318712473,827952.0,1518246555.0,803000064.0,,,,,,236706.5,1518246555.0,813275159.5,,0.560999981127,0.0030000925065,0.384999987483,0.0224999999627,0.00949999969453,-0.00200000009499,3.0
13,84.3733743333,8453.5,1518246555.0,919573823.5,,2093880.5,1518246555.0,919573823.5,,0.728314144938,-0.269679832209,0.074514280211,-0.0575519897384,0.998211092419,-0.00847960681885,-0.0137944728929,-0.00477355239179,-0.0131016793435,-0.0370961112102,-0.0227952439787,0.00368421244757,0.0262305091109,3.94616436959,1.25822615624,4.26382565499,-0.348940849304,1.69687730074,0.158457875252,1461091.0,1518246555.0,913314494.0,,,,,,236717.5,1518246555.0,924612822.5,,0.361000003293,0.303000044824,-0.624999999255,0.0335000008345,-0.0380000006408,0.00249999994412,3.0
14,84.4759384359,8463.5,1518246556.0,19571220.0,,2093890.5,1518246556.0,19571220.0,,0.726663764345,-0.269353074147,0.0705921658782,-0.0570935648717,0.998215594716,-0.00775208747992,-0.0156787500245,-0.0358626378611,-0.00561732701398,-0.0459380873899,0.026579172964,0.0911064894592,-0.0652636330122,2.3439296484,1.32463783026,3.3234821558,-0.260367915034,0.906259298324,0.166731506586,1461098.0,1518246556.0,13811902.5,,,,,,236727.5,1518246556.0,23429561.0,,0.160999990068,-1.31699995994,-0.269999995083,0.0264999996871,-0.0280000008642,0.0410000011325,3.0
15,84.5785025385,8473.5,1518246556.0,119571723.5,,2093900.5,1518246556.0,119571723.5,,0.725365326084,-0.267448691497,0.0661883841797,-0.0569453121791,0.998212776802,-0.00690355329814,-0.0167574154738,-0.0212069968395,0.0151059487244,-0.050468863681,0.00843856753676,0.0369092856134,0.0298999768633,3.45722877979,1.61018836498,4.94642949104,-0.54314416647,1.41478979587,0.160509221255,1461105.0,1518246556.0,114829751.0,,,,,,236737.5,1518246556.0,124103669.5,,-0.0840000146999,-0.837000060083,-0.724999993296,0.0314999995753,0.0130000002682,0.0279999990016,3.0
16,84.681066641,8484.5,1518246556.0,229568497.0,,2093911.5,1518246556.0,229568497.0,,0.724701664707,-0.267121552955,0.0623674349973,-0.0591685201294,0.998070446783,-0.00747951158487,-0.0172684518055,0.00480198576805,0.0183613642558,-0.0423173363211,0.0113656466555,-0.0288047330316,0.0604575512523,4.73648262023,1.28023791313,4.73768019676,-0.293258100748,2.14856600761,0.176195167005,2094256.5,1518246556.0,227664401.5,,,,,,236748.5,1518246556.0,233463314.0,,0.735999996774,-2.45199995041,0.479999986291,0.00649999966843,0.0185000009369,0.00099999969825,3.0
17,84.7836307436,8492.5,1518246556.0,309587474.5,,2093919.5,1518246556.0,309587474.5,,0.724815761327,-0.265886935517,0.05954609569,-0.0599320190705,0.99803429193,-0.00696419811872,-0.0169383351801,0.0005121670259,0.019185591175,-0.0400377160316,0.0103686881386,-0.0154388993298,0.0305753735612,5.65235233307,1.3746407628,4.24113368988,-0.494880929589,2.4455909729,0.0985771641133,827972.0,1518246556.0,308000000.0,,,,,,236756.5,1518246556.0,313879960.5,,0.256000003777,-0.387000012398,-0.294999997318,0.0394999999553,0.00450000003911,-0.00450000015553,3.0
18,84.8861948462,8500.5,1518246556.0,389573768.0,,2093927.5,1518246556.0,389573768.0,,0.724111336781,-0.265124694604,0.0568345396244,-0.0601358105031,0.998011507218,-0.00639074563609,-0.0177657976335,-0.00334034487,-0.0125746889562,-0.0452594819769,-0.0155536998228,0.00220024518856,0.00328770111625,4.24957561493,1.08525925875,3.95015776158,-0.260418668389,1.85587483644,0.175336204469,1461123.5,1518246556.0,389809703.0,,,,,,236764.5,1518246556.0,394299447.0,,-0.219000005163,-1.66199998855,0.115000021457,0.00150000001304,0.0410000011324,0.0235000001266,3.0
19,84.9887589487,8513.5,1518246556.0,519566073.0,,2093940.5,1518246556.0,519566073.0,,0.72481369877,-0.265604283291,0.0525885244525,-0.0595627240573,0.998052929513,-0.00681895997498,-0.0172035425867,-0.00339113400471,-0.0218581082497,-0.0446332429926,-0.00321044005575,0.0186323014673,-0.0919510665734,2.82344317436,0.981949537995,3.84683835507,-0.211386159062,1.08445870876,0.169166430831,1461133.0,1518246556.0,516815622.0,,,,,,236777.5,1518246556.0,523814399.0,,0.635999993421,1.05800004005,-0.259999993443,0.00450000003911,0.0160000002943,0.0310000004247,3.0
20,85.0913230513,8521.5,1518246556.0,599573838.5,,2093948.5,1518246556.0,599573838.5,,0.724799171726,-0.266647098478,0.05033463127,-0.0584078212427,0.998110981091,-0.0072338167594,-0.0176242020109,-0.0256526076165,-0.0337875765358,-0.01734354163,-0.0534266342261,0.0702191713123,-0.0190971501467,2.24414932728,1.00825789571,2.94077730179,-0.18132198602,0.875542819499,0.195923760533,827983.0,1518246556.0,599000064.0,,,,,,236785.5,1518246556.0,604112484.0,,0.131000003778,-1.03699998856,-4.43500003517,0.243499994278,0.148000001907,0.0989999994634,1.0
21,85.1938871538,8535.5,1518246556.0,739570344.0,,2093962.5,1518246556.0,739570344.0,,0.724808798007,-0.267647752661,0.0504391112689,-0.0583002651677,0.998112410937,-0.0080063578131,-0.017554776409,0.00813640692314,0.0104704124516,0.00444307813595,0.0112085496934,-0.023314609423,-0.0100822111476,3.89451611042,1.55169445277,1.67000108958,-0.35053832829,1.52117586136,0.199584804476,1461148.0,1518246556.0,741819999.0,,,,,,236799.5,1518246556.0,744093962.5,,0.260999984108,0.628000092507,-1.09999999702,0.0545000005514,0.0720000006259,0.0494999997318,-1.0
22,85.2964512564,8542.5,1518246556.0,809568937.0,,2093969.5,1518246556.0,809568937.0,,0.724621493827,-0.266992035357,0.0502272819736,-0.0585893212228,0.998091116981,-0.00796600453416,-0.0178211250913,-0.00120574755046,0.0107735858764,-0.00131769402881,-0.0008208659101,0.00082064814085,0.0208182166257,3.43782281875,1.39314627647,1.79413723946,-0.254334934056,1.21778273583,0.211622864008,827991.5,1518246556.0,808499968.0,,,,,,236806.5,1518246556.0,816078661.0,,-0.119000026025,1.18800003528,-4.0500000447,0.190999999643,0.177000001073,0.0475000012666,-1.0
23,85.399015359,8555.5,1518246556.0,939568350.5,,2093982.5,1518246556.0,939568350.5,,0.724916886223,-0.265148269513,0.0502159489778,-0.060175249506,0.998002793902,-0.00813778988175,-0.0174050727357,-0.00314155994758,-0.0123701585292,-0.00124754020306,-0.0190502612958,0.0039365050588,-0.00543127878843,3.49741947651,0.67414867878,1.93718355894,0.21347912401,1.31555348634,0.264343693853,2094327.5,1518246556.0,937639351.0,,,,,,236819.5,1518246556.0,945263412.5,,-0.899000012314,-0.286999869347,-3.43500003516,0.215000003577,0.167999997735,0.0714999996125,-1.0
24,85.5015794615,8562.5,1518246557.0,9579634.0,,2093989.5,1518246557.0,9579634.0,,0.724674453848,-0.265380241346,0.0502283574495,-0.0605037738902,0.997970666562,-0.00889119917203,-0.0177243223814,0.00169858709213,-0.0165795019016,-0.00121905702481,-0.0450102980775,-0.0104750720377,0.028043085346,3.91631543637,1.05919313431,1.912756145,-0.0195904374123,1.44013369083,0.219470627606,827999.5,1518246557.0,11500032.0,,,,,,236826.5,1518246557.0,15023998.5,,0.310999996029,-0.146999883651,-3.74499997795,0.255999989807,0.162999995053,0.067000001669,-1.0
25,85.6041435641,8575.5,1518246557.0,139581018.5,,2094002.5,1518246557.0,139581018.5,,0.725053004625,-0.26551189282,0.050220660432,-0.0610958839046,0.997939829131,-0.00923445028799,-0.0172645371278,0.00948903146449,0.00546240631009,0.00555928054564,0.0013333411575,-0.0168226608183,0.0159918939468,3.68378281594,1.09821867943,1.824637115,-0.0454768948257,1.36857908964,0.218819081783,2094347.5,1518246557.0,137671644.5,,,,,,236839.5,1518246557.0,146293779.5,,0.101000010036,0.063000035286,-4.06000003517,0.204999998212,0.139499999582,0.0724999979139,-1.0
26,85.7067076667,8582.5,1518246557.0,209578737.5,,2094009.5,1518246557.0,209578737.5,,0.72491246752,-0.265015626211,0.0502482336186,-0.061340103174,0.997924439554,-0.00907951341971,-0.0173702727675,-0.000725625581029,0.0117714191297,-0.000848859136185,0.011727659565,0.00206353821482,-0.00347627930287,3.27946662903,0.925474286079,1.94021713733,0.0624608956278,1.19447290897,0.243741579354,828007.5,1518246557.0,212000000.0,,,,,,236846.5,1518246557.0,216468228.0,,-0.869000040925,-0.776999998093,-4.12999996841,0.224500000477,0.134000003338,0.0760000012815,-1.0
27,85.8092717692,8595.5,1518246557.0,339575049.0,,2094022.5,1518246557.0,339575049.0,,0.725169190639,-0.265748921995,0.0502185382889,-0.0603609416885,0.997986876589,-0.00916858456853,-0.017163393689,0.0213449696078,-0.00558364479153,0.014483559728,0.00326752118928,-0.0448535144701,-0.0254140118242,3.31790888309,1.14534503221,1.92310988903,-0.0497892312704,1.2137375474,0.221933245659,2094367.5,1518246557.0,337647937.5,,,,,,236859.5,1518246557.0,346168117.5,,-0.183999978937,0.458000075817,-3.52999994457,0.189499996602,0.165000006557,0.0675000026822,-1.0
28,85.9118358718,8606.5,1518246557.0,449567237.0,,2094033.5,1518246557.0,449567237.0,,0.724682377661,-0.265882865843,0.0498667057879,-0.060001574663,0.998000080978,-0.00914887844208,-0.0176597139785,0.00122740701392,-0.00707548628998,-0.00257943921333,-0.00478041574948,-0.0047192034619,-0.00930348298716,3.52703523636,1.20036131144,1.95462286473,-0.0642838515342,1.29558724165,0.233820207417,1461197.5,1518246557.0,450848664.5,,,,,,236870.5,1518246557.0,455340228.5,,0.63099999819,-0.701999950409,-3.7849999398,0.218000002206,0.157500006258,0.0649999994785,-1.0
29,86.0143999744,8615.5,1518246557.0,539569106.0,,2094042.5,1518246557.0,539569106.0,,0.724935361282,-0.265320234539,0.05019644183,-0.060596750183,0.997970608959,-0.00895824193909,-0.0173856059381,-0.00511160896939,-0.0128424758611,0.00402012128552,-0.0066147837966,0.0157137969022,-0.0172988827196,3.3463947773,1.17482799292,1.9451007247,-0.04319601506,1.22865378857,0.230713769794,2094387.5,1518246557.0,537621345.5,,,,,,236879.5,1518246557.0,545552699.0,,0.800999999977,-0.276999998093,-3.98499998748,0.205499999225,0.163999997079,0.0565000008791,-1.0
30,86.1169640769,8626.5,1518246557.0,649574947.5,,2094053.5,1518246557.0,649574947.5,,0.724798011169,-0.265551260618,0.0501758617229,-0.0602794143895,0.997984696648,-0.00914634566946,-0.0175788972887,0.00203667665219,-0.0082731796729,0.00704495690227,-0.00767365305932,0.00231785512905,-0.00601683476407,3.10255587101,1.11374568939,2.02499341964,0.0178970973939,1.13445913791,0.229108884931,1461211.5,1518246557.0,650813123.0,,,,,,236890.5,1518246557.0,656337965.5,,1.04600000288,0.303000044823,-4.16500005424,0.199999995529,0.155000001192,0.0570000000298,-1.0
31,86.2195281795,8636.5,1518246557.0,749569815.0,,2094063.5,1518246557.0,749569815.0,,0.724326765656,-0.265131919722,0.0495925522812,-0.0603364981049,0.99797323007,-0.00922084574261,-0.0179917972954,-0.0124972132803,0.0214322491497,-0.00983384535073,0.00606087125799,0.0212974473944,0.0340291117218,3.55874490738,1.05891513824,2.01814591884,0.0322074405849,1.31179326773,0.241785623133,1461218.5,1518246557.0,751812073.5,,,,,,236900.5,1518246557.0,755322688.5,,-0.0240000197665,-0.111999917031,-4.35499999225,0.186999998987,0.16400000453,0.0705000013113,-1.0
32,86.3220922821,8648.5,1518246557.0,869566741.0,,2094075.5,1518246557.0,869566741.0,,0.72497120301,-0.265057841636,0.0501178621629,-0.0602069691664,0.997993621248,-0.00899594720354,-0.0174024781458,-0.0150320575733,0.011929064103,-0.00635520679864,0.00374923635333,0.0373282940411,0.0184954177936,3.19237601757,0.776075363159,2.11232113839,0.23664598167,1.19631528854,0.276353567839,828033.5,1518246557.0,871000064.0,,,,,,236912.5,1518246557.0,874982511.0,,0.000999993644655,-0.816999959946,-3.71500000656,0.199500001967,0.153999999166,0.0954999998212,-1.0
33,86.4246563846,8654.5,1518246557.0,929574209.0,,2094081.5,1518246557.0,929574209.0,,0.724824655764,-0.265801200765,0.0499812966326,-0.0598381103418,0.99801123882,-0.00917003126288,-0.0175716313378,-0.0099736545444,-0.00926958672107,-0.0119465333692,0.00982205024997,0.0227332774734,-0.0290851827348,3.15313303471,0.769693076611,2.09760129452,0.210432127118,1.16716128587,0.263518378138,1461231.5,1518246557.0,930835140.0,,,,,,236918.5,1518246557.0,934775483.5,,0.690999998711,-0.601999926567,-3.62499997318,0.196500003338,0.153999999166,0.0694999992848,-1.0
34,86.5272204872,8668.5,1518246558.0,69677102.5,,2094095.5,1518246558.0,69677102.5,,0.725218567429,-0.265798734297,0.0503839691249,-0.0598170014608,0.998020082663,-0.00928319418365,-0.0170779532591,0.00296259983782,-0.0077877296784,-0.00131415876493,0.00766149660912,-0.00801247865884,-0.0197534092818,3.07825303078,0.717435777187,2.15437436104,0.287591665983,1.13710832596,0.288718998432,1461241.0,1518246558.0,68873851.5,,,,,,236932.5,1518246558.0,75025093.5,,-0.654000007547,-0.0419999837875,-3.6900000304,0.182999998331,0.152999997139,0.0755000002682,-1.0
35,86.6297845897,8677.5,1518246558.0,159659474.0,,2094104.5,1518246558.0,159659474.0,,0.725033460165,-0.265083658775,0.0502628122012,-0.0601684603166,0.998000709293,-0.00896429692122,-0.0171414937923,0.00666650976811,0.0155505997328,0.00292958385103,0.0110514931731,-0.0122761748548,0.0100684901159,3.21082854271,0.776787042617,2.04945099354,0.19940572232,1.19236367941,0.258229374886,1461246.5,1518246558.0,154375669.0,,,,,,236941.5,1518246558.0,165640235.5,,-2.33900006953,2.51800004095,-3.33000001609,0.173000000417,0.172499999404,0.0499999988824,-1.0
36,86.7323486923,8688.5,1518246558.0,269657294.5,,2094115.5,1518246558.0,269657294.5,,0.724780272547,-0.265545029223,0.0499806621924,-0.0601909388473,0.997989517732,-0.0092232686844,-0.0175752225141,-0.00215541833353,-0.00656539821573,-0.00047019492806,-4.75001551e-05,0.00683676617574,-0.0160116574027,2.76077020169,0.330187290907,2.20111179352,0.496638208628,1.00846192241,0.306302428246,1461255.0,1518246558.0,269873533.5,,,,,,236952.5,1518246558.0,276878386.5,,-1.23399999086,0.458000016212,-3.6449999541,0.186000004411,0.157000005246,0.074500001967,-1.0
37,86.8349127949,8699.5,1518246558.0,379656279.0,,2094126.5,1518246558.0,379656279.0,,0.7249893046,-0.265543805091,0.0501623849123,-0.0604720355229,0.99797685456,-0.00936583490732,-0.0172404291411,-0.00266381785583,0.00604843975537,-0.00500154134257,-0.00470015190711,0.00871387619102,0.0150874473123,2.88329803944,0.258336521686,2.23583722115,0.533577978611,1.07112663985,0.309639826417,1461262.5,1518246558.0,379372023.0,,,,,,236963.5,1518246558.0,387630000.0,,0.445999993943,-0.806999969483,-4.22499999702,0.190999999642,0.146000005305,0.0550000015646,-1.0
38,86.9374768974,8709.5,1518246558.0,479659936.5,,2094136.5,1518246558.0,479659936.5,,0.724724286388,-0.265884555201,0.0499843558889,-0.0600403528913,0.997996277426,-0.00932369787214,-0.0176534759928,-0.0007942968325,-0.00528496212308,0.0028239738881,0.010020547411,0.00293334386999,-0.0341669965728,2.97936558723,0.442378714681,2.07378041745,0.429128795862,1.08884930611,0.289468988776,1461269.5,1518246558.0,479859882.5,,,,,,236973.5,1518246558.0,486643847.0,,0.27600000333,0.333000016213,-4.09000000655,0.190500006079,0.150499999523,0.0580000001937,-1.0
39,87.040041,8717.5,1518246558.0,559659188.0,,2094144.5,1518246558.0,559659188.0,,0.725084634625,-0.266017720959,0.050160709757,-0.0595414651946,0.998038062791,-0.00901209616054,-0.017132693878,0.00815329984576,-0.00637148235759,0.00537102868117,-0.000667901727245,-0.0149512389507,-0.00708194017825,3.01986169815,0.271510571242,2.23414301872,0.553569763898,1.13102996349,0.327276706695,1461274.5,1518246558.0,556874774.0,,,,,,236981.5,1518246558.0,567085417.5,,-0.878999971783,0.338000130653,-3.59500000179,0.167000003159,0.164999999106,0.0685000009835,-1.0
