,Unnamed: 0,.header.seq,.header.stamp.secs,.header.stamp.nsecs,.header.frame_id,.endpoint_state.header.seq,.endpoint_state.header.stamp.secs,.endpoint_state.header.stamp.nsecs,.endpoint_state.header.frame_id,.endpoint_state.pose.position.x,.endpoint_state.pose.position.y,.endpoint_state.pose.position.z,.endpoint_state.pose.orientation.x,.endpoint_state.pose.orientation.y,.endpoint_state.pose.orientation.z,.endpoint_state.pose.orientation.w,.endpoint_state.twist.linear.x,.endpoint_state.twist.linear.y,.endpoint_state.twist.linear.z,.endpoint_state.twist.angular.x,.endpoint_state.twist.angular.y,.endpoint_state.twist.angular.z,.endpoint_state.wrench.force.x,.endpoint_state.wrench.force.y,.endpoint_state.wrench.force.z,.endpoint_state.wrench.torque.x,.endpoint_state.wrench.torque.y,.endpoint_state.wrench.torque.z,.joint_state.header.seq,.joint_state.header.stamp.secs,.joint_state.header.stamp.nsecs,.joint_state.header.frame_id,.joint_state.name,.joint_state.position,.joint_state.velocity,.joint_state.effort,.wrench_stamped.header.seq,.wrench_stamped.header.stamp.secs,.wrench_stamped.header.stamp.nsecs,.wrench_stamped.header.frame_id,.wrench_stamped.wrench.force.x,.wrench_stamped.wrench.force.y,.wrench_stamped.wrench.force.z,.wrench_stamped.wrench.torque.x,.wrench_stamped.wrench.torque.y,.wrench_stamped.wrench.torque.z,.tag
0,188.159477,18828.5,1518245586.0,719596248.5,,1996960.5,1518245586.0,719596248.5,,0.762410284081,-0.290932237796,0.126981059473,-0.0266977767113,0.99947902879,0.00320866003999,0.01784540065,-0.0084600723777,0.00878883658392,-0.0191497357951,-0.015016753573,0.00746171452544,0.0287708198144,2.57954967022,1.1494205594,4.18613028526,-0.220836348832,1.24406862259,0.282442599535,1997306.0,1518245586.0,722698608.0,,,,,,139905.5,1518245586.0,725444491.5,,0.564999988489,1.58199997246,-0.253000001982,0.00400000018999,-0.00799999991432,0.0230000000447,3.0
1,188.262041103,18838.5,1518245586.0,829596413.5,,1996971.5,1518245586.0,829596413.5,,0.75991296099,-0.29102290895,0.12330444623,-0.0292496411334,0.999446242401,0.00114345522439,0.0158220627799,-0.0237501764132,0.00192089249197,-0.0201513653656,-0.0815385671562,0.0419202135668,0.0961006426076,2.74989914894,1.41753405333,4.68398427963,-0.513686090708,1.24768972396,0.254510477186,1997316.0,1518245586.0,822671140.0,,,,,,139915.5,1518245586.0,826149348.5,,0.384999993444,1.34199999273,-0.0579999979585,0.0235000001267,-0.0235000001266,0.0289999991656,3.0
2,188.364605205,18849.5,1518245586.0,934624455.5,,1996982.0,1518245586.0,934624455.5,,0.756472719477,-0.291559351766,0.120218162701,-0.0337160645917,0.999342984967,-0.00458000440139,0.0124762727962,-0.029037026513,0.0045289146435,-0.034630428059,-0.0866394759467,0.0518619808369,0.0313141814968,3.94537758827,1.28692501783,4.30929636956,-0.170947030187,1.65632486343,0.186721794307,1393476.0,1518245586.0,929856897.0,,,,,,139926.5,1518245586.0,935122886.5,,1.4099999696,1.90199995227,-0.413000002131,0.0314999995753,-0.0205000003334,-0.00850000046195,3.0
3,188.467169308,18861.5,1518245587.0,49618046.5,,1996993.5,1518245587.0,49618046.5,,0.753742128111,-0.288770629319,0.114964486706,-0.036065656524,0.999280590127,-0.00579017318066,0.0101974761425,-0.0313163162783,0.0485631013779,-0.0534247708662,0.0169577836846,0.0631960139742,0.0641773153837,2.109921664,1.1926934123,4.27273440361,-0.0878002531826,1.02602475882,0.253210783005,789630.5,1518245587.0,51500032.0,,,,,,139938.5,1518245587.0,54659074.5,,0.159999984503,2.20699998737,0.677000023797,-0.0104999998584,-0.0134999998845,0.019999999553,3.0
4,188.56973341,18871.5,1518245587.0,149617476.5,,1997003.5,1518245587.0,149617476.5,,0.749681519154,-0.284022928581,0.109234259179,-0.0398239285714,0.999178485552,-0.00402590012883,0.00626253763901,-0.036270042801,0.0397165994603,-0.0574177347068,0.0234493370859,0.0736297153678,0.0647534646654,3.09354925156,1.33521729707,4.59693932533,-0.241359055042,1.36170625687,0.224210694432,1393491.5,1518245587.0,146855200.5,,,,,,139948.5,1518245587.0,155531306.5,,1.01499998867,1.3369999826,-0.0980000082404,0.0369999986142,-0.0374999996275,0.00099999998929,3.0
5,188.672297513,18880.5,1518245587.0,239623763.5,,1997012.5,1518245587.0,239623763.5,,0.745641551768,-0.280633117393,0.103871995426,-0.0415140338309,0.999127295547,-0.00411631048233,0.00201069240974,-0.0575064754849,0.0183561598059,-0.0761630911965,-0.0380726430848,0.111335655275,0.0363858994632,2.88727033139,1.11479258538,4.62550806999,-0.315564185381,1.18940600753,0.254278488458,789638.0,1518245587.0,240999936.0,,,,,,139957.5,1518245587.0,246076270.5,,0.734999983758,1.73199997842,0.517000012473,0.0070000003325,0.0099999997183,0.0134999998845,3.0
6,188.774861615,18890.5,1518245587.0,339616007.0,,1997023.0,1518245587.0,344619545.5,,0.740808425014,-0.278507386629,0.0972109553489,-0.0461719308746,0.998910487678,-0.00594286875808,-0.00318216880581,-0.0472319635291,0.0350631562097,-0.0587457085341,-0.037531259404,0.0988516458107,0.119943860906,3.18165493011,0.902303159235,4.89158940316,-0.108491044492,1.42365038395,0.222467653454,1393505.5,1518245587.0,347353262.0,,,,,,139968.0,1518245587.0,350391089.0,,1.54500000477,1.46699997783,0.261999987438,0.0075000001816,-0.0129999998025,0.00749999983236,3.0
7,188.877425718,18900.5,1518245587.0,444618056.0,,1997033.0,1518245587.0,444618056.0,,0.735735602821,-0.275513056382,0.0922822361172,-0.0501660029744,0.99868370936,-0.00617491765401,-0.00872302680201,-0.0477960195736,0.0427215520877,-0.0385358720368,0.0173659482043,0.105899938514,0.0651085925533,3.31310558319,0.966272294521,5.25356006622,-0.231225878,1.3276270628,0.22504362464,1997377.5,1518245587.0,437719279.5,,,,,,139977.5,1518245587.0,445231256.0,,1.35499997735,1.15199998021,0.346999995783,0.00150000001304,-0.0164999999106,0.0260000005365,3.0
8,188.979989821,18911.5,1518245587.0,554620781.0,,1997044.0,1518245587.0,554620781.0,,0.732428221973,-0.273595534239,0.0875339794307,-0.05281830425,0.998504263117,-0.00797806574673,-0.0116439751822,-0.013694794482,0.0054496446135,-0.0373789676343,-0.0287390904477,0.015382796199,0.0674463502053,4.49195957184,1.18551540375,4.91374945641,-0.302907869219,1.72844260932,0.17743036896,1997389.5,1518245587.0,557703806.5,,,,,,139988.5,1518245587.0,556384630.5,,1.23999999762,1.26699997671,0.161999978498,-0.000500000023745,0.00350000010803,-0.00150000007124,3.0
9,189.082553923,18921.5,1518245587.0,649619150.5,,1997054.0,1518245587.0,654620406.5,,0.7320269748,-0.273218294395,0.0836156395184,-0.0548058882288,0.998392324699,-0.00872013403955,-0.0115199068417,0.000813566712435,0.0233753772899,-0.0253839714347,0.0179972450496,-0.00383273065703,0.020259892072,3.18476861715,1.07314294577,4.50830197334,-0.198802880943,1.4126752466,0.182680942118,1997399.0,1518245587.0,652707164.0,,,,,,139998.5,1518245587.0,657330890.5,,1.06999999583,1.55199997872,0.277000002935,0.00699999951756,-0.0285000000149,0.0279999999329,3.0
10,189.185118026,18933.5,1518245587.0,774627065.0,,1997066.0,1518245587.0,774627065.0,,0.730349382351,-0.270405943437,0.0809460378639,-0.0559769764304,0.998311811623,-0.00881634314223,-0.012742722526,-0.0283292664783,-0.0318602516357,-0.0243412140411,-0.0736365243252,0.0524498546277,-0.0251887164624,2.91250395775,1.31466889381,4.30532121658,-0.415866047144,1.17524182796,0.184618040919,1997411.0,1518245587.0,772689547.0,,,,,,140010.5,1518245587.0,777527146.0,,-0.0799999952317,1.42699997873,-0.858000002427,0.0209999997169,-0.0164999999106,0.0189999998547,3.0
11,189.287682128,18942.5,1518245587.0,869621725.5,,1997075.5,1518245587.0,869621725.5,,0.729747925695,-0.271451185632,0.0780530490059,-0.0569645638331,0.99823946953,-0.0102051413911,-0.0129855958587,-0.0138953412567,0.00401269773445,-0.0278352065485,-0.0104335924037,0.0303763417159,0.0262675262695,4.49750423432,1.11420053243,4.66495132447,-0.122587502003,1.97587186098,0.166488140821,1997420.5,1518245587.0,867692193.0,,,,,,140019.5,1518245587.0,866164674.0,,0.709999985247,2.09699997305,0.241999991611,0.0310000004247,-0.0160000002943,0.00350000004982,3.0
12,189.390246231,18953.5,1518245587.0,974615448.0,,1997086.0,1518245587.0,974615448.0,,0.728796503157,-0.269695712468,0.0752346299595,-0.058576681895,0.998140791088,-0.00972969832408,-0.0137501445766,0.00691209757783,-0.010142729719,-0.0339027753695,-0.0275963059241,-0.0275858249844,0.00683871862451,6.19520425797,1.68588650227,4.32793331146,-0.505950987339,2.4960026741,0.126459375024,789667.0,1518245587.0,972999936.0,,,,,,140031.0,1518245587.0,981199745.0,,-0.200000029802,0.921999976039,0.496999986842,-0.0240000002086,0.0280000008643,0.0270000007004,3.0
13,189.492810333,18960.5,1518245588.0,39617647.5,,1997092.5,1518245588.0,39617647.5,,0.728274293523,-0.268662385438,0.0726821646028,-0.0599134141658,0.99806000761,-0.0094747383641,-0.0140203260536,0.00426652157443,0.0283680166189,-0.0324341263063,0.00886174104494,-0.0114483264872,0.0572336785414,4.24498534203,1.61489993334,4.17924261093,-0.452027380467,1.79654830695,0.163894481957,1393554.0,1518245588.0,38356580.5,,,,,,140037.5,1518245588.0,47163642.0,,1.48500000239,0.97699997388,0.431999989227,0.0365000013262,0.0,0.035000000149,3.0
14,189.595374436,18974.5,1518245588.0,179618279.0,,1997106.5,1518245588.0,179618279.0,,0.726851298312,-0.267637146968,0.0683248095684,-0.0598312992084,0.998052277916,-0.00893071105206,-0.0152321812924,-0.00438020658005,0.0220135884966,-0.032312261754,0.0110366612129,0.0158428363556,0.030057687126,3.68492841721,1.30721646547,4.5332069397,-0.379521563649,1.60385638475,0.187537372112,1997451.0,1518245588.0,172713063.0,,,,,,140051.5,1518245588.0,187390472.0,,-0.684999984502,1.84699997306,0.0969999957831,0.0260000005364,-0.00250000006054,0.00150000007124,3.0
15,189.697938538,18983.5,1518245588.0,269619164.5,,1997115.5,1518245588.0,269619164.5,,0.726340978339,-0.266525064503,0.0655661230181,-0.0616554272393,0.997935316308,-0.00927879155667,-0.0154106118602,-0.000681305253247,0.0123797517626,-0.0264522568437,0.0124929803563,0.00268389641202,0.0211399830742,4.56797289848,1.1354444027,4.58388400078,-0.163744337857,1.98130059242,0.182109899819,1393570.0,1518245588.0,274850544.5,,,,,,140060.5,1518245588.0,277690806.5,,1.25999997855,2.40699997545,-0.248000003025,0.0104999998584,-0.0069999998086,-0.0115000000223,3.0
16,189.800502641,18994.5,1518245588.0,379622075.0,,1997126.5,1518245588.0,379622075.0,,0.726713767887,-0.265234165991,0.0620841746288,-0.0627769661841,0.99788441541,-0.00857014047185,-0.0145638790452,-0.00019568822696,0.00182503860162,-0.0318445751279,-0.0214826958873,0.00086407657775,0.0277461172055,3.93431818486,1.41565895081,3.88506019115,-0.5622446239,1.54856497049,0.102407608181,789683.0,1518245588.0,377999872.0,,,,,,140071.5,1518245588.0,386728272.5,,0.980000007153,3.08699998259,-0.0130000036209,0.00799999991431,-0.0065000000759,0.0,3.0
17,189.903066744,19002.5,1518245588.0,464620548.0,,1997135.0,1518245588.0,464620548.0,,0.727474683239,-0.266611496839,0.0599656981107,-0.0618283546476,0.997945926724,-0.00990377947166,-0.013531335778,0.00368723690759,-0.00228680912735,-0.0277466712007,-0.0117126928915,-0.00528291291958,-0.0622979044614,1.89370465279,1.07184481621,3.88359117508,-0.32516503334,0.860463202,0.13722679019,1997480.0,1518245588.0,462687610.0,,,,,,140079.5,1518245588.0,467098448.5,,0.93999998942,1.73199996352,0.43700001426,0.00949999969455,-0.0169999991777,-0.0109999999404,3.0
18,190.005630846,19014.5,1518245588.0,579620995.0,,1997147.0,1518245588.0,584620720.0,,0.726369833173,-0.266294814602,0.054884495895,-0.0617883956387,0.997935476588,-0.00931217793108,-0.0148412288577,-0.0126959234587,-0.0106403896656,-0.0493568063982,0.00835817023292,0.0240068472112,-0.00363754050811,4.97708511353,0.877645432949,4.6010928154,-0.110309287906,2.23893880844,0.184549361467,789691.0,1518245588.0,580000000.0,,,,,,140091.5,1518245588.0,586591621.5,,0.399999986589,2.53199997544,-1.25799997858,0.0410000011325,0.00549999973736,-0.0065000001341,3.0
19,190.108194949,19025.5,1518245588.0,694624178.0,,1997158.0,1518245588.0,694624178.0,,0.726023844905,-0.266510236228,0.0507825021951,-0.0616299161387,0.997936260036,-0.00910419657713,-0.0155591756678,-0.0102823482617,-0.00437388521593,-0.0552921089474,-0.00265900504942,0.0263511610949,0.0266801730397,3.3568842411,1.32795870304,3.78992676735,-0.413507759571,1.35501074791,0.136553913355,789695.0,1518245588.0,680999936.0,,,,,,140102.5,1518245588.0,697949133.0,,1.32000001073,1.1819999814,-0.303000002727,0.0034999998752,0.0054999999702,0.0125000001863,3.0
20,190.210759051,19033.5,1518245588.0,774614475.0,,1997166.0,1518245588.0,774614475.0,,0.726206460613,-0.268091092281,0.0488768708008,-0.061120529018,0.997956615007,-0.00985969270646,-0.0157952505298,-0.00696975945312,-0.03592631288,-0.00848140229703,-0.0545193006851,0.0253239063535,-0.0195822414335,1.8194873631,0.941155135633,3.00284898281,-0.0915815606714,0.722368270157,0.174075186253,1393605.0,1518245588.0,777843342.0,,,,,,140110.5,1518245588.0,776925938.5,,-0.554999989271,1.90699997544,-5.42799996548,0.291999995708,0.131999999285,0.0175000000745,1.0
21,190.313323154,19044.5,1518245588.0,884616396.0,,1997177.0,1518245588.0,884616396.0,,0.727009351264,-0.269932397026,0.0496078233944,-0.0603158185757,0.998007529413,-0.0110277449486,-0.0148740995229,0.0212216243287,0.00422730193286,0.00242851008784,0.00413922599147,-0.0508491136174,0.00029414137745,3.85597240925,1.43598276376,1.43516635895,-0.276582673192,1.50918769837,0.170357845724,1393612.0,1518245588.0,878837253.5,,,,,,140121.5,1518245588.0,887273143.0,,0.099999989569,1.83699996397,-3.25300001316,0.114500001073,0.121499996632,0.0119999996387,-1.0
22,190.415887256,19055.5,1518245588.0,989883990.5,,1997188.0,1518245588.0,994881580.0,,0.726775171442,-0.267852944948,0.0493636368247,-0.0618613594076,0.997910499661,-0.0108823113498,-0.0151453681918,-0.0181164372018,0.00328856937017,-0.000573699162397,-0.00740289386455,0.0413994365322,-0.000847833163204,3.41211247444,1.50878083706,1.76531589031,-0.350327432156,1.34462785721,0.160418525338,1393620.0,1518245588.0,989486098.0,,,,,,140132.5,1518245588.5,496967257.5,,0.324999983609,0.401999980211,-5.06299995594,0.248999997973,0.107499998063,0.00800000037998,-1.0
23,190.518451359,19062.5,1518245589.0,59883881.5,,1997194.5,1518245589.0,59883881.5,,0.727567447296,-0.267854434386,0.0490724344762,-0.0621072509458,0.997906801618,-0.0109915678748,-0.014276053193,0.0003194851073,0.00290076347025,0.000884459414807,-0.0101795597669,0.00232139326115,0.00673285493901,3.25149238109,1.19483089447,1.81564956904,-0.128202758729,1.30542439222,0.194634646178,1393625.0,1518245589.0,62499837.0,,,,,,140139.5,1518245589.0,68116944.0,,0.344999990612,-0.168000012636,-4.08800005131,0.227000005543,0.133000001311,0.0364999994636,-1.0
24,190.621015462,19074.5,1518245589.0,179880449.0,,1997206.5,1518245589.0,179880449.0,,0.727832975535,-0.26710980658,0.0494050353105,-0.062943646567,0.997852940743,-0.011601929136,-0.0138892745685,0.0148663129284,-0.00554188821507,0.00461073684686,-0.0187764149037,-0.0348058986887,0.00714855421656,3.1554851532,0.601791799068,1.99392199516,0.130858235061,1.27189397812,0.194325603545,1393633.0,1518245589.0,180979699.0,,,,,,140151.5,1518245589.0,189316344.5,,0.554999989644,-0.238000005484,-4.39300011807,0.280500009656,0.130499996245,0.0584999993444,-1.0
25,190.723579564,19086.5,1518245589.0,299877792.5,,1997218.5,1518245589.0,299877792.5,,0.727280350765,-0.268509509592,0.0490716001614,-0.0618857326476,0.99790653592,-0.0118688827639,-0.0145521849178,0.00812636499366,-0.00560548040475,0.00432892314097,0.00433778978742,-0.0131472098762,-0.0289709080869,3.68884861469,1.26699972152,1.8520437479,-0.165225461125,1.46612524987,0.16028007865,1997564.0,1518245589.0,302951534.0,,,,,,140163.5,1518245589.0,309324556.0,,0.169999974966,1.84699998796,-4.20800005607,0.193000003696,0.113499999046,0.0214999997988,-1.0
26,190.826143667,19094.5,1518245589.0,379877711.0,,1997226.5,1518245589.0,379877711.0,,0.726783271783,-0.267536778262,0.0487365371005,-0.0626246213387,0.997853234459,-0.0116828078412,-0.0151663280697,-0.00669298006611,0.00784816980309,-0.0137887269592,-0.00191215211201,0.0163599612011,0.0100224047296,3.40975940228,1.36456310749,1.93675363063,-0.210544720292,1.3603041172,0.183785133064,1393647.0,1518245589.0,382487361.5,,,,,,140171.5,1518245589.0,387360864.0,,1.09999998212,-0.0080000162125,-4.38800000362,0.226000003517,0.13750000298,0.0365000003949,-1.0
27,190.928707769,19107.5,1518245589.0,519877680.0,,1997240.5,1518245589.0,519877680.0,,0.727592840919,-0.267507648516,0.0493143130479,-0.0630477323074,0.997835723164,-0.0120771316452,-0.0142457470026,-0.00548460315572,-0.00044216201571,-0.00581510597924,0.00918802787876,0.00822846789705,-0.0251433295993,3.87264716625,1.3159288764,1.86789041757,-0.22139968723,1.54923439026,0.142931520939,1997585.0,1518245589.0,512954096.0,,,,,,140184.5,1518245589.0,518733392.0,,0.96000000015,1.73199997842,-4.00800000839,0.212000004947,0.128499999643,0.015000000596,-1.0
28,191.031271872,19114.5,1518245589.0,579882048.5,,1997246.5,1518245589.0,579882048.5,,0.727472415053,-0.267138399102,0.0491908949675,-0.0627340401118,0.99785568874,-0.0119342097914,-0.0143514706812,0.0005432008857,-0.00783596032426,0.00217609698877,-0.0115171671748,-0.0003159427753,-0.00231796185319,3.4159719944,1.20414108038,1.98984992504,-0.109404690564,1.36646831036,0.189845129847,1393661.0,1518245589.0,583488019.5,,,,,,140191.5,1518245589.0,588653546.0,,0.359999993071,1.33199998736,-5.34299992733,0.266000002623,0.125500001014,0.00999999977647,-1.0
29,191.133835974,19125.5,1518245589.0,689883818.0,,1997258.0,1518245589.0,694877897.0,,0.727716223488,-0.26787050461,0.0493849636257,-0.0627388492554,0.997853099824,-0.0125212176738,-0.0140017616117,-0.00574397038451,-0.00926958143856,-0.00215687541149,0.00473150651365,0.0175101910384,-0.0139081240601,3.53312432766,1.16627514363,2.00701856613,-0.0627035275104,1.41717851162,0.193534582854,1997602.5,1518245589.0,687944594.0,,,,,,140202.5,1518245589.0,697600796.5,,0.424999992549,0.491999983788,-4.71299981289,0.222999997437,0.113000001759,0.0379999997094,-1.0
30,191.236400077,19135.5,1518245589.0,789882032.5,,1997267.5,1518245589.0,789882032.5,,0.727365981579,-0.267550393717,0.049165186659,-0.0629830880604,0.997830877968,-0.0125720198444,-0.0144363559882,0.00286521768029,0.00142944817206,0.0057520952371,0.003140818123,-0.00191648151908,0.00940034495354,3.52953088284,1.15371221304,1.94688695669,-0.032677076757,1.42522394657,0.204111635685,1393675.0,1518245589.0,784969675.5,,,,,,140212.5,1518245589.0,798493886.0,,1.23000000715,0.481999963522,-4.05299996548,0.213999994099,0.146500006318,0.0329999998212,-1.0
31,191.338964179,19148.5,1518245589.0,919875887.0,,1997280.5,1518245589.0,919875887.0,,0.727185529373,-0.267243168403,0.0487681770649,-0.063305696313,0.997811029776,-0.0122403324064,-0.0146868441106,0.00681660580308,0.00487788668326,0.00214185376931,0.00900291728147,-0.0153976283002,-0.0014598126777,3.79700458049,1.26265543699,1.84902060032,-0.125200275332,1.52257335186,0.216858804226,1393685.0,1518245589.0,923485262.5,,,,,,140225.5,1518245589.0,928179945.0,,1.06499998569,0.201999992132,-4.19800006561,0.221000000834,0.137000001967,0.0324999997393,-1.0
32,191.441528282,19157.5,1518245590.0,9875760.0,,1997289.5,1518245590.0,9875760.0,,0.727243748225,-0.267517870165,0.0490064343484,-0.0632956549736,0.997807359592,-0.0127037467398,-0.0145698704234,0.0176478373461,0.00307506743259,0.00256918503952,0.00907877945316,-0.0341544587572,0.00289272112329,3.54155647754,1.07919132709,1.89997005462,-0.0356406513602,1.42398434877,0.196955345571,1393691.0,1518245590.0,13465365.0,,,,,,140234.5,1518245590.0,18553551.0,,0.664999987185,-1.0530000031,-4.55299996547,0.240000002086,0.137000001967,0.050000000745,-1.0
33,191.544092385,19166.5,1518245590.0,99881033.5,,1997298.5,1518245590.0,99881033.5,,0.72702297247,-0.26764588893,0.0489513854861,-0.062966243208,0.997826958844,-0.0125583089755,-0.0147926380035,0.00206937993134,0.00410593276123,0.00563685041721,-0.00349419966245,-0.00476851921009,0.0139641763002,3.68611240387,1.04410552978,1.79542160034,-0.00311752781275,1.45894420147,0.207430489361,1393697.5,1518245590.0,101965103.0,,,,,,140243.5,1518245590.0,109366949.0,,1.06499996055,-1.46799990535,-3.52799998932,0.220499999821,0.141500003636,0.0595000013709,-1.0
34,191.646656487,19178.5,1518245590.0,219877317.5,,1997310.5,1518245590.0,219877317.5,,0.727102593962,-0.266802422625,0.0488585002871,-0.0636278130052,0.997791446001,-0.0121910874083,-0.0146647602003,-0.00255073775707,0.00645989627,-0.00476239345244,0.00400425591439,-0.0037592624009,0.00952094397648,3.7799642086,1.05653059482,1.89255851507,0.0209454316646,1.52302104234,0.219971686602,1393706.0,1518245590.0,223986279.5,,,,,,140255.5,1518245590.0,228847691.5,,-0.995000046493,1.51699997112,-4.13300000839,0.228500001132,0.142499998212,0.00800000014714,-1.0
35,191.74922059,19188.5,1518245590.0,319879123.0,,1997320.5,1518245590.0,319879123.0,,0.727140144359,-0.267695182929,0.0490122552691,-0.0630488180565,0.997825032512,-0.012494377598,-0.0146245771746,-0.000691896521295,-7.9189525575e-05,0.00208434831163,0.0125350796387,0.00075337149575,-0.0162538919093,3.67330563068,1.09184336662,1.75737553835,-0.0443693567068,1.47061145306,0.189348563552,1393712.5,1518245590.0,319484673.0,,,,,,140265.5,1518245590.0,329594256.0,,0.249999989942,-0.298000067472,-4.62800001315,0.243499994278,0.134999997914,0.0555000007152,-1.0
36,191.851784692,19200.5,1518245590.0,439884428.5,,1997332.5,1518245590.0,439884428.5,,0.727309482805,-0.267288538469,0.0488878398542,-0.0630431315046,0.997830717281,-0.0122555246021,-0.0144609405071,0.00245310756695,0.00116168184395,0.00353365126663,0.0035235080782,-0.0138838058145,0.00266042188426,3.53984761238,0.819124013185,1.80201470852,0.12936592102,1.42033433915,0.220521248878,789764.0,1518245590.0,428000000.0,,,,,,140277.5,1518245590.0,448905782.0,,1.65499998927,-0.178000003099,-4.00300001315,0.263499990105,0.132500000298,0.0670000016689,-1.0
37,191.954348795,19208.5,1518245590.0,519872518.5,,1997340.5,1518245590.0,519872518.5,,0.726919920016,-0.268049336642,0.0486106820143,-0.0627702157264,0.997834921156,-0.0125569797888,-0.0150714217549,-0.00100795138302,0.0113060611853,-0.00343710838622,0.00476475406094,0.00362453534697,0.0144087539193,3.46519052982,0.878381699324,1.83620887994,0.0967777930202,1.40160155296,0.221269048751,1393727.0,1518245590.0,525483373.5,,,,,,140285.5,1518245590.0,529125596.5,,0.669999993592,0.271999984979,-4.4029998701,0.244500003755,0.127499997616,0.0590000003577,-1.0
38,192.056912897,19220.5,1518245590.0,639874492.5,,1997352.5,1518245590.0,639874492.5,,0.727222418432,-0.267485876425,0.0488478221328,-0.0627428363838,0.997848832589,-0.0122002363678,-0.0145636750945,0.00352761367612,0.0018466797119,0.000738762741225,-0.00825294566038,-0.011274325558,0.0122983403005,3.43093395233,0.665795624256,1.74185365439,0.238229975104,1.39601683616,0.247710779309,789772.0,1518245590.0,630000128.0,,,,,,140297.0,1518245590.0,644277449.0,,-0.110000026226,1.18699998408,-4.63800000362,0.258000001312,0.12650000304,0.0460000000894,-1.0
39,192.159477,19228.5,1518245590.0,719875348.5,,1997360.5,1518245590.0,719875348.5,,0.726824784252,-0.267591587298,0.0486161613796,-0.0630013945795,0.997822387341,-0.0123555283825,-0.0151201355128,0.00328831642145,-0.00678901910953,0.00235740635358,-0.0048181209352,-0.00270303711835,-0.00811948506597,3.70206665993,0.827630281448,1.62097644805,0.124427322298,1.49817615748,0.220282383263,1393740.5,1518245590.0,722483298.0,,,,,,140305.5,1518245590.0,728881171.5,,0.0449999824165,0.446999981999,-3.70300006084,0.244499996304,0.143999993801,0.0374999996275,-1.0
