,Unnamed: 0,.header.seq,.header.stamp.secs,.header.stamp.nsecs,.header.frame_id,.endpoint_state.header.seq,.endpoint_state.header.stamp.secs,.endpoint_state.header.stamp.nsecs,.endpoint_state.header.frame_id,.endpoint_state.pose.position.x,.endpoint_state.pose.position.y,.endpoint_state.pose.position.z,.endpoint_state.pose.orientation.x,.endpoint_state.pose.orientation.y,.endpoint_state.pose.orientation.z,.endpoint_state.pose.orientation.w,.endpoint_state.twist.linear.x,.endpoint_state.twist.linear.y,.endpoint_state.twist.linear.z,.endpoint_state.twist.angular.x,.endpoint_state.twist.angular.y,.endpoint_state.twist.angular.z,.endpoint_state.wrench.force.x,.endpoint_state.wrench.force.y,.endpoint_state.wrench.force.z,.endpoint_state.wrench.torque.x,.endpoint_state.wrench.torque.y,.endpoint_state.wrench.torque.z,.joint_state.header.seq,.joint_state.header.stamp.secs,.joint_state.header.stamp.nsecs,.joint_state.header.frame_id,.joint_state.name,.joint_state.position,.joint_state.velocity,.joint_state.effort,.wrench_stamped.header.seq,.wrench_stamped.header.stamp.secs,.wrench_stamped.header.stamp.nsecs,.wrench_stamped.header.frame_id,.wrench_stamped.wrench.force.x,.wrench_stamped.wrench.force.y,.wrench_stamped.wrench.force.z,.wrench_stamped.wrench.torque.x,.wrench_stamped.wrench.torque.y,.wrench_stamped.wrench.torque.z,.tag
0,337.770119,33790.5,1518245736.0,339798072.0,,2011922.5,1518245736.0,339798072.0,,0.762077706842,-0.291490950897,0.12721133855,-0.0253498531342,0.99952251369,0.0033725710837,0.0173392839653,-0.00971299022219,0.0122908947448,-0.0114245291364,-0.0379684125758,0.00995855947856,0.0632792819172,2.89883577824,1.26596903801,4.34146213532,-0.260943636298,1.30109506846,0.343761801719,795535.0,1518245736.0,339000064.0,,,,,,154852.5,1518245736.0,344088109.0,,1.42500001341,0.53699999135,-0.874000005798,-0.00899999984539,-0.0290000000969,-0.00200000003679,3.0
1,337.872683103,33802.5,1518245736.0,459789955.5,,2011934.5,1518245736.0,459789955.5,,0.75916330772,-0.291179355932,0.123052380489,-0.0288168343379,0.999472539459,0.000719572684616,0.0149379557212,-0.0139798802978,-0.00700236356085,-0.0402146319091,-0.0656645742063,0.0103778986613,0.0725902023594,5.34063839912,1.28570431471,4.85860586166,-0.304458767176,2.29960107803,0.259351015091,1403910.0,1518245736.0,459422314.0,,,,,,154864.5,1518245736.0,463587846.5,,-0.765000000038,0.33699999582,-0.819000004232,-0.0164999996777,0.0144999995828,0.0290000010282,3.0
2,337.975247205,33811.5,1518245736.0,549787926.5,,2011943.5,1518245736.0,549787926.5,,0.757158431237,-0.291469113995,0.120581381066,-0.032327502838,0.999386226943,-0.00332099894203,0.0130563102103,-0.0408792158124,0.0108779343767,-0.0336112184097,-0.0779519074169,0.0885607936499,0.0680228650774,2.83691847324,1.61982834339,4.31777954102,-0.370909154415,1.31956309081,0.215566173196,795543.5,1518245736.0,548999936.0,,,,,,154873.5,1518245736.0,554394788.0,,0.805000008641,0.631999990158,-0.188999986649,0.00900000007822,0.00300000049175,-0.0135000002919,3.0
3,338.077811308,33819.5,1518245736.0,629792509.5,,2011951.5,1518245736.0,629792509.5,,0.754519981559,-0.290950627443,0.116810274932,-0.0332793200991,0.999376452917,-0.0050246157965,0.0106605706969,-0.0301316059267,0.0336507537836,-0.0549257936722,-0.00306610116624,0.0499788319866,0.0530493142458,4.99066591262,1.43160182238,4.52655577659,-0.175493009388,2.11743825674,0.235962174833,1403921.5,1518245736.0,632442362.5,,,,,,154881.5,1518245736.0,634651477.5,,0.269999997318,0.642000010423,-0.329000002145,0.0150000003632,-0.0150000004796,0.00399999978254,3.0
4,338.18037541,33832.5,1518245736.0,759789399.5,,2011964.5,1518245736.0,759789399.5,,0.749426393675,-0.284903916639,0.109770375235,-0.0376464276746,0.999267183298,-0.00387172584245,0.00571177756654,-0.0511699950989,0.0560524296719,-0.0670782953968,0.0319404074918,0.115489927872,0.0706692981902,4.310287714,1.61180377006,4.32477545738,-0.349804267288,1.82744526863,0.215334519744,2012310.0,1518245736.0,762883859.0,,,,,,154894.5,1518245736.0,766359869.0,,-0.214999994636,0.741999989562,-0.933999998868,0.00150000001304,0.0,0.0209999997169,3.0
5,338.282939513,33840.5,1518245736.0,839791476.5,,2011972.5,1518245736.0,839791476.5,,0.74557265284,-0.282711278738,0.104597463299,-0.0417023541771,0.999114231982,-0.00539110142041,0.00149344155634,-0.0516083319873,0.0327774782336,-0.0715521573853,-0.0687952288853,0.102776018111,0.132524916572,3.19353246689,0.998310446742,4.64623165131,-0.0983074307442,1.3522824049,0.216241970659,2012317.5,1518245736.0,837876967.0,,,,,,154902.5,1518245736.0,844784633.0,,-0.885000011324,1.55200002175,-0.923999996297,-0.00849999964705,0.00300000002608,-0.0320000005886,3.0
6,338.385503615,33850.5,1518245736.0,939786267.5,,2011982.5,1518245736.0,939786267.5,,0.741402406302,-0.28022257391,0.0983683156731,-0.0442327681312,0.998995563171,-0.00661486462111,-0.00268112824729,-0.0382913379348,0.0544590727045,-0.0577300186394,0.0237700109327,0.0698274228951,0.093683562652,3.61723637581,0.898382306099,4.98005747795,-0.0693589150906,1.54335683584,0.243917696178,1403942.5,1518245736.0,933937296.5,,,,,,154912.5,1518245736.0,945749319.5,,-1.05999998599,1.42199996692,0.036000007391,0.0109999999404,-0.0100000002421,0.0099999997765,3.0
7,338.488067718,33862.5,1518245737.0,59789900.0,,2011995.0,1518245737.0,64790717.5,,0.735223178697,-0.275921025372,0.0911926223244,-0.0487693777964,0.998748312081,-0.00583847294447,-0.00943333078583,-0.0591835163391,0.00848869665881,-0.0558866079738,-0.0151456723816,0.130569297637,0.041643868045,3.82568109035,0.897377163172,4.97117638588,-0.104431372136,1.49030959607,0.220039397478,2012340.0,1518245737.0,62884890.5,,,,,,154924.5,1518245737.0,65247035.5,,-0.599999992549,0.792000001482,-0.9740000017,0.0235000001267,-0.0400000000373,-0.0164999999106,3.0
8,338.590631821,33873.5,1518245737.0,174792223.0,,2012006.0,1518245737.0,174792223.0,,0.732120429816,-0.274808491755,0.0862038363728,-0.0511759810677,0.998586865369,-0.00750198031225,-0.0122070293845,-0.0102578678008,0.0105734495395,-0.0338700776754,-0.0296918357525,-0.00275016727179,-0.00622463786915,3.33592915535,1.14452695847,5.5581612587,-0.247266739607,1.53895378113,0.21728181839,2012351.0,1518245737.0,172900102.0,,,,,,154935.5,1518245737.0,176441218.5,,-0.219999997318,1.12699998002,-0.708999997377,0.0109999997076,-0.00649999990128,-0.00600000005215,3.0
9,338.693195923,33884.5,1518245737.0,279799312.0,,2012016.5,1518245737.0,279799312.0,,0.730615967565,-0.273763682207,0.0824463771632,-0.053950777879,0.998418166474,-0.00859541968427,-0.0132866379524,-0.00239342412795,0.0349426401858,-0.0208060452183,0.0139050171889,-0.00512548070195,0.0472965476521,3.32261097432,1.68110567331,4.5285308361,-0.405550017953,1.45888227224,0.178049072624,2012361.0,1518245737.0,272841193.0,,,,,,154947.0,1518245737.0,289383113.0,,-2.3899999544,0.507000031139,-0.0539999961855,0.00849999999628,-0.019499999471,-0.0259999996051,3.0
10,338.795760026,33891.5,1518245737.0,349786988.5,,2012023.5,1518245737.0,349786988.5,,0.731061759405,-0.272566057123,0.0810897117756,-0.0545839557479,0.998401940813,-0.00810517140437,-0.0121819177002,0.00457582202138,0.00676493608771,-0.0289845685285,0.0237277498844,-0.0184233385785,-0.00975417544967,4.85581445694,1.43250614405,4.30604147911,-0.224479019642,2.21319675445,0.200498253107,1403972.5,1518245737.0,355438035.0,,,,,,154953.5,1518245737.0,354899163.0,,-1.74999999851,-0.06300000269,-0.199000006914,0.0,0.0195000004023,-0.00050000054765,3.0
11,338.898324128,33903.5,1518245737.0,469791698.5,,2012035.5,1518245737.0,469791698.5,,0.730007262453,-0.270954176975,0.0778402855356,-0.0561096729266,0.998300526627,-0.00916859947757,-0.0127919721395,0.00665026789589,0.00099809323483,-0.0192122615186,-0.039286982268,-0.0153038302763,-0.0449012183563,3.31154799462,1.11560213566,4.54775094986,-0.135437320918,1.51823550462,0.208637021482,2012381.0,1518245737.0,472908565.0,,,,,,154965.5,1518245737.0,476250506.5,,-1.24500000328,1.15699998122,-0.984000004271,0.0205000005662,-0.0320000015199,-0.0239999992773,3.0
12,339.000888231,33914.5,1518245737.0,579789391.0,,2012046.5,1518245737.0,579789391.0,,0.729153788689,-0.269768523696,0.0748588974879,-0.0575957986572,0.998202673142,-0.00942820807834,-0.0136071916613,-0.00700271435336,0.0159641758165,-0.0274781137977,0.0101949706587,0.0126297534448,0.0293269366442,3.08054602146,1.48389887809,4.86638784409,-0.377489626408,1.49400520325,0.173951543868,2012391.0,1518245737.0,572876040.0,,,,,,154976.5,1518245737.0,586466384.0,,0.22499999553,-0.0179999990388,-0.609000018239,0.0240000002086,-0.0320000005886,0.00799999991431,3.0
13,339.103452333,33923.5,1518245737.0,669800497.5,,2012055.5,1518245737.0,669800497.5,,0.727485396981,-0.26812398279,0.0716345456022,-0.0588815115107,0.998115853739,-0.00854712618942,-0.0149875324363,-0.0270052394455,0.0326426973393,-0.0419236567287,0.0304654357195,0.0401760776209,0.058483815349,4.8643386364,1.50148642063,4.15431690216,-0.324334621429,2.12745094299,0.18601372838,2012401.0,1518245737.0,672866486.0,,,,,,154985.5,1518245737.0,675002167.5,,-0.419999985397,1.49200004917,-0.324000006914,0.0139999999665,0.00250000006054,-0.0130000002682,3.0
14,339.206016436,33933.5,1518245737.0,769819563.5,,2012065.5,1518245737.0,769819563.5,,0.727612614792,-0.267243515158,0.0684293255055,-0.0606527919384,0.998012457127,-0.00890357803968,-0.0145962816395,0.00330644669305,-0.00240888716185,-0.036979557665,-0.0284806080155,-0.0141863910268,0.0322763788876,4.58204507828,0.884573012591,4.3967268467,-0.0266977138818,2.05887341499,0.191892057657,2012411.0,1518245737.0,772880460.0,,,,,,154995.5,1518245737.0,774980735.0,,-0.73499998115,2.38700000029,-0.284000015259,0.0159999998287,-0.0174999996088,-0.0489999987185,3.0
15,339.308580538,33944.5,1518245737.0,879791232.5,,2012076.5,1518245737.0,879791232.5,,0.72638737231,-0.266310504497,0.0650840165543,-0.0606097892165,0.998000536145,-0.00880874012425,-0.0156062883747,-0.00560434834055,0.0223478833485,-0.0334143613105,0.0227806470621,0.00264224343895,0.0321475821057,2.87695205212,1.23051202297,4.0739338398,-0.216504052281,1.10775539279,0.187650725245,2012421.0,1518245737.0,872904108.0,,,,,,155006.5,1518245737.0,884804572.5,,-1.25999995917,0.357000013999,-0.199000006914,0.00150000024587,-0.00299999979324,-0.0175000000745,3.0
16,339.411144641,33955.5,1518245737.0,989794414.0,,2012087.5,1518245737.0,989794414.0,,0.726006274112,-0.265345889612,0.0611131140514,-0.0614661119341,0.997951789954,-0.0080836306657,-0.0157526019245,-0.0209478414958,0.00748191253412,-0.0423185507123,0.00235080300082,0.0432313676751,0.0271318313402,4.01806533336,0.761888176203,3.80938220024,-0.173366196453,1.56442278623,0.189031302929,1404017.0,1518245737.5,488432118.0,,,,,,155017.5,1518245737.5,496071358.0,,0.310000003874,0.242000004463,-1.46399999261,0.0314999995753,-0.00950000050944,-0.00100000016391,3.0
17,339.513708744,33964.5,1518245738.0,79793407.5,,2012096.5,1518245738.0,79793407.5,,0.726079476083,-0.265075693245,0.0580419620384,-0.0622078688129,0.997911070651,-0.00780096522102,-0.015571495839,0.00251445210486,0.011272469387,-0.0355719219504,0.0166906471321,-0.0023391222416,0.00341402742768,4.6062605381,1.23497092724,3.93641877175,-0.352608293294,1.96710962057,0.150799639523,795604.0,1518245738.0,75000064.0,,,,,,155026.5,1518245738.0,86337783.5,,-0.539999992959,0.322000010125,-0.51400000453,0.0110000004061,0.0109999999404,0.00350000010803,3.0
18,339.616272846,33972.5,1518245738.0,159789607.0,,2012104.5,1518245738.0,159789607.0,,0.725191292387,-0.265911834612,0.0545717396052,-0.062024143892,0.997905196373,-0.00830684496635,-0.0164037488483,-0.00287930510487,-0.0100477248152,-0.0469333396642,-0.0277453110348,-0.0005123710688,0.0121213592666,5.6642665863,1.48302662373,4.08422684669,-0.440033495427,2.30900752544,0.115128949285,1404028.5,1518245738.0,159441732.0,,,,,,155034.5,1518245738.0,166613362.0,,0.020000001043,2.34200004321,-0.568999996782,0.0219999994151,0.000499999849125,-0.0249999999068,3.0
19,339.718836949,33986.5,1518245738.0,304799370.0,,2012119.0,1518245738.0,304799370.0,,0.726199018816,-0.267117824753,0.0502116111657,-0.0604278347778,0.998013021813,-0.00905798947663,-0.0153716251611,0.00903011922787,-0.0104954305366,-0.0356095690508,-0.0108644513638,-0.0147695133421,-0.00686214642643,4.27862358093,1.14337491989,3.93932032585,-0.236404672265,1.85291635991,0.180830225348,2012464.0,1518245738.0,302875610.5,,,,,,155048.5,1518245738.0,306186276.0,,-0.090000002086,0.357000006549,-0.739000002295,0.0474999994039,0.0179999996908,0.0154999997466,3.0
20,339.821401051,33994.5,1518245738.0,379788682.5,,2012126.5,1518245738.0,379788682.5,,0.725749057303,-0.268941750067,0.0492857548992,-0.0603500527711,0.997986444999,-0.0105951756651,-0.0163890135005,0.0246680508988,-0.0258982899209,0.00740481030562,-0.0540430941219,-0.0507274301452,0.0143930148654,2.73457849026,1.22529929876,2.57259368897,-0.379452109337,1.05046844482,0.114872988313,795616.0,1518245738.0,376999936.0,,,,,,155056.5,1518245738.0,386166379.0,,-0.524999993294,-0.258000001125,-7.60400009751,0.296499997377,0.127999998629,0.0539999995381,-1.0
21,339.923965154,34007.5,1518245738.0,509790753.5,,2012139.5,1518245738.0,509790753.5,,0.726925182347,-0.268630145464,0.0493509923618,-0.0608696796738,0.997977564547,-0.0108336431059,-0.0147741783525,0.00281869298122,0.00872230000641,-0.0101062352753,0.00433259311654,-0.0117801947765,0.0139158226896,3.7892563343,1.47292625904,1.67197531462,-0.227410174906,1.52163207531,0.214086189866,2012484.5,1518245738.0,507863471.0,,,,,,155069.5,1518245738.0,517729626.5,,-0.659999994931,0.61199999433,-4.43399990201,0.14849999547,0.122499998659,0.0440000016242,-1.0
22,340.026529256,34017.5,1518245738.0,609786344.0,,2012149.5,1518245738.0,609786344.0,,0.726869324361,-0.268447570809,0.0492716154534,-0.0612404293946,0.997947132746,-0.0112165119076,-0.0150058409045,0.00687160215938,0.0012989268815,0.0036218585512,-0.00237393623977,-0.0167090887112,0.00461805937201,3.53529512882,0.951568156478,1.93145668507,-0.0015870872885,1.41940259933,0.203991875052,1404060.0,1518245738.0,610940324.0,,,,,,155079.5,1518245738.0,616285576.5,,0.294999973476,-0.272999996133,-5.88400006891,0.240000002086,0.141500003636,0.0539999995381,-1.0
23,340.129093359,34027.5,1518245738.0,709786623.5,,2012159.5,1518245738.0,709786623.5,,0.727039961138,-0.267555312718,0.0490103143909,-0.0612278589563,0.997955371051,-0.0107040853309,-0.0148764929813,0.0143197581246,0.00604080968289,0.00757197956318,0.00370237145075,-0.027007473506,0.0003300783651,4.25387120246,1.62479937076,1.64704275131,-0.35204179585,1.69285678863,0.177579402924,1404067.0,1518245738.0,710934655.5,,,,,,155089.5,1518245738.0,716919294.0,,-0.939999996125,-2.12299999017,-5.18400002122,0.221500001848,0.0889999978245,0.0275000007824,-1.0
24,340.231657462,34035.5,1518245738.0,789789786.5,,2012167.5,1518245738.0,789789786.5,,0.726880940165,-0.267947570781,0.0490008431283,-0.0620939513752,0.997892332683,-0.011298136135,-0.0150785154235,-0.00884843340457,0.00737222400369,-0.00626721275004,-0.0209721935508,0.018263893503,0.0418772305184,3.52240264416,1.35953956843,1.77721804381,-0.190919563174,1.40485489369,0.204423502087,795632.0,1518245738.0,780999936.0,,,,,,155097.5,1518245738.0,797720778.5,,0.850000025332,-0.137999995425,-4.84399998784,0.230499997735,0.137999996543,0.0519999992103,-1.0
25,340.334221564,34045.5,1518245738.0,889788807.0,,2012177.5,1518245738.0,889788807.0,,0.726889822964,-0.268309567441,0.0491497189217,-0.0620550209822,0.997890394409,-0.0118011892172,-0.0149859956501,-0.00251659709631,-0.0112638253832,-0.00598559753344,-0.00812057049215,0.0051433780085,-0.0166519692325,4.08624792099,1.14885753393,1.83409953118,-0.0807386450469,1.63168275357,0.195332095027,795636.0,1518245738.0,881999872.0,,,,,,155107.5,1518245738.0,896636979.5,,0.434999988973,-1.1429999711,-5.72400022149,0.229500003159,0.118000000715,0.0415000002831,-1.0
26,340.436785667,34058.5,1518245739.0,19786553.0,,2012190.5,1518245739.0,19786553.0,,0.72711046059,-0.267754568223,0.0491571660522,-0.0625786546787,0.997857350734,-0.0120212715701,-0.0148295068129,-0.011226328668,-0.0147300313155,-0.0051855376368,-0.0115998365194,0.0271167070705,-0.00768619346745,3.59362411499,1.14619565011,1.8367087841,-0.0979682281614,1.44432574511,0.177945651114,1404088.5,1518245739.0,23437739.0,,,,,,155120.5,1518245739.0,26419299.0,,-0.57500000149,-1.30299999733,-5.78899980188,0.255500003695,0.137000001967,0.0639999993145,-1.0
27,340.539349769,34065.5,1518245739.0,89789013.0,,2012197.5,1518245739.0,89789013.0,,0.726749083197,-0.267862916419,0.0490564885747,-0.0626398066549,0.997850137222,-0.0119239047371,-0.015132078683,-0.0034078412669,0.00403309943184,-0.00168101039771,0.00515305317553,0.00701663962987,0.0117240509002,4.11939716339,1.33173948526,1.81235712766,-0.158123373985,1.63338470459,0.195151165128,795644.0,1518245739.0,84000000.0,,,,,,155127.5,1518245739.0,96522894.5,,0.875000001491,-0.128000000306,-4.91399992109,0.196999996901,0.12800000608,0.0449999999255,-1.0
28,340.641913872,34078.5,1518245739.0,219788794.5,,2012210.5,1518245739.0,219788794.5,,0.72658478814,-0.267697383652,0.0488952252408,-0.0627758836116,0.997839435532,-0.0118879393013,-0.0153057477849,-0.00846459196469,0.0185649965354,-0.00918947273865,0.0134002782251,0.010833196289,0.0132237322299,3.9125572443,1.12736523152,1.85459131002,-0.0811105147002,1.56233364344,0.191170722247,2012555.5,1518245739.0,217869062.5,,,,,,155140.5,1518245739.0,227169699.0,,-0.289999990165,-1.19299998302,-4.94900000691,0.219500005246,0.141499996185,0.0730000026524,-1.0
29,340.744477974,34086.5,1518245739.0,299789863.5,,2012218.5,1518245739.0,299789863.5,,0.726747812026,-0.26768806205,0.0489166880962,-0.0627650318885,0.997841972856,-0.0119249784448,-0.0151528122906,-0.0019852954467,-0.000314535817455,0.00221037806913,-0.00789166908107,-0.00447724676545,0.0122656187991,3.85196220875,1.13458204269,1.85104095936,-0.0648228302598,1.54025483131,0.20259205997,1404108.5,1518245739.0,299936437.5,,,,,,155148.5,1518245739.0,306918672.0,,0.164999978245,-0.912999981826,-4.46899998784,0.195000000298,0.125000003725,0.0595000013709,-1.0
30,340.847042077,34099.5,1518245739.0,429797835.0,,2012232.0,1518245739.0,434800797.5,,0.726543614061,-0.268196480716,0.0490465476152,-0.0625524876893,0.997846716551,-0.0122765396714,-0.015437598396,-0.00344101980371,0.0033704959241,0.00197466609846,-0.0007055456945,0.00382060717405,0.00865044927327,3.92365539074,1.14680171013,1.9063667655,-0.0660650506614,1.56948012113,0.197214409709,1404117.0,1518245739.0,430940604.0,,,,,,155161.5,1518245739.0,438135872.0,,-0.709999999404,-0.022999996133,-3.90400004983,0.217500001193,0.134999997914,0.0719999987633,-1.0
31,340.949606179,34107.5,1518245739.0,509787784.0,,2012240.0,1518245739.0,514791322.0,,0.726737664086,-0.268270725487,0.0488168997863,-0.0625266082145,0.997853566996,-0.0122740022512,-0.0151006942713,0.000708371900287,-0.013265365992,-0.00323027253187,-0.0126222133658,-0.00354877810701,-0.0107370332827,3.81899189949,0.971595883369,1.88574826717,0.037236712873,1.53281617165,0.214973539114,1404123.0,1518245739.0,515439690.0,,,,,,155169.5,1518245739.0,518284197.5,,-0.509999988973,0.126999994926,-4.00399995446,0.18900000304,0.128999993205,0.0559999998659,-1.0
32,341.052170282,34120.5,1518245739.0,639786669.0,,2012252.5,1518245739.0,639786669.0,,0.727019759608,-0.267611917415,0.0492648507293,-0.0628687187386,0.997834293094,-0.0123894440857,-0.0148568108623,0.00417583430106,0.0005953388078,0.00823552645299,-0.00277063358433,-0.00751612060051,3.7703892027e-05,3.70596802234,1.08050233125,2.00162470341,-0.00189790688455,1.49662351608,0.223226845264,795666.0,1518245739.0,640000000.0,,,,,,155182.5,1518245739.0,648027689.5,,-0.345000004768,0.317000003718,-3.93400002122,0.200500003994,0.136500000954,0.0339999999851,-1.0
33,341.154734385,34127.5,1518245739.0,709789523.0,,2012259.5,1518245739.0,709789523.0,,0.726861477995,-0.267974106718,0.0490560342321,-0.0626257017872,0.997851332059,-0.0120716049308,-0.014997258708,0.00166509238478,-0.000792459242445,-0.00129877517963,0.00548017208006,-0.00268747257476,-0.00165450335154,3.71269690991,1.14165538549,1.98550444841,-0.0024952273816,1.49849921465,0.22852666676,1404136.5,1518245739.0,711940285.5,,,,,,155189.5,1518245739.0,718014854.0,,-1.07499998659,1.32699999791,-4.36900008321,0.200500003993,0.125500001013,0.0315000005066,-1.0
34,341.257298487,34140.5,1518245739.0,839788393.5,,2012272.5,1518245739.0,839788393.5,,0.727000765967,-0.267705674629,0.0493501351084,-0.0626809251312,0.997849137166,-0.0120882133922,-0.0149001382036,0.00133122151915,0.00202429134359,-0.000287949558025,-0.0073436777811,-0.00085029603695,0.0115013511308,3.57696449757,1.1714758277,1.99605238437,-0.0217008627951,1.43743604422,0.229173101485,1404146.5,1518245739.0,847421347.0,,,,,,155202.5,1518245739.0,848637510.0,,0.354999990762,1.38200000506,-3.98900008797,0.191500000655,0.138000003993,0.0330000007525,-1.0
35,341.35986259,34149.5,1518245739.0,929787916.5,,2012281.5,1518245739.0,929787916.5,,0.726899737218,-0.267946427322,0.048737854968,-0.0623045915417,0.997869298575,-0.0121726420269,-0.0150546406767,0.00564766935182,-0.0164260794291,0.0019437783886,-0.00589487857406,-0.0140125440709,-0.0231086701388,3.73462808132,1.06382369995,1.99354946613,0.0176120474934,1.50462853908,0.230891354382,1404152.0,1518245739.0,932932557.0,,,,,,155211.5,1518245739.0,938656497.5,,-0.024999989569,-0.022999996133,-4.15400004983,0.208000004292,0.130999997258,0.0535000003874,-1.0
36,341.462426692,34158.5,1518245740.0,19784233.5,,2012290.5,1518245740.0,19784233.5,,0.727158078554,-0.26810927934,0.049346632263,-0.0624360198357,0.99786692058,-0.0121226441012,-0.014696982481,0.00362735385649,0.00039573399015,0.00491721307906,-0.00216578362176,-0.00808753747547,0.0130662340622,3.87971508503,1.10515594482,1.97138506174,0.00934434868395,1.55655032397,0.223459415138,2012636.0,1518245740.0,22884190.0,,,,,,155220.5,1518245740.0,28730453.5,,-0.684999999032,-0.658000001498,-4.16899991632,0.214999996125,0.139499999582,0.0610000006855,-1.0
37,341.564990795,34168.5,1518245740.0,119833036.5,,2012300.5,1518245740.0,119833036.5,,0.726667938452,-0.268089199744,0.0488074734373,-0.0626777493532,0.99784427026,-0.0121585302894,-0.015175060426,0.00413942815993,-0.00307801098259,0.00789367084104,0.00562982711172,-0.0161954374268,-0.00463396662657,3.59173882008,0.935356408357,1.99100416899,0.103353150189,1.43357276916,0.230405122041,2012646.0,1518245740.0,122924400.0,,,,,,155230.5,1518245740.0,129684030.5,,0.0050000116229,-0.28800000418,-4.06400001646,0.202500000596,0.144000001252,0.04649999924,-1.0
38,341.667554897,34181.5,1518245740.0,249837237.5,,2012313.5,1518245740.0,249837237.5,,0.727107281459,-0.268260995041,0.0494013113235,-0.0622738629778,0.99787324073,-0.012223875844,-0.0148781738917,0.00855425578037,0.00191675453119,0.00308640359353,-0.00818632147985,-0.0132007334752,0.0117926932512,3.50193142891,0.805066734552,1.95250719786,0.148980788887,1.41437256337,0.229534000158,1404174.5,1518245740.0,248963267.0,,,,,,155243.5,1518245740.0,259435126.5,,-0.914999984575,-1.14799999613,-4.30900002122,0.192999996245,0.138500005007,0.0705000013113,-1.0
39,341.770119,34190.5,1518245740.0,339839284.0,,2012322.5,1518245740.0,339839284.0,,0.727233351099,-0.267534215104,0.049072210326,-0.0623791692543,0.997876553566,-0.011683762014,-0.0146489577523,0.0135049361028,-0.00966815334223,0.00372920217774,0.00524191423703,-0.0227180108531,-0.0173103023376,3.60332596302,0.97032830119,2.04993665218,0.103191588074,1.46185255051,0.241238102317,795693.5,1518245740.0,336000000.0,,,,,,155252.5,1518245740.0,347954286.0,,0.949999989568,-0.702999973483,-5.37399984002,0.222499996424,0.121500000357,0.0729999989271,-1.0
