,Unnamed: 0,.header.seq,.header.stamp.secs,.header.stamp.nsecs,.header.frame_id,.endpoint_state.header.seq,.endpoint_state.header.stamp.secs,.endpoint_state.header.stamp.nsecs,.endpoint_state.header.frame_id,.endpoint_state.pose.position.x,.endpoint_state.pose.position.y,.endpoint_state.pose.position.z,.endpoint_state.pose.orientation.x,.endpoint_state.pose.orientation.y,.endpoint_state.pose.orientation.z,.endpoint_state.pose.orientation.w,.endpoint_state.twist.linear.x,.endpoint_state.twist.linear.y,.endpoint_state.twist.linear.z,.endpoint_state.twist.angular.x,.endpoint_state.twist.angular.y,.endpoint_state.twist.angular.z,.endpoint_state.wrench.force.x,.endpoint_state.wrench.force.y,.endpoint_state.wrench.force.z,.endpoint_state.wrench.torque.x,.endpoint_state.wrench.torque.y,.endpoint_state.wrench.torque.z,.joint_state.header.seq,.joint_state.header.stamp.secs,.joint_state.header.stamp.nsecs,.joint_state.header.frame_id,.joint_state.name,.joint_state.position,.joint_state.velocity,.joint_state.effort,.wrench_stamped.header.seq,.wrench_stamped.header.stamp.secs,.wrench_stamped.header.stamp.nsecs,.wrench_stamped.header.frame_id,.wrench_stamped.wrench.force.x,.wrench_stamped.wrench.force.y,.wrench_stamped.wrench.force.z,.wrench_stamped.wrench.torque.x,.wrench_stamped.wrench.torque.y,.wrench_stamped.wrench.torque.z,.tag
0,27.310142,2744.5,1518245425.0,884854452.5,,1980877.0,1518245425.0,884854452.5,,0.760407132124,-0.290556909831,0.125616567899,-0.0271321824496,0.999503205519,0.00297422365593,0.0157440319538,-0.0311046013362,0.00710485088512,-0.0268893050663,-0.0468663965833,0.0540613477512,0.0648652401095,3.67438280582,1.41279995442,4.75336694717,-0.320282682776,1.6047270298,0.291374862194,1382238.5,1518245425.0,880461543.5,,,,,,123847.5,1518245425.0,885208803.5,,-0.238999950886,-0.393000007793,-0.290000024438,-0.0100000002421,0.0245000002906,0.0444999989122,3.0
1,27.4127061026,2756.5,1518245425.5,504856059.0,,1980889.0,1518245425.5,504856059.0,,0.757308360161,-0.289740174255,0.121521132778,-0.0312914751367,0.999423941246,0.000147283053462,0.013097520316,-0.0291659274051,0.00202304564998,-0.0396468502828,-0.0660310322471,0.0577946222078,0.0797555071553,3.49299764633,1.10505908728,4.29208850861,-0.217567130923,1.5516063571,0.312889814377,1382247.5,1518245425.5,500952396.5,,,,,,123859.5,1518245425.5,505295942.5,,0.330999982357,0.86199998744,-0.710000041128,-0.00450000021374,0.0195000004023,0.0150000001304,3.0
2,27.5152702051,2763.5,1518245426.0,69853098.0,,1980896.0,1518245426.0,74853224.0,,0.755255966685,-0.288660851196,0.119130263164,-0.0346497195613,0.999335907127,-0.00197242182757,0.0110667319277,-0.0345722705905,0.0121519183097,-0.0463893627613,-0.0717956611336,0.0857300066325,0.0897545391031,3.22936809063,1.60625869035,4.04467523098,-0.365281626582,1.44616115094,0.230192914605,1981241.0,1518245426.0,72902862.0,,,,,,123866.5,1518245426.0,76278664.5,,-0.53400002718,2.94200020917,-0.67000001967,-0.00399999995716,0.0124999997206,-0.0094999996363,3.0
3,27.6178343077,2774.5,1518245426.0,179850809.5,,1980906.5,1518245426.0,179850809.5,,0.751876293653,-0.286522677141,0.113573429494,-0.0366347970091,0.99928962487,-0.00387605050914,0.00793846548474,-0.0273350040115,0.0436725048084,-0.0490551566301,-0.00305578705491,0.0452660543424,0.0725457127781,4.6692442894,1.32645487785,4.62937450409,-0.158836748451,1.98941409588,0.25989446044,1382259.5,1518245426.0,181953085.5,,,,,,123877.5,1518245426.0,185243375.0,,-0.384000051022,-0.253000022098,-0.310000005365,-0.00749999983236,0.0265000006184,0.0460000000894,3.0
4,27.7203984103,2786.5,1518245426.0,299851426.5,,1980918.5,1518245426.0,299851426.5,,0.748338611202,-0.282557383018,0.107316321358,-0.0412974658575,0.999126532049,-0.00440822108999,0.0045787912368,-0.0313739702526,0.0349302850155,-0.0583418174438,-0.0522292118098,0.0585490724671,0.137698595039,2.97338604927,0.957522094249,4.78468465805,-0.147613100708,1.2868822217,0.239366203547,1382268.5,1518245426.0,302452279.5,,,,,,123889.5,1518245426.0,304807113.0,,0.00099999904635,-1.76299999766,-0.655000004173,0.00250000000233,0.0380000006408,0.0405000001192,3.0
5,27.8229625128,2797.5,1518245426.0,409852474.0,,1980929.5,1518245426.0,409852474.0,,0.744461279088,-0.279712558308,0.100847627352,-0.0447295117636,0.998983456162,-0.00552888596132,0.000741136951049,-0.0389679774681,0.0241767529682,-0.055703315734,-0.0172260596533,0.071461146698,-0.00854798271969,3.26756989956,0.85419639945,5.42534422875,-0.0489780157802,1.52209615708,0.259586319327,1981275.5,1518245426.0,417912763.5,,,,,,123900.5,1518245426.0,415757294.5,,0.801000010967,-0.0830000054091,-0.384999993443,0.0154999997467,0.0240000002086,0.0309999994934,3.0
6,27.9255266154,2804.5,1518245426.0,479850484.0,,1980937.0,1518245426.0,484853370.0,,0.740667008286,-0.27703777132,0.0973629152822,-0.0473803458331,0.99885232482,-0.00615033890554,-0.00322361549452,-0.0582851163296,0.0232542668321,-0.0459299668974,-0.037541863557,0.122080873135,0.0931156031236,2.51220536232,1.09662431479,5.51255893708,-0.134242143482,1.1858907342,0.254789441824,783279.0,1518245426.0,475000064.0,,,,,,123907.5,1518245426.0,485746169.0,,0.445999976992,-0.338000030441,-0.440000000596,-0.00350000004982,0.00200000003679,0.0439999997616,3.0
7,28.0280907179,2814.5,1518245426.0,584844975.0,,1980947.0,1518245426.0,584844975.0,,0.735883168351,-0.275924241692,0.0928295627202,-0.0496577854744,0.998710702273,-0.00677195026002,-0.00807330149304,-0.046978943655,0.0272124036889,-0.043702622822,-0.00334159847687,0.0963303442593,0.0657412378113,3.30112719536,1.22632288933,5.27714395523,-0.230198949575,1.40919816494,0.247531786561,1981291.0,1518245426.0,572903115.0,,,,,,123918.0,1518245426.0,590076641.0,,0.0309999704361,0.931999980286,-0.685000005364,0.00300000002608,0.0280000008643,0.0209999997169,3.0
8,28.1306548205,2826.5,1518245426.0,704854304.5,,1980959.0,1518245426.0,704854304.5,,0.733740369442,-0.273853164315,0.0882495486591,-0.0523673090123,0.998540164236,-0.00869957432066,-0.00996961540911,-0.0052942454046,0.00595052987711,-0.0364463084223,-0.0288972339858,0.00080913705845,0.0306527647697,3.30449557305,0.760096430778,5.25576591492,0.142162427306,1.51795858145,0.271147757768,1382296.5,1518245426.0,705951040.0,,,,,,123929.5,1518245426.0,704995490.0,,1.86099998355,0.277000008896,-0.595000001788,0.00349999987521,0.0509999990463,0.027999999933,3.0
9,28.2332189231,2834.5,1518245426.0,784853465.0,,1980967.0,1518245426.0,784853465.0,,0.733246715786,-0.272599184224,0.0857596074328,-0.0544500882078,0.998428694109,-0.0085937147874,-0.0100736656687,-0.00857110256692,0.0258575583368,-0.0477530020822,0.0314561197446,0.00653939979072,0.0290076206909,5.19923830032,1.16938662529,4.92356729507,-0.148389622569,2.302328825,0.212685719132,783291.0,1518245426.0,779000064.0,,,,,,123937.5,1518245426.0,785383097.5,,0.0709999918939,-0.277999998257,-0.910000029208,-0.00450000027196,0.0470000002533,0.0154999997467,3.0
10,28.3357830256,2845.5,1518245426.0,889849118.5,,1980977.5,1518245426.0,889849118.5,,0.731517318091,-0.269921510722,0.0825619739825,-0.0564737901475,0.998306461031,-0.00800565770739,-0.0114234366189,-0.00583185992539,0.0209354795268,-0.0260924126806,0.00236790994336,0.0090558879915,0.0401110672108,2.73763644695,1.11703723669,4.73097920418,-0.262928605079,1.30201220512,0.242298208177,1382309.0,1518245426.0,886951288.0,,,,,,123948.5,1518245426.0,896518505.0,,0.630999979377,-0.208000005409,-0.485000017286,0.00300000002607,0.035000000149,0.0454999990762,3.0
11,28.4383471282,2857.5,1518245427.0,9849163.5,,1980990.0,1518245427.0,14848816.0,,0.729286895106,-0.270151437617,0.0783422068337,-0.0579792114508,0.998178973177,-0.0101428486864,-0.0132011805206,0.0110873275378,0.0209652375856,-0.0227948285365,-0.024265255731,-0.0450893499594,0.0915202907679,5.00402641296,1.51013505459,4.50242614746,-0.400525689125,2.1787981987,0.190385386348,1981335.5,1518245427.0,17903554.0,,,,,,123960.5,1518245427.0,14658173.5,,-0.859000015261,-1.27799999826,-0.520000013709,0.00899999984539,0.0539999995381,0.0259999996051,3.0
12,28.5409112308,2868.5,1518245427.0,119869268.5,,1981001.0,1518245427.0,124850742.0,,0.72893859631,-0.267815098529,0.0746969138739,-0.0594892360491,0.998099274043,-0.00900420500171,-0.0133339506899,-0.0214101807061,0.0230599227167,-0.0457586340078,0.0392717551207,0.0544826882755,0.0112523785123,4.22858715057,1.48461902142,4.69332313538,-0.402337044477,1.89749121666,0.200580567122,1981346.0,1518245427.0,122905452.0,,,,,,123971.5,1518245427.0,126062727.5,,0.511000019312,-1.13799999766,-0.840000036359,0.0069999998086,0.0389999998734,0.0394999999553,3.0
13,28.6434753333,2878.5,1518245427.0,219856958.0,,1981010.5,1518245427.0,219856958.0,,0.728590612603,-0.267755890399,0.0722172886189,-0.0606702079345,0.998021687061,-0.00972612840678,-0.0133023521816,-0.020787197788,0.0012561970138,-0.0379067220548,-0.0370566240179,0.0474651012377,0.0108015406452,3.69945573806,1.55703741312,4.85420703888,-0.51180845499,1.69548875094,0.144442021847,1981356.0,1518245427.0,222901853.0,,,,,,123981.5,1518245427.0,224978756.0,,0.651000019908,-0.547999979183,-1.06000000537,0.00450000003911,0.0320000015199,0.0254999995232,3.0
14,28.7460394359,2888.5,1518245427.0,319854808.5,,1981020.5,1518245427.0,319854808.5,,0.727902337119,-0.266979858565,0.0692108682729,-0.0610339536427,0.997990354363,-0.00997359703007,-0.0138047037014,-0.00259875313362,0.0160558385432,-0.0302163830997,0.0198313538438,-0.00735200377395,0.0135903269824,4.65915131569,1.15221357346,4.81768107414,-0.198437258601,2.02270197869,0.201764419675,1981365.5,1518245427.0,317903318.5,,,,,,123991.5,1518245427.0,327881214.5,,1.20100001693,0.0119999635965,-1.52499997913,0.0410000002012,0.0125000001281,0.020499999635,3.0
15,28.8486035385,2896.5,1518245427.0,404872125.0,,1981029.0,1518245427.0,404872125.0,,0.727598403736,-0.26584839233,0.0664860200418,-0.0618295649835,0.997946221678,-0.0090902061182,-0.0140523825903,-0.0134032962913,0.0112647541141,-0.0391140220334,0.0090875113276,0.030209352359,0.0263101281488,3.7421592474,1.28001666069,4.28398585319,-0.41699013114,1.7099764347,0.189799107611,1382344.5,1518245427.0,395952903.5,,,,,,123999.5,1518245427.0,406357155.5,,0.211000007391,0.367000042274,-0.69500002563,0.00749999983236,0.0360000003129,0.0425000004471,3.0
16,28.951167641,2909.5,1518245427.0,529848171.5,,1981041.5,1518245427.0,529848171.5,,0.726429093792,-0.265764024459,0.0621613243836,-0.0627331319492,0.997875769581,-0.00926816182638,-0.0149142523262,-0.0112532552398,-0.00288238067628,-0.0456401706873,-0.001600330416,0.0182331606451,0.00834126391343,4.61027526856,1.28782200813,3.97038328648,-0.348744437099,1.78128498792,0.133978173137,1382353.5,1518245427.0,532456060.5,,,,,,124012.5,1518245427.0,538031081.0,,0.620999974013,-0.102999986335,-0.839999976754,-0.00650000013411,0.0294999992475,0.0244999993592,3.0
17,29.0537317436,2916.5,1518245427.0,599848300.5,,1981048.5,1518245427.0,599848300.5,,0.726997655174,-0.265510035579,0.0600585199488,-0.0620250916137,0.99792724627,-0.00971988360149,-0.0141241186024,0.00864889825105,-0.00253371622246,-0.0314908886266,-0.0114167846029,-0.0185986255114,-0.0579940954126,3.31497895718,1.03042829037,3.91182923317,-0.365655198693,1.33612507582,0.0899539962411,783323.5,1518245427.0,599000064.0,,,,,,124019.5,1518245427.0,607888110.0,,-0.579000043869,0.426999985054,-0.894999983906,0.0104999996256,0.0124999997206,0.030000001192,3.0
18,29.1562958462,2930.5,1518245427.0,739852833.5,,1981062.5,1518245427.0,739852833.5,,0.726935032965,-0.265867511725,0.0544186689553,-0.0620027299634,0.997923261569,-0.00944803584753,-0.0146778961374,0.0139817494707,0.00778405312924,-0.0294952222526,0.0192556173496,-0.00947644130043,-0.00358656483246,3.51446580887,1.15891641378,4.2772667408,-0.334475100041,1.412101686,0.176390595734,783329.0,1518245427.0,743000064.0,,,,,,124033.5,1518245427.0,747762744.5,,0.065999996662,-0.227999986336,-1.40000003874,0.0265000006184,0.00599999981931,-0.0124999999534,3.0
19,29.2588599487,2940.5,1518245427.0,844849962.0,,1981073.5,1518245427.0,849851697.5,,0.727122113363,-0.267314551449,0.0506738917379,-0.0615056990686,0.997952665033,-0.00975705959126,-0.0145576310123,-0.000716497698862,-0.00874690749697,-0.0256656041564,-0.0106648629416,0.00660406910769,0.00188597775387,2.75388944149,1.42849677801,3.75241100788,-0.359019502997,1.10362818837,0.180450446903,1382376.0,1518245427.0,848950922.0,,,,,,124043.5,1518245427.0,846611742.0,,1.35100000054,0.107000051811,-0.644999983909,0.047499999404,0.0730000007897,0.0605000015348,3.0
20,29.3614240513,2950.5,1518245427.0,944887241.0,,1981083.0,1518245427.0,944887241.0,,0.727345546139,-0.269072576764,0.0500281467286,-0.0609141325227,0.997973319997,-0.0111719887606,-0.0146255837629,0.0231966931667,-0.0129268974988,0.010023169808,-0.0344347199658,-0.0404835673384,-0.000196197542903,4.96162462234,1.38930499554,1.41351521015,-0.312131732702,1.97411882877,0.135556325316,1382381.5,1518245427.0,934463409.5,,,,,,124053.5,1518245427.0,945868920.5,,0.250999999046,-1.93299999945,-4.99499994814,0.208500005305,0.145999997854,0.074500001967,-1.0
21,29.4639881538,2958.5,1518245428.0,24848556.0,,1981091.0,1518245428.0,24848556.0,,0.727663955558,-0.268731266937,0.050378271285,-0.0608852221395,0.997980511293,-0.0112499027334,-0.0141890271882,0.023100863476,0.00841816359018,0.00862482921667,0.0197323118336,-0.0431717069983,-0.0178659212854,4.17639923096,1.42739069462,1.00248658657,-0.293756842613,1.59629368782,0.181906685233,1981435.5,1518245428.0,17925916.0,,,,,,124061.5,1518245428.0,26361161.0,,1.27600000501,-0.20300003998,-4.06499988139,0.129499994219,0.206000000239,0.103999998421,-1.0
22,29.5665522564,2968.5,1518245428.0,124059247.0,,1981101.0,1518245428.0,124059247.0,,0.726775751819,-0.267456593331,0.0493149755184,-0.0618241486144,0.99791096046,-0.0109450808373,-0.0152215258015,-0.00563124029638,0.00799271584633,-0.00358180701296,-0.0242655153901,0.0129819874097,0.0544190982571,4.26392269135,1.24187529087,1.01585328579,-0.138959646225,1.5621547699,0.184576392174,1981446.0,1518245428.0,122140405.0,,,,,,124071.5,1518245428.0,127253268.5,,0.300999981165,-0.988000006602,-4.1100001961,0.236500002444,0.170000001788,0.0949999988081,-1.0
23,29.669116359,2980.5,1518245428.0,244062066.0,,1981113.0,1518245428.0,244062066.0,,0.727309849353,-0.266129181974,0.0497370788965,-0.0635892604229,0.997802810559,-0.0115879429295,-0.0145491160881,0.00357431379568,-0.00817644086418,-0.00103578333686,-0.0410076973582,-0.00288904881351,0.0281740410426,3.5333237648,0.813800752163,1.10346460342,0.146169483662,1.31683743,0.229755043983,1382402.5,1518245428.0,236077938.5,,,,,,124083.5,1518245428.0,246798882.0,,0.23100001812,-1.69300000482,-4.0799999863,0.249000005424,0.177999995649,0.0860000029206,-1.0
24,29.7716804615,2990.5,1518245428.0,349062698.5,,1981123.5,1518245428.0,349062698.5,,0.727185774289,-0.26689328445,0.0496470897369,-0.0627190905529,0.997847229945,-0.0122208861987,-0.0147557986237,-0.0014180174542,0.0028103116483,-0.00832365688859,0.000128068522815,0.00564689394365,-0.00285323533265,4.20586156845,1.0081782937,1.18084192276,0.0251187086106,1.53126102686,0.21437138319,1981467.0,1518245428.0,332157821.5,,,,,,124093.5,1518245428.0,347922018.5,,-0.11400001049,-0.90799999349,-4.63499981463,0.246500007808,0.178999997676,0.100500002503,-1.0
25,29.8742445641,2999.5,1518245428.0,439069316.5,,1981132.5,1518245428.0,439069316.5,,0.727849630751,-0.266297032599,0.0500085097385,-0.0627768088451,0.997860945724,-0.0118891658583,-0.0138265925531,-0.0050800379748,0.0099942087935,-0.00583474713098,0.00172911874045,0.00893180933041,0.0269048899939,3.92060112953,1.41119885445,1.10647207499,-0.168889150024,1.45483249426,0.187801972032,1981476.0,1518245428.0,422141523.0,,,,,,124102.5,1518245428.0,437810425.5,,1.10100000799,0.027000008896,-4.18500000536,0.200499996543,0.185499995947,0.089999999851,-1.0
26,29.9768086667,3010.5,1518245428.0,544060189.5,,1981143.0,1518245428.0,544060189.5,,0.727519356749,-0.266462125852,0.0497265684467,-0.063036351044,0.997834620662,-0.012087596637,-0.0143594334273,-0.0042125892292,0.0127738760421,0.00182356192296,0.00309134278561,0.0121932502546,0.0113214857132,4.21143269539,1.19723296165,1.05677074194,-0.0910601466895,1.5434999466,0.198149934411,1981487.0,1518245428.0,532154492.5,,,,,,124113.5,1518245428.0,547022742.0,,0.0759999871253,-1.15300000384,-4.7549999386,0.252000004053,0.192000001669,0.103499997408,-1.0
27,30.0793727692,3020.5,1518245428.0,649065277.5,,1981153.5,1518245428.0,649065277.5,,0.727579031771,-0.266099166045,0.0497222239033,-0.0630084874952,0.997842080036,-0.0119242970508,-0.0140988235848,-0.00885950003963,-0.000275241998599,-0.00573638023652,-0.00246767390947,0.01509477841,0.00044131690944,4.65400409699,1.36543661356,1.20303988457,-0.138884369284,1.75134515763,0.205911099911,1981497.0,1518245428.0,632127793.5,,,,,,124123.5,1518245428.0,648121663.0,,0.96599998772,-0.443000019714,-4.65999991,0.207000002265,0.17650000006,0.0905000008643,-1.0
28,30.1819368718,3032.5,1518245428.0,769064927.5,,1981165.5,1518245428.0,769064927.5,,0.727383650819,-0.266427048238,0.0497787239306,-0.0630343963554,0.997833316382,-0.0120706433012,-0.0144737238766,0.00971719836446,-0.00853743326518,0.00448229090509,-0.00301257963825,-0.0215842220489,-0.0227166376392,4.47126603126,1.44017308951,1.07401627303,-0.222602240741,1.66313737631,0.17693297565,1981510.5,1518245428.0,767151197.0,,,,,,124135.5,1518245428.0,767442142.0,,0.121000003815,-0.81299999468,-5.86500007212,0.247499994934,0.174500003457,0.105999998748,-1.0
29,30.2845009744,3040.5,1518245428.0,849063983.5,,1981173.5,1518245428.0,849063983.5,,0.727133830222,-0.266688103174,0.0494712895977,-0.0628996177443,0.997839327221,-0.0120479086713,-0.0146673745002,-0.00448188519083,0.0026572434363,-0.00992085274617,0.00366700567162,0.0009386573697,0.0062238778493,4.40275359154,1.29348117113,1.2438800931,-0.126055467873,1.66023212671,0.210207037628,1382444.5,1518245428.0,838563600.0,,,,,,124143.5,1518245428.0,847839036.5,,0.38599998951,-0.28799998872,-4.18999988139,0.222500003875,0.186000004411,0.102500002831,-1.0
30,30.3870650769,3053.5,1518245428.0,979067026.5,,1981186.5,1518245428.0,979067026.5,,0.727435687581,-0.266944217795,0.0498139627978,-0.062703826991,0.997853586925,-0.0121743208017,-0.0144045436953,0.00322494634428,-0.00953101240047,0.00569902692869,-0.015118038923,-0.00294346272665,-0.00320078393428,4.25167274475,1.38883620501,1.1626073122,-0.16352944076,1.59382247925,0.193546824157,1382454.5,1518245428.0,973568424.0,,,,,,124156.5,1518245428.0,977553032.5,,0.601000022888,0.386999963597,-4.33500010073,0.220499999821,0.178500004113,0.0890000015497,-1.0
31,30.4896291795,3060.5,1518245429.0,49080127.5,,1981193.5,1518245429.0,49080127.5,,0.727663962457,-0.266449702852,0.0499387788315,-0.0629773359941,0.997839134352,-0.0122581385952,-0.0141611939985,-0.00682826374513,0.00943498705986,-0.00100253990849,0.00695473922833,0.0120117603874,0.0215392026429,4.10911226273,1.13992130756,1.25173771381,-0.0516096092762,1.53475821018,0.216317363083,783380.5,1518245429.0,41499904.0,,,,,,124164.0,1518245429.0,51798634.0,,1.53099999651,-0.527999998257,-4.21000010073,0.218999996782,0.186000004411,0.0909999981524,-1.0
32,30.5921932821,3074.5,1518245429.0,189063848.0,,1981207.5,1518245429.0,189063848.0,,0.727679189597,-0.266338151044,0.0498010077106,-0.0630102874627,0.997842487108,-0.0119130620692,-0.0140737319609,0.00109144976855,0.0157816709818,0.000497515697495,0.0142507307682,0.0004125471632,0.00381536713095,4.03116965294,1.02703586221,1.29114758968,-0.0007525086403,1.52797716856,0.216993063688,783386.0,1518245429.0,176999936.0,,,,,,124177.5,1518245429.0,187652604.0,,2.35599998832,0.426999985054,-4.23999983371,0.206500001252,0.179999999702,0.0780000016094,-1.0
33,30.6947573846,3080.5,1518245429.0,249076700.0,,1981213.5,1518245429.0,249076700.0,,0.727265049442,-0.266021441502,0.0495814281894,-0.0632674682225,0.997821108167,-0.0119287540969,-0.0144177257098,-0.00363808842696,-0.00683549490931,0.00338033880686,-0.00926029061092,0.00720687288087,-0.0058831618143,4.02402245998,0.806146591902,1.25685530901,0.133862413466,1.51798701286,0.23506373167,1382473.5,1518245429.0,240084371.0,,,,,,124183.5,1518245429.0,247299198.5,,1.29600000829,1.49700003751,-4.1750000149,0.206000000239,0.179000005126,0.0559999998659,-1.0
34,30.7973214872,3094.5,1518245429.0,389070950.5,,1981227.5,1518245429.0,389070950.5,,0.727365600356,-0.267361639227,0.0496444600601,-0.0623222830557,0.997873951796,-0.0123402371546,-0.0145283696611,-0.0121967022022,-0.0117905643469,-0.00177320927498,-0.00868427208225,0.0259882073604,-0.0104383825876,3.62923622131,0.718412905931,1.29099720717,0.200270146132,1.34905868768,0.251097157597,783394.0,1518245429.0,380000000.0,,,,,,124197.5,1518245429.0,389091827.5,,1.61600000299,0.301999985054,-3.98000008166,0.21099999547,0.185500003398,0.111999999732,-1.0
35,30.8998855897,3104.5,1518245429.0,484065550.0,,1981237.0,1518245429.0,484065550.0,,0.727954397764,-0.266887558042,0.0501077573479,-0.0628502724767,0.997851121072,-0.0123774483568,-0.0137694721136,-0.00304407036135,-0.00153850625847,-0.00021094013634,0.0044895208752,0.00057826400631,-0.0039760177116,3.58424699306,0.296505719424,1.49189597368,0.468702957034,1.36944496632,0.278102591634,783398.0,1518245429.0,480999936.0,,,,,,124207.5,1518245429.0,489515442.5,,0.986000013349,-0.188000024483,-4.04500013888,0.208999998867,0.192499995231,0.0879999995232,-1.0
36,31.0024496923,3112.5,1518245429.0,569068195.0,,1981245.5,1518245429.0,569068195.0,,0.727593005761,-0.266895389764,0.0495047890389,-0.0629549846203,0.997840829961,-0.0122056627554,-0.01418770883,-0.00559794024674,0.0113301585859,0.000106089950075,0.0148555433718,0.00729975842521,0.0042200307074,3.86088848114,0.372855439782,1.43886274099,0.380613446236,1.46527808905,0.255184546113,1981590.5,1518245429.0,567139742.5,,,,,,124215.5,1518245429.0,567485521.5,,0.245999974012,0.126999973133,-5.08999997676,0.218499995768,0.180500000715,0.106000002473,-1.0
37,31.1050137949,3123.5,1518245429.0,679063930.5,,1981256.5,1518245429.0,679063930.5,,0.727794674293,-0.267143277068,0.0496764277025,-0.0626144100726,0.997867215551,-0.0121284270162,-0.013903432507,-0.00221989448756,0.00792391878299,-0.000317369669825,0.00348134107278,-0.00477929670301,0.0276836516538,3.55788838863,0.354608550668,1.5328580141,0.437176033854,1.35298168659,0.279532387853,1382503.5,1518245429.0,677066968.0,,,,,,124226.5,1518245429.0,678469303.0,,0.41099999547,-0.717999995873,-5.04500013888,0.186499997973,0.175499998033,0.0944999977946,-1.0
38,31.2075778974,3135.5,1518245429.0,799076629.0,,1981268.5,1518245429.0,799076629.0,,0.727663435237,-0.266367249196,0.0499694099173,-0.0629209875339,0.997847817727,-0.0120509470029,-0.013969156722,0.022569194675,0.000307118697135,0.0134785253973,0.00864217992922,-0.0418239427326,-0.0146952928871,3.35137081147,0.511183589697,1.40057164431,0.316109552979,1.25071394443,0.261985987424,1382511.5,1518245429.0,787568770.0,,,,,,124238.5,1518245429.0,797995438.0,,0.61099999845,-0.583000005409,-5.33999997675,0.200999997556,0.178000003099,0.0940000005066,-1.0
39,31.310142,3144.5,1518245429.0,889066747.5,,1981277.5,1518245429.0,889066747.5,,0.727629265313,-0.267013051697,0.0498280044592,-0.0622415189566,0.997890933559,-0.011955953763,-0.0140187756575,0.0114492292402,0.000779668036365,0.00563379548006,-2.17515306e-05,-0.0315392941529,-0.00534200914805,3.829677701,0.412317365408,1.56494194269,0.386908203364,1.48802548647,0.259249225259,783414.0,1518245429.0,884000000.0,,,,,,124247.5,1518245429.0,888687145.0,,1.85100000798,0.536999939754,-5.45999986231,0.199499994516,0.18599999696,0.0935000032186,-1.0
