time,.header.seq,.header.stamp.secs,.header.stamp.nsecs,.header.frame_id,.endpoint_state.header.seq,.endpoint_state.header.stamp.secs,.endpoint_state.header.stamp.nsecs,.endpoint_state.header.frame_id,.endpoint_state.pose.position.x,.endpoint_state.pose.position.y,.endpoint_state.pose.position.z,.endpoint_state.pose.orientation.x,.endpoint_state.pose.orientation.y,.endpoint_state.pose.orientation.z,.endpoint_state.pose.orientation.w,.endpoint_state.twist.linear.x,.endpoint_state.twist.linear.y,.endpoint_state.twist.linear.z,.endpoint_state.twist.angular.x,.endpoint_state.twist.angular.y,.endpoint_state.twist.angular.z,.endpoint_state.wrench.force.x,.endpoint_state.wrench.force.y,.endpoint_state.wrench.force.z,.endpoint_state.wrench.torque.x,.endpoint_state.wrench.torque.y,.endpoint_state.wrench.torque.z,.joint_state.header.seq,.joint_state.header.stamp.secs,.joint_state.header.stamp.nsecs,.joint_state.header.frame_id,.joint_state.name,.joint_state.position,.joint_state.velocity,.joint_state.effort,.wrench_stamped.header.seq,.wrench_stamped.header.stamp.secs,.wrench_stamped.header.stamp.nsecs,.wrench_stamped.header.frame_id,.wrench_stamped.wrench.force.x,.wrench_stamped.wrench.force.y,.wrench_stamped.wrench.force.z,.wrench_stamped.wrench.torque.x,.wrench_stamped.wrench.torque.y,.wrench_stamped.wrench.torque.z,.tactile_values.tactile_values_0,.tactile_values.tactile_values_1,.tactile_values.tactile_values_2,.tactile_values.tactile_values_3,.tactile_values.tactile_values_4,.tactile_values.tactile_values_5,.tactile_values.tactile_values_6,.tactile_values.tactile_values_7,.tactile_values.tactile_values_8,.tactile_values.tactile_values_9,.tag,.goal_vector,.delta_wrench.force.x,.delta_wrench.force.y,.delta_wrench.force.z,.delta_wrench.torque.x,.delta_wrench.torque.y,.delta_wrench.torque.z
1522706292.29,21362,1522677492,287457942,,2776628,1522677489,316917011,,0.7942374499410001,-0.44970430809699996,0.127988817209,0.0309897682674,0.9994440404359999,-0.0103394460207,0.00665884034872,-0.0012500184579100002,-0.000984654882003,-0.00450710120467,-0.00417234129877,0.00869640349747,-0.0013563065758199998,1.04407763481,-0.396018147469,6.938579559330001,0.73180693388,0.419304847717,0.358835458755,1098317,1522677489,316999936,,['r_gripper_l_finger_joint'],"(0.020050991371273995,)","(0.0,)","(0.0,)",2757914,1522677492,281174761,robotiq_force_torque_frame_id,2.43600010872,-0.636999893188,0.176001739502,-0.0460000000894,-0.21099999547000003,-0.126000002027,0.0,0.0,0.0,0.0,0.0,0.0,0.0,0.0,0.0,0.0,3,"(0.5282605997723452, -0.8173976392976043, 0.13420757995327057, 0.9999377972961766, -0.004352227397907281, -0.009388168303915338, 0.004161964805754594)",0.0,0.0,0.0,0.0,0.0,0.0
1522706292.3,21363,1522677492,297552108,,2776628,1522677489,316917011,,0.7942374499410001,-0.44970430809699996,0.127988817209,0.0309897682674,0.9994440404359999,-0.0103394460207,0.00665884034872,-0.0012500184579100002,-0.000984654882003,-0.00450710120467,-0.00417234129877,0.00869640349747,-0.0013563065758199998,1.04407763481,-0.396018147469,6.938579559330001,0.73180693388,0.419304847717,0.358835458755,1098317,1522677489,316999936,,['r_gripper_l_finger_joint'],"(0.020050991371273995,)","(0.0,)","(0.0,)",2757915,1522677492,293390362,robotiq_force_torque_frame_id,2.51600003242,-0.5670001983640001,0.0660011291504,-0.039000000804699994,-0.216000005603,-0.128999993205,0.0,0.0,0.0,0.0,0.0,0.0,0.0,0.0,0.0,0.0,3,"(0.5282605997723452, -0.8173976392976043, 0.13420757995327057, 0.9999377972961766, -0.004352227397907281, -0.009388168303915338, 0.004161964805754594)",0.07999992369999998,0.06999969482399993,-0.11000061035159998,0.006999999284700006,-0.005000010132999971,-0.0029999911779999833
1522706292.31,21364,1522677492,307440996,,2776631,1522677489,346933354,,0.794445119176,-0.44861998861599994,0.128175347873,0.030468978112,0.9994633283740001,-0.00998316579702,0.0067106639008799995,0.0149678956842,-0.0190467712222,0.025922228078799996,-0.0224640182486,-0.0501540962462,-0.022280493347400003,0.753943562508,-0.283153891563,6.80204916,0.7131158113480001,0.308586359024,0.379918575287,1098318,1522677489,348999936,,['l_gripper_l_finger_joint'],"(0.0032494800670444966,)","(0.0,)","(0.0,)",2757916,1522677492,301545731,robotiq_force_torque_frame_id,2.25599980354,-0.627000141144,0.156001281738,-0.039000000804699994,-0.222000002861,-0.149000003934,0.0,0.0,0.0,0.0,0.0,0.0,0.0,0.0,0.0,0.0,3,"(0.5282605997723452, -0.8173976392976043, 0.13420757995327057, 0.9999377972961766, -0.004352227397907281, -0.009388168303915338, 0.004161964805754594)",-0.2600002288800001,-0.05999994277999998,0.09000015258760001,0.0,-0.005999997257999989,-0.020000010729000012
1522706292.32,21365,1522677492,317461967,,2776631,1522677489,346933354,,0.794445119176,-0.44861998861599994,0.128175347873,0.030468978112,0.9994633283740001,-0.00998316579702,0.0067106639008799995,0.0149678956842,-0.0190467712222,0.025922228078799996,-0.0224640182486,-0.0501540962462,-0.022280493347400003,0.753943562508,-0.283153891563,6.80204916,0.7131158113480001,0.308586359024,0.379918575287,1098318,1522677489,348999936,,['l_gripper_l_finger_joint'],"(0.0032494800670444966,)","(0.0,)","(0.0,)",2757917,1522677492,313747632,robotiq_force_torque_frame_id,1.8659999370599998,-0.167000102997,0.25599975585900003,-0.0379999987781,-0.212999999523,-0.133000001311,0.0,0.0,0.0,0.0,0.0,0.0,0.0,0.0,0.0,0.0,3,"(0.5282605997723452, -0.8173976392976043, 0.13420757995327057, 0.9999377972961766, -0.004352227397907281, -0.009388168303915338, 0.004161964805754594)",-0.3899998664800002,0.4600000381470001,0.09999847412100002,0.0010000020265999929,0.009000003337999996,0.016000002622999998
1522706292.33,21366,1522677492,327434062,,2776631,1522677489,346933354,,0.794445119176,-0.44861998861599994,0.128175347873,0.030468978112,0.9994633283740001,-0.00998316579702,0.0067106639008799995,0.0149678956842,-0.0190467712222,0.025922228078799996,-0.0224640182486,-0.0501540962462,-0.022280493347400003,0.753943562508,-0.283153891563,6.80204916,0.7131158113480001,0.308586359024,0.379918575287,1098318,1522677489,348999936,,['l_gripper_l_finger_joint'],"(0.0032494800670444966,)","(0.0,)","(0.0,)",2757918,1522677492,321885635,robotiq_force_torque_frame_id,1.83600020409,0.07300014495849999,0.215998840332,-0.0410000011325,-0.222000002861,-0.122000001371,0.0,0.0,0.0,0.0,0.0,0.0,0.0,0.0,0.0,0.0,3,"(0.5282605997723452, -0.8173976392976043, 0.13420757995327057, 0.9999377972961766, -0.004352227397907281, -0.009388168303915338, 0.004161964805754594)",-0.029999732969999693,0.24000024795549998,-0.040000915527000025,-0.003000002354399997,-0.009000003337999996,0.010999999940000005
1522706292.34,21367,1522677492,337457895,,2776634,1522677489,376916058,,0.794564980114,-0.450543598475,0.128526511628,0.0316426713524,0.999419178168,-0.0104183805827,0.007176698835670001,-0.00352868449867,0.007480121936869999,-0.0011455182863499998,0.0196153137698,0.007343668484510001,-0.00449310837875,0.156778454781,-0.17651580274099998,6.72813844681,0.694398581982,0.0774528086185,0.38859823346100003,1098319,1522677489,367000064,,['r_gripper_l_finger_joint'],"(0.020050991371273995,)","(0.0,)","(0.0,)",2757919,1522677492,334095025,robotiq_force_torque_frame_id,1.7760002613099999,0.33299989700300003,0.27600021362300003,-0.0460000000894,-0.22499999403999998,-0.128999993205,0.0,0.0,0.0,0.0,0.0,0.0,0.0,0.0,0.0,0.0,3,"(0.5282605997723452, -0.8173976392976043, 0.13420757995327057, 0.9999377972961766, -0.004352227397907281, -0.009388168303915338, 0.004161964805754594)",-0.059999942780000204,0.25999975204450004,0.060001373291000026,-0.004999998956900002,-0.002999991178999989,-0.006999991833999991
1522706292.35,21368,1522677492,347439050,,2776635,1522677489,386921914,,0.7954202417309999,-0.44830563566200005,0.129167475314,0.0302108583447,0.999461541814,-0.0100485863535,0.007934505966630001,-0.0115556017728,-0.0118114008549,-0.00169587235679,-0.00244454078468,0.0188921046659,-0.0195974823714,-0.0409911870956,-0.0728298202157,6.767711639400001,0.645439207554,0.00311232730746,0.381933569908,2776985,1522677489,384988729,,"['head_nod', 'head_pan', 'left_e0', 'left_e1', 'left_s0', 'left_s1', 'left_w0', 'left_w1', 'left_w2', 'right_e0', 'right_e1', 'right_s0', 'right_s1', 'right_w0', 'right_w1', 'right_w2', 'torso_t0']","(0.0, -0.10085923680346595, -0.9069661408372509, 1.5021506865367915, 0.27880100819817394, 0.6450389213058165, 2.3423886631010267, -0.48780589054756157, -0.032213596545593685, 0.4655631691232231, 0.9230729391100477, 0.31523305191045253, -0.7079321336091184, -0.3712233506682701, 1.4058933920969816, -0.03259709174256504, -12.565987119160338)","(0.0, 0.0027488935713754254, 0.0047123889795007284, 0.02120575040775328, -0.009424777959001457, 0.0019634954081253035, 0.013351768775252066, -0.0007853981632501215, -0.0047123889795007284, -0.00510508806112579, 0.011780972448751823, -0.014922565101752308, -0.0047123889795007284, 0.00039269908162506076, 0.01060287520387664, 0.00510508806112579, 0.0)","(0.0, 0.0, -14.588, 10.948, 0.308, 5.004, 0.104, -2.648, 0.408, 7.804, -15.892, -0.028, -28.732, -0.008, 0.22, -0.12, -20.48)",2757920,1522677492,342257778,robotiq_force_torque_frame_id,1.7760002613099999,0.28300018310499997,0.28600234985399997,-0.0410000011325,-0.224000006914,-0.127000004053,0.0,0.0,0.0,0.0,0.0,0.0,0.0,0.0,0.0,0.0,3,"(0.5282605997723452, -0.8173976392976043, 0.13420757995327057, 0.9999377972961766, -0.004352227397907281, -0.009388168303915338, 0.004161964805754594)",0.0,-0.049999713898000064,0.010002136230999936,0.004999998956900002,0.000999987125999996,0.0019999891520000035
1522706292.36,21369,1522677492,357489109,,2776635,1522677489,386921914,,0.7954202417309999,-0.44830563566200005,0.129167475314,0.0302108583447,0.999461541814,-0.0100485863535,0.007934505966630001,-0.0115556017728,-0.0118114008549,-0.00169587235679,-0.00244454078468,0.0188921046659,-0.0195974823714,-0.0409911870956,-0.0728298202157,6.767711639400001,0.645439207554,0.00311232730746,0.381933569908,1098320,1522677489,399000064,,['l_gripper_l_finger_joint'],"(0.0032494800670444966,)","(0.0,)","(0.0,)",2757921,1522677492,354455303,robotiq_force_torque_frame_id,2.0660002231599996,0.0029999732971199996,0.226000976563,-0.0399999991059,-0.221000000834,-0.125,0.0,0.0,0.0,0.0,0.0,0.0,0.0,0.0,0.0,0.0,3,"(0.5282605997723452, -0.8173976392976043, 0.13420757995327057, 0.9999377972961766, -0.004352227397907281, -0.009388168303915338, 0.004161964805754594)",0.28999996184999977,-0.28000020980788,-0.06000137329099997,0.0010000020265999998,0.0030000060799999784,0.002000004052999993
1522706292.37,21370,1522677492,367446899,,2776638,1522677489,417119880,,0.794499568525,-0.449297230527,0.128715894673,0.0308718416285,0.9994449144850001,-0.010293785733700002,0.00712953576492,-0.00888027183478,-0.0347904505104,-0.0108514472722,-0.022594930021500002,0.0127612070946,-0.044640889484199996,0.146719366312,-0.0667777135968,6.70876121521,0.656595826149,0.0511932596564,0.377408057451,2776988,1522677489,415181598,,"['head_nod', 'head_pan', 'left_e0', 'left_e1', 'left_s0', 'left_s1', 'left_w0', 'left_w1', 'left_w2', 'right_e0', 'right_e1', 'right_s0', 'right_s1', 'right_w0', 'right_w1', 'right_w2', 'torso_t0']","(0.0, -0.1012427320004373, -0.9061991504433081, 1.5021506865367915, 0.2784175130012026, 0.6446554261088451, 2.3412381775101125, -0.4881893857445329, -0.03259709174256504, 0.4651796739262517, 0.9242234247009617, 0.31408256631953846, -0.7079321336091184, -0.37160684586524145, 1.406276887293953, -0.032213596545593685, -12.565987119160338)","(0.0, -0.001570796326500243, 0.0035342917346255468, -0.011780972448751823, 0.0027488935713754254, -0.004319689897875668, -0.0047123889795007284, 0.012959069693627005, 0.001570796326500243, -0.018849555918002914, -0.004319689897875668, -0.024347343060753767, 0.01531526418337737, -0.01610066234662749, -0.0047123889795007284, 0.009032078877376396, 0.0)","(0.0, 0.0, -14.556, 10.916, 0.248, 5.068, 0.104, -2.648, 0.42, 7.836, -15.892, 0.0, -28.672, -0.008, 0.208, -0.112, -20.48)",2757922,1522677492,362615850,robotiq_force_torque_frame_id,2.0260002613099997,0.0029999732971199996,0.386000823975,-0.032999999821200006,-0.221000000834,-0.127000004053,0.0,0.0,0.0,0.0,0.0,0.0,0.0,0.0,0.0,0.0,3,"(0.5282605997723452, -0.8173976392976043, 0.13420757995327057, 0.9999377972961766, -0.004352227397907281, -0.009388168303915338, 0.004161964805754594)",-0.03999996184999999,0.0,0.15999984741200002,0.0069999992846999926,0.0,-0.002000004052999993
1522706292.38,21371,1522677492,377448081,,2776640,1522677489,437118625,,0.7948302527619999,-0.449177135013,0.12834561735799999,0.030519145749599998,0.999453531612,-0.0103672769213,0.0073307202733999995,-0.0031135749648500003,0.018151757980799998,-0.000570996505123,0.0147669226691,0.011957089470899998,0.026049026704099996,0.54061371088,-0.21670243144,6.8161239624,0.705155491829,0.22078081965399998,0.38001546263700003,2776989,1522677489,425211793,,"['head_nod', 'head_pan', 'left_e0', 'left_e1', 'left_s0', 'left_s1', 'left_w0', 'left_w1', 'left_w2', 'right_e0', 'right_e1', 'right_s0', 'right_s1', 'right_w0', 'right_w1', 'right_w2', 'torso_t0']","(0.0, -0.1012427320004373, -0.9069661408372509, 1.50176719133982, 0.27880100819817394, 0.6446554261088451, 2.341621672707084, -0.48780589054756157, -0.03298058693953639, 0.464412683532309, 0.9234564343070191, 0.3148495567134812, -0.7075486384121471, -0.37199034106221285, 1.406276887293953, -0.03298058693953639, -12.565987119160338)","(0.0, -0.008246680714126275, 0.0019634954081253035, 0.01649336142825255, -0.0035342917346255468, -0.00510508806112579, -0.023169245815878585, 0.005890486224375911, -0.013744467856877126, 0.009424777959001457, 0.009424777959001457, -0.021598449489378342, -0.01531526418337737, 0.0027488935713754254, -0.0027488935713754254, 0.003926990816250607, 0.0)","(0.0, 0.0, -14.72, 10.948, 0.216, 5.1, 0.076, -2.664, 0.4, 7.712, -15.924, -0.028, -28.616, -0.016, 0.22, -0.112, -20.48)",2757923,1522677492,370761575,robotiq_force_torque_frame_id,1.8859999179799998,0.19300003051800002,0.485999298096,-0.035000000148999996,-0.211999997497,-0.118000000715,0.0,0.0,0.0,0.0,0.0,0.0,0.0,0.0,0.0,0.0,3,"(0.5282605997723452, -0.8173976392976043, 0.13420757995327057, 0.9999377972961766, -0.004352227397907281, -0.009388168303915338, 0.004161964805754594)",-0.1400003433299999,0.19000005722088,0.09999847412099999,-0.0020000003277999903,0.009000003337000018,0.009000003337999996
1522706292.42,21372,1522677492,387485027,,2776641,1522677489,447128497,,0.7951053529359999,-0.448942464859,0.129035056658,0.030497296143900003,0.999452650211,-0.0102178122241,0.00774023430046,-0.00716802675278,-0.008292028055199999,-0.00837863264225,-0.017193674877400002,0.021695917321000003,0.0117801015237,0.887720644474,-0.22151196003,6.92200136185,0.6843610405920001,0.36598527431500005,0.35892033577,1098322,1522677489,449999872,,['l_gripper_l_finger_joint'],"(0.0032494800670444966,)","(0.0,)","(0.0,)",2757924,1522677492,382951715,robotiq_force_torque_frame_id,1.34599995613,-0.317000198364,0.375998687744,-0.0419999994338,-0.21400000155,-0.11100000143100001,0.0,0.0,0.0,0.0,0.0,0.0,0.0,0.0,0.0,0.0,3,"(0.5282605997723452, -0.8173976392976043, 0.13420757995327057, 0.9999377972961766, -0.004352227397907281, -0.009388168303915338, 0.004161964805754594)",-0.5399999618499998,-0.510000228882,-0.11000061035199998,-0.006999999284800003,-0.0020000040530000207,0.006999999283999983
1522706292.42,21373,1522677492,397494077,,2776642,1522677489,457124614,,0.7946907161300001,-0.44975166317500004,0.128431920649,0.030902845800400005,0.999440806729,-0.0105112004346,0.00725276722006,0.014624690130300001,0.0100664345018,0.00681803314807,0.00603149689196,-0.028677491716999997,0.011761690679500001,0.546734809875,-0.20988310873500002,6.861288070680001,0.682094216347,0.21380187570999998,0.36724215745899996,2776992,1522677489,455173785,,"['head_nod', 'head_pan', 'left_e0', 'left_e1', 'left_s0', 'left_s1', 'left_w0', 'left_w1', 'left_w2', 'right_e0', 'right_e1', 'right_s0', 'right_s1', 'right_w0', 'right_w1', 'right_w2', 'torso_t0']","(0.0, -0.10085923680346595, -0.9069661408372509, 1.50176719133982, 0.27880100819817394, 0.6454224165027879, 2.3423886631010267, -0.4881893857445329, -0.03298058693953639, 0.46479617872928036, 0.9234564343070191, 0.31408256631953846, -0.7071651432151758, -0.37199034106221285, 1.4058933920969816, -0.03259709174256504, -12.565987119160338)","(0.0, -0.0027488935713754254, -0.018456856836377853, 0.0007853981632501215, -0.00510508806112579, 0.004319689897875668, 0.02591813938725401, -0.015707963265002428, 0.027488935713754253, 0.018064157754752792, -0.019634954081253035, 0.005890486224375911, 0.0035342917346255468, -0.004319689897875668, -0.007853981632501214, 0.0, 0.0)","(0.0, 0.0, -14.492, 10.948, 0.248, 5.1, 0.084, -2.636, 0.408, 7.772, -15.984, -0.028, -28.76, -0.024, 0.208, -0.112, -20.48)",2757925,1522677492,391095821,robotiq_force_torque_frame_id,-0.0639998912811,0.6829998016359999,0.375998687744,-0.0430000014603,-0.216999992728,-0.118000000715,0.0,0.0,0.0,0.0,0.0,0.0,0.0,0.0,0.0,0.0,3,"(0.5282605997723452, -0.8173976392976043, 0.13420757995327057, 0.9999377972961766, -0.004352227397907281, -0.009388168303915338, 0.004161964805754594)",-1.4099998474111,1.0,0.0,-0.0010000020265000034,-0.0029999911779999833,-0.006999999283999983
1522706292.42,21374,1522677492,407459974,,2776643,1522677489,467114257,,0.794717217194,-0.448394451343,0.128514435687,0.0303369874719,0.9994665952700001,-0.009841426865509999,0.00702413322982,-0.0038333461058800006,-0.006235774445119999,0.0007882284192389999,0.00885223708686,1.1443873695e-05,-0.0142129046545,0.9540680646899999,-0.299377411604,6.90869235992,0.7046194076540001,0.386300176382,0.370946496725,2776993,1522677489,465182657,,"['head_nod', 'head_pan', 'left_e0', 'left_e1', 'left_s0', 'left_s1', 'left_w0', 'left_w1', 'left_w2', 'right_e0', 'right_e1', 'right_s0', 'right_s1', 'right_w0', 'right_w1', 'right_w2', 'torso_t0']","(0.0, -0.10085923680346595, -0.9073496360342223, 1.50176719133982, 0.2784175130012026, 0.6446554261088451, 2.343539148691941, -0.48703890015361884, -0.0337475773334791, 0.4655631691232231, 0.9234564343070191, 0.3148495567134812, -0.7071651432151758, -0.3712233506682701, 1.4066603824909245, -0.03259709174256504, -12.565987119160338)","(0.0, 0.005497787142750851, -0.0070685834692510935, -0.009032078877376396, -0.003141592653000486, 0.0070685834692510935, 0.003141592653000486, 0.0027488935713754254, -0.014529866020127248, 0.0047123889795007284, 0.007461282550876154, -0.01727875959150267, -0.004319689897875668, 0.006675884387626033, -0.0007853981632501215, 0.001570796326500243, 0.0)","(0.0, 0.0, -14.556, 10.916, 0.248, 5.068, 0.096, -2.636, 0.4, 7.744, -16.012, 0.0, -28.732, -0.008, 0.22, -0.128, -20.48)",2757926,1522677492,403304256,robotiq_force_torque_frame_id,0.396000146866,1.9829999923700001,0.375998687744,-0.0439999997616,-0.21099999547000003,-0.128999993205,0.0,0.0,0.0,0.0,0.0,0.0,0.0,0.0,0.0,0.0,3,"(0.5282605997723452, -0.8173976392976043, 0.13420757995327057, 0.9999377972961766, -0.004352227397907281, -0.009388168303915338, 0.004161964805754594)",0.4600000381471,1.3000001907340002,0.0,-0.0009999983013000008,0.005999997257999962,-0.010999992489999999
1522706292.46,21375,1522677492,417460918,,2776644,1522677489,477152903,,0.795006428679,-0.44840752843500004,0.128432976386,0.030333009654799997,0.9994645528560001,-0.00972377161529,0.0074809341334799995,-0.00430213314771,0.0058910111089600006,0.0006952516847939999,0.0102126292527,0.0098317933557,-0.00416531867582,0.650754749775,-0.213904440403,6.929932117460001,0.719319224358,0.248824670911,0.366764485836,2776994,1522677489,475213997,,"['head_nod', 'head_pan', 'left_e0', 'left_e1', 'left_s0', 'left_s1', 'left_w0', 'left_w1', 'left_w2', 'right_e0', 'right_e1', 'right_s0', 'right_s1', 'right_w0', 'right_w1', 'right_w2', 'torso_t0']","(0.0, -0.10085923680346595, -0.9065826456402796, 1.50176719133982, 0.2784175130012026, 0.6450389213058165, 2.3423886631010267, -0.48742239535059023, -0.0337475773334791, 0.46594666432019444, 0.9238399295039904, 0.3144660615165098, -0.7071651432151758, -0.3712233506682701, 1.4055098969000104, -0.03259709174256504, -12.565987119160338)","(0.0, -0.005497787142750851, 0.00510508806112579, 0.012566370612001944, 0.008639379795751335, -0.006675884387626033, -0.023169245815878585, 0.029845130203504617, 0.004319689897875668, -0.00510508806112579, 0.005497787142750851, 0.0035342917346255468, -0.00510508806112579, 0.014529866020127248, 0.009032078877376396, 0.003926990816250607, 0.0)","(0.0, 0.0, -14.588, 10.916, 0.28, 5.1, 0.084, -2.656, 0.42, 7.868, -16.012, -0.028, -28.76, -0.008, 0.208, -0.1, -20.48)",2757927,1522677492,411434645,robotiq_force_torque_frame_id,0.916000127792,1.9430000305200001,0.375998687744,-0.0379999987781,-0.204999998212,-0.14499999582800002,0.0,0.0,0.0,0.0,0.0,0.0,0.0,0.0,0.0,0.0,3,"(0.5282605997723452, -0.8173976392976043, 0.13420757995327057, 0.9999377972961766, -0.004352227397907281, -0.009388168303915338, 0.004161964805754594)",0.5199999809260001,-0.03999996184999999,0.0,0.006000000983500002,0.005999997258000045,-0.016000002623000026
1522706292.46,21376,1522677492,427481889,,2776645,1522677489,487128707,,0.794726226338,-0.44914455622599997,0.128547481417,0.0307055581181,0.9994500432160001,-0.0101910395362,0.00727478724007,0.00299771504891,0.000978578269401,0.0085621364553,0.00318050217115,-0.012119918016600001,-0.0012111704716900001,1.0685791969299998,-0.311317414045,6.96163702011,0.737554311752,0.42611292004600004,0.37491807341600003,2776994,1522677489,475213997,,"['head_nod', 'head_pan', 'left_e0', 'left_e1', 'left_s0', 'left_s1', 'left_w0', 'left_w1', 'left_w2', 'right_e0', 'right_e1', 'right_s0', 'right_s1', 'right_w0', 'right_w1', 'right_w2', 'torso_t0']","(0.0, -0.10085923680346595, -0.9065826456402796, 1.50176719133982, 0.2784175130012026, 0.6450389213058165, 2.3423886631010267, -0.48742239535059023, -0.0337475773334791, 0.46594666432019444, 0.9238399295039904, 0.3144660615165098, -0.7071651432151758, -0.3712233506682701, 1.4055098969000104, -0.03259709174256504, -12.565987119160338)","(0.0, -0.005497787142750851, 0.00510508806112579, 0.012566370612001944, 0.008639379795751335, -0.006675884387626033, -0.023169245815878585, 0.029845130203504617, 0.004319689897875668, -0.00510508806112579, 0.005497787142750851, 0.0035342917346255468, -0.00510508806112579, 0.014529866020127248, 0.009032078877376396, 0.003926990816250607, 0.0)","(0.0, 0.0, -14.588, 10.916, 0.28, 5.1, 0.084, -2.656, 0.42, 7.868, -16.012, -0.028, -28.76, -0.008, 0.208, -0.1, -20.48)",2757928,1522677492,423639282,robotiq_force_torque_frame_id,0.626000165939,1.5629999160799999,0.386000823975,-0.0379999987781,-0.202999994159,-0.14499999582800002,0.0,0.0,0.0,0.0,0.0,0.0,0.0,0.0,0.0,0.0,3,"(0.5282605997723452, -0.8173976392976043, 0.13420757995327057, 0.9999377972961766, -0.004352227397907281, -0.009388168303915338, 0.004161964805754594)",-0.28999996185300003,-0.38000011444000026,0.010002136230999992,0.0,0.002000004052999993,0.0
1522706292.46,21377,1522677492,437453031,,2776646,1522677489,497116838,,0.794704240951,-0.44907302960699996,0.128473061391,0.030619993224,0.99945380112,-0.0101762779123,0.007138543877279999,-0.013576771842,-0.0158363896127,-0.0137390464966,-0.0283607031003,0.036636412102699994,0.010191079232399999,0.7606565952300001,-0.46203243732500004,6.94287443161,0.854880869389,0.281388729811,0.41671341657600003,1098324,1522677489,500999936,,['l_gripper_l_finger_joint'],"(0.0032494800670444966,)","(0.0,)","(0.0,)",2757929,1522677492,431784018,robotiq_force_torque_frame_id,0.695999860764,1.2529999733,0.26600189209,-0.035000000148999996,-0.21099999547000003,-0.133000001311,0.0,0.0,0.0,0.0,0.0,0.0,0.0,0.0,0.0,0.0,3,"(0.5282605997723452, -0.8173976392976043, 0.13420757995327057, 0.9999377972961766, -0.004352227397907281, -0.009388168303915338, 0.004161964805754594)",0.06999969482500001,-0.30999994278,-0.119998931885,0.002999998629100005,-0.008000001311000038,0.011999994517000012
1522706292.46,21378,1522677492,447424888,,2776647,1522677489,507127482,,0.7954085979100001,-0.449029578168,0.12917287698899999,0.030370696559900004,0.999453223734,-0.0102536096796,0.00810788792641,-0.00946589460468,-0.004741237309840001,-0.014777241521700001,0.0147189280829,0.0209012098339,-0.006756146220859999,0.63009095192,-0.26596379280099997,7.03073215485,0.769346535206,0.25518357753800003,0.38711464405100005,2776997,1522677489,505215354,,"['head_nod', 'head_pan', 'left_e0', 'left_e1', 'left_s0', 'left_s1', 'left_w0', 'left_w1', 'left_w2', 'right_e0', 'right_e1', 'right_s0', 'right_s1', 'right_w0', 'right_w1', 'right_w2', 'torso_t0']","(0.0, -0.10085923680346595, -0.9077331312311936, 1.50176719133982, 0.2791845033951453, 0.6450389213058165, 2.3423886631010267, -0.4881893857445329, -0.03298058693953639, 0.4655631691232231, 0.9230729391100477, 0.3144660615165098, -0.7079321336091184, -0.37160684586524145, 1.4055098969000104, -0.03298058693953639, -12.565987119160338)","(0.0, 0.0047123889795007284, 0.0011780972448751821, -0.018456856836377853, 0.003926990816250607, 0.003926990816250607, -0.018456856836377853, -0.009817477040626518, -0.004319689897875668, 0.004319689897875668, 0.009817477040626518, -0.01688606050987761, 0.01767145867312773, 0.0027488935713754254, -0.0023561944897503642, -0.004319689897875668, 0.0)","(0.0, 0.0, -14.588, 10.884, 0.308, 5.1, 0.096, -2.636, 0.408, 7.9, -16.044, -0.06, -28.792, -0.008, 0.22, -0.112, -20.48)",2757930,1522677492,443984776,robotiq_force_torque_frame_id,1.20600008965,1.4430000305200001,0.23599929809599998,-0.0309999994934,-0.20800000429200002,-0.12800000607999998,0.0,0.0,0.0,0.0,0.0,0.0,0.0,0.0,0.0,0.0,3,"(0.5282605997723452, -0.8173976392976043, 0.13420757995327057, 0.9999377972961766, -0.004352227397907281, -0.009388168303915338, 0.004161964805754594)",0.510000228886,0.19000005722000024,-0.030002593994000043,0.0040000006555999945,0.002999991178000011,0.004999995231000032
1522706292.5,21379,1522677492,457446098,,2776648,1522677489,517129808,,0.7946110026890001,-0.44985538182499996,0.12840087989399998,0.0309159621147,0.999444331033,-0.0101780748139,0.0071860451311299995,0.0053199227127,-0.00496357065859,0.009145049674049999,0.0112788219065,-0.022670220023,-0.0208456369377,0.771806776524,-0.277384459972,6.995000839229999,0.711496472359,0.299636900425,0.37539523840000005,1098325,1522677489,518000128,,['r_gripper_l_finger_joint'],"(0.020050991371273995,)","(0.0,)","(0.0,)",2757931,1522677492,452146679,robotiq_force_torque_frame_id,1.18600010872,1.68300004005,0.226000976563,-0.0309999994934,-0.20999999344300002,-0.135000005364,0.0,0.0,0.0,0.0,0.0,0.0,0.0,0.0,0.0,0.0,3,"(0.5282605997723452, -0.8173976392976043, 0.13420757995327057, 0.9999377972961766, -0.004352227397907281, -0.009388168303915338, 0.004161964805754594)",-0.019999980929999994,0.2400000095299999,-0.009998321532999982,0.0,-0.001999989150999998,-0.006999999284000025
1522706292.5,21380,1522677492,467466115,,2776649,1522677489,527128022,,0.7948615506380001,-0.449720335633,0.128610456134,0.0310683286686,0.9994369128139999,-0.0102127798662,0.0075043577727,0.00306178364152,0.0038904783893699995,-0.000137105699931,-0.005720987713939999,-0.00345645012108,-0.00266295518019,0.777092278004,-0.41850209236100006,6.9673175811800006,0.756759405136,0.32315826416,0.362651824951,2776999,1522677489,525226445,,"['head_nod', 'head_pan', 'left_e0', 'left_e1', 'left_s0', 'left_s1', 'left_w0', 'left_w1', 'left_w2', 'right_e0', 'right_e1', 'right_s0', 'right_s1', 'right_w0', 'right_w1', 'right_w2', 'torso_t0']","(0.0, -0.1012427320004373, -0.9069661408372509, 1.50176719133982, 0.2791845033951453, 0.6450389213058165, 2.3420051679040554, -0.48780589054756157, -0.03298058693953639, 0.4651796739262517, 0.9230729391100477, 0.3136990711225671, -0.7071651432151758, -0.37160684586524145, 1.4058933920969816, -0.03259709174256504, -12.565987119160338)","(0.0, 0.014529866020127248, -0.018456856836377853, 0.012173671530376884, -0.013351768775252066, -0.009032078877376396, 0.02513274122400389, -0.01531526418337737, 0.0019634954081253035, -0.005890486224375911, -0.0007853981632501215, 0.011388273367126762, -0.00039269908162506076, -0.0011780972448751821, -0.004319689897875668, 0.01021017612225158, 0.0)","(0.0, 0.0, -14.556, 10.916, 0.184, 5.004, 0.084, -2.648, 0.42, 7.68, -16.044, -0.124, -28.792, 0.0, 0.22, -0.12, -20.48)",2757932,1522677492,464350504,robotiq_force_torque_frame_id,0.546000242233,1.1429998397799999,0.31600112915,-0.0379999987781,-0.216999992728,-0.136999994516,0.0,0.0,0.0,0.0,0.0,0.0,0.0,0.0,0.0,0.0,3,"(0.5282605997723452, -0.8173976392976043, 0.13420757995327057, 0.9999377972961766, -0.004352227397907281, -0.009388168303915338, 0.004161964805754594)",-0.639999866487,-0.5400002002700002,0.090000152587,-0.0069999992846999995,-0.006999999284999975,-0.0019999891520000035
1522706292.5,21381,1522677492,477443933,,2776650,1522677489,537115352,,0.794482802729,-0.44897194555200004,0.128459496453,0.030870600585099998,0.999447005985,-0.0102103568105,0.006959659602979999,0.00798928713362,0.00217726842037,0.00930203733494,-0.00304831439716,-0.0195238608998,-0.008937026108489999,1.03282105923,-0.306969732046,6.97344064713,0.700275063515,0.416411668062,0.36399137973800005,2776999,1522677489,525226445,,"['head_nod', 'head_pan', 'left_e0', 'left_e1', 'left_s0', 'left_s1', 'left_w0', 'left_w1', 'left_w2', 'right_e0', 'right_e1', 'right_s0', 'right_s1', 'right_w0', 'right_w1', 'right_w2', 'torso_t0']","(0.0, -0.1012427320004373, -0.9069661408372509, 1.50176719133982, 0.2791845033951453, 0.6450389213058165, 2.3420051679040554, -0.48780589054756157, -0.03298058693953639, 0.4651796739262517, 0.9230729391100477, 0.3136990711225671, -0.7071651432151758, -0.37160684586524145, 1.4058933920969816, -0.03259709174256504, -12.565987119160338)","(0.0, 0.014529866020127248, -0.018456856836377853, 0.012173671530376884, -0.013351768775252066, -0.009032078877376396, 0.02513274122400389, -0.01531526418337737, 0.0019634954081253035, -0.005890486224375911, -0.0007853981632501215, 0.011388273367126762, -0.00039269908162506076, -0.0011780972448751821, -0.004319689897875668, 0.01021017612225158, 0.0)","(0.0, 0.0, -14.556, 10.916, 0.184, 5.004, 0.084, -2.648, 0.42, 7.68, -16.044, -0.124, -28.792, 0.0, 0.22, -0.12, -20.48)",2757933,1522677492,472491344,robotiq_force_torque_frame_id,0.726000070572,0.39299983978299996,0.406001281738,-0.032999999821200006,-0.20999999344300002,-0.142000004649,0.0,0.0,0.0,0.0,0.0,0.0,0.0,0.0,0.0,0.0,3,"(0.5282605997723452, -0.8173976392976043, 0.13420757995327057, 0.9999377972961766, -0.004352227397907281, -0.009388168303915338, 0.004161964805754594)",0.17999982833899997,-0.749999999997,0.09000015258799998,0.004999998956899995,0.006999999284999975,-0.005000010132999999
1522706292.5,21382,1522677492,487456083,,2776651,1522677489,547132289,,0.794157380515,-0.449440642735,0.127946695647,0.0308681258868,0.999451090677,-0.0100526767881,0.006604531595890001,-0.004769154864149999,0.0032037356353699998,-0.0129435583718,-0.013443910834299999,0.0224425252732,0.015315358017899999,0.630830109119,-0.44270879030199994,7.063152790069999,0.802813351154,0.24723097681999998,0.37297999858900005,1098326,1522677489,551000064,,['l_gripper_l_finger_joint'],"(0.0032494800670444966,)","(0.0,)","(0.0,)",2757934,1522677492,480622192,robotiq_force_torque_frame_id,0.536000013351,0.07300014495849999,0.546000671387,-0.039000000804699994,-0.20800000429200002,-0.131999999285,0.0,0.0,0.0,0.0,0.0,0.0,0.0,0.0,0.0,0.0,3,"(0.5282605997723452, -0.8173976392976043, 0.13420757995327057, 0.9999377972961766, -0.004352227397907281, -0.009388168303915338, 0.004161964805754594)",-0.190000057221,-0.31999969482449997,0.13999938964900005,-0.006000000983499988,0.001999989150999998,0.010000005364000003
1522706292.5,21383,1522677492,497453927,,2776652,1522677489,557116256,,0.794800544351,-0.449046156101,0.128138503234,0.0301730631328,0.999465192641,-0.0103437431919,0.00720568780316,-0.00996730419756,0.006942522684329999,-0.010335280984,0.0213499207773,0.0217481172265,0.0222289242163,0.919646322727,-0.41098880767800006,6.995167255399999,0.8017926812170001,0.373490929604,0.386061161757,2777002,1522677489,555213535,,"['head_nod', 'head_pan', 'left_e0', 'left_e1', 'left_s0', 'left_s1', 'left_w0', 'left_w1', 'left_w2', 'right_e0', 'right_e1', 'right_s0', 'right_s1', 'right_w0', 'right_w1', 'right_w2', 'torso_t0']","(0.0, -0.10085923680346595, -0.9065826456402796, 1.50176719133982, 0.27880100819817394, 0.6446554261088451, 2.3420051679040554, -0.48780589054756157, -0.03298058693953639, 0.4655631691232231, 0.9238399295039904, 0.3144660615165098, -0.7067816480182044, -0.3723738362591842, 1.4055098969000104, -0.03298058693953639, -12.565987119160338)","(0.0, 0.004319689897875668, -0.006283185306000972, 0.0047123889795007284, 0.0047123889795007284, 0.012566370612001944, 0.006675884387626033, 0.003141592653000486, -0.003141592653000486, 0.015707963265002428, 0.02120575040775328, -0.012959069693627005, 0.0070685834692510935, 0.0047123889795007284, 0.0011780972448751821, -0.018456856836377853, 0.0)","(0.0, 0.0, -14.684, 11.012, 0.28, 5.036, 0.084, -2.648, 0.4, 7.804, -16.044, -0.092, -28.76, 0.0, 0.228, -0.128, -20.48)",2757935,1522677492,492836962,robotiq_force_torque_frame_id,0.345999956131,0.053000164031999995,0.485999298096,-0.0340000018477,-0.211999997497,-0.118000000715,0.0,0.0,0.0,0.0,0.0,0.0,0.0,0.0,0.0,0.0,3,"(0.5282605997723452, -0.8173976392976043, 0.13420757995327057, 0.9999377972961766, -0.004352227397907281, -0.009388168303915338, 0.004161964805754594)",-0.19000005722000002,-0.019999980926499995,-0.060001373291000026,0.004999998956999992,-0.003999993204999969,0.013999998570000005
1522706292.51,21384,1522677492,507477998,,2776653,1522677489,567138732,,0.795175148652,-0.448187259983,0.128775648558,0.029951148338099996,0.999473122412,-0.00994694651055,0.00758053719697,0.006838530977460001,-0.00733789380974,0.006881892076579999,-0.0176932787328,-0.017676316845599997,-0.013645955583500001,0.828309476376,-0.280545145273,7.1083946228,0.727453947067,0.34706062078500005,0.3644490242,1098327,1522677489,568000000,,['r_gripper_l_finger_joint'],"(0.020050991371273995,)","(0.0,)","(0.0,)",2757936,1522677492,500996428,robotiq_force_torque_frame_id,0.885999917984,0.522999954224,0.206000518799,-0.0370000004768,-0.20800000429200002,-0.11400000006,0.0,0.0,0.0,0.0,0.0,0.0,0.0,0.0,0.0,0.0,3,"(0.5282605997723452, -0.8173976392976043, 0.13420757995327057, 0.9999377972961766, -0.004352227397907281, -0.009388168303915338, 0.004161964805754594)",0.539999961853,0.46999979019200006,-0.279998779297,-0.002999998629099998,0.003999993204999969,0.004000000655000002
1522706292.52,21385,1522677492,517453908,,2776654,1522677489,577129720,,0.7943072984199999,-0.44940076850199995,0.12825243052100002,0.0305244782025,0.999458745291,-0.010191456412899999,0.00682692517462,0.016743519707299998,0.003732003357,0.0165726832494,-0.00323388531877,-0.0403779156629,0.0116916992039,0.818510949612,-0.278013467789,6.98598527908,0.722826719284,0.313569754362,0.365617662668,2777004,1522677489,575180308,,"['head_nod', 'head_pan', 'left_e0', 'left_e1', 'left_s0', 'left_s1', 'left_w0', 'left_w1', 'left_w2', 'right_e0', 'right_e1', 'right_s0', 'right_s1', 'right_w0', 'right_w1', 'right_w2', 'torso_t0']","(0.0, -0.10085923680346595, -0.9061991504433081, 1.5021506865367915, 0.2784175130012026, 0.6450389213058165, 2.341621672707084, -0.48780589054756157, -0.03259709174256504, 0.4655631691232231, 0.9242234247009617, 0.3136990711225671, -0.7071651432151758, -0.37199034106221285, 1.406276887293953, -0.03298058693953639, -12.565987119160338)","(0.0, 0.0, 0.0011780972448751821, 0.004319689897875668, 0.0011780972448751821, 0.0023561944897503642, 0.018849555918002914, 0.009032078877376396, 0.006283185306000972, 0.010995574285501701, -0.0200276531628781, 0.004319689897875668, -0.012173671530376884, -0.001570796326500243, -0.007461282550876154, -0.006675884387626033, 0.0)","(0.0, 0.0, -14.652, 10.948, 0.308, 5.068, 0.112, -2.676, 0.42, 7.804, -16.044, -0.028, -28.792, -0.008, 0.208, -0.112, -20.48)",2757937,1522677492,513195978,robotiq_force_torque_frame_id,0.8360002040860001,0.573000144958,0.165999603271,-0.039000000804699994,-0.204999998212,-0.119999997318,0.0,0.0,0.0,0.0,0.0,0.0,0.0,0.0,0.0,0.0,3,"(0.5282605997723452, -0.8173976392976043, 0.13420757995327057, 0.9999377972961766, -0.004352227397907281, -0.009388168303915338, 0.004161964805754594)",-0.04999971389799995,0.05000019073399997,-0.040000915528,-0.0020000003278999937,0.003000006080000034,-0.005999997258000003
1522706292.53,21386,1522677492,527489900,,2776655,1522677489,587130459,,0.7943361678749999,-0.44963036844899995,0.12820236218599998,0.0312808289474,0.9994366544419999,-0.00995669567778,0.006981955985020001,-0.00315289397398,0.00729237278126,0.00253880549041,-0.0008182975644380001,0.013946547771299998,0.0042187728698,1.1920845508600002,-0.47405922412900003,7.067915439610001,0.7907562255859999,0.47413083910899995,0.367989808321,2777004,1522677489,575180308,,"['head_nod', 'head_pan', 'left_e0', 'left_e1', 'left_s0', 'left_s1', 'left_w0', 'left_w1', 'left_w2', 'right_e0', 'right_e1', 'right_s0', 'right_s1', 'right_w0', 'right_w1', 'right_w2', 'torso_t0']","(0.0, -0.10085923680346595, -0.9061991504433081, 1.5021506865367915, 0.2784175130012026, 0.6450389213058165, 2.341621672707084, -0.48780589054756157, -0.03259709174256504, 0.4655631691232231, 0.9242234247009617, 0.3136990711225671, -0.7071651432151758, -0.37199034106221285, 1.406276887293953, -0.03298058693953639, -12.565987119160338)","(0.0, 0.0, 0.0011780972448751821, 0.004319689897875668, 0.0011780972448751821, 0.0023561944897503642, 0.018849555918002914, 0.009032078877376396, 0.006283185306000972, 0.010995574285501701, -0.0200276531628781, 0.004319689897875668, -0.012173671530376884, -0.001570796326500243, -0.007461282550876154, -0.006675884387626033, 0.0)","(0.0, 0.0, -14.652, 10.948, 0.308, 5.068, 0.112, -2.676, 0.42, 7.804, -16.044, -0.028, -28.792, -0.008, 0.208, -0.112, -20.48)",2757938,1522677492,521337993,robotiq_force_torque_frame_id,0.516000032425,0.372999858856,0.165999603271,-0.0370000004768,-0.207000002265,-0.11299999803300001,0.0,0.0,0.0,0.0,0.0,0.0,0.0,0.0,0.0,0.0,3,"(0.5282605997723452, -0.8173976392976043, 0.13420757995327057, 0.9999377972961766, -0.004352227397907281, -0.009388168303915338, 0.004161964805754594)",-0.32000017166100003,-0.200000286102,0.0,0.0020000003278999937,-0.0020000040530000207,0.006999999284999989
1522706292.57,21387,1522677492,537446022,,2776656,1522677489,597122273,,0.7949419440809999,-0.44864816743299996,0.128822597793,0.030183179323700002,0.9994667647679999,-0.009993316312540001,0.00743609030465,-0.0109320320383,0.00979666849087,-0.0164367086879,0.0089250826564,0.0318442798401,0.0196191606097,0.83765399456,-0.263077050447,7.0483608245800005,0.720084786415,0.325406730175,0.35968059301399996,2777004,1522677489,575180308,,"['head_nod', 'head_pan', 'left_e0', 'left_e1', 'left_s0', 'left_s1', 'left_w0', 'left_w1', 'left_w2', 'right_e0', 'right_e1', 'right_s0', 'right_s1', 'right_w0', 'right_w1', 'right_w2', 'torso_t0']","(0.0, -0.10085923680346595, -0.9061991504433081, 1.5021506865367915, 0.2784175130012026, 0.6450389213058165, 2.341621672707084, -0.48780589054756157, -0.03259709174256504, 0.4655631691232231, 0.9242234247009617, 0.3136990711225671, -0.7071651432151758, -0.37199034106221285, 1.406276887293953, -0.03298058693953639, -12.565987119160338)","(0.0, 0.0, 0.0011780972448751821, 0.004319689897875668, 0.0011780972448751821, 0.0023561944897503642, 0.018849555918002914, 0.009032078877376396, 0.006283185306000972, 0.010995574285501701, -0.0200276531628781, 0.004319689897875668, -0.012173671530376884, -0.001570796326500243, -0.007461282550876154, -0.006675884387626033, 0.0)","(0.0, 0.0, -14.652, 10.948, 0.308, 5.068, 0.112, -2.676, 0.42, 7.804, -16.044, -0.028, -28.792, -0.008, 0.208, -0.112, -20.48)",2757939,1522677492,533540266,robotiq_force_torque_frame_id,1.03600001335,-0.306999969482,0.226000976563,-0.035000000148999996,-0.209000006318,-0.11100000143100001,0.0,0.0,0.0,0.0,0.0,0.0,0.0,0.0,0.0,0.0,3,"(0.7024095404966024, -0.1174017737801253, 0.0336742520002795, -0.11804593225734603, 0.9925762301672101, 0.029283038476972945, -0.00029806391913546164)",0.519999980925,-0.679999828338,0.060001373292000004,0.002000000327800004,-0.002000004052999993,0.0019999966019999954
1522706292.57,21388,1522677492,547451972,,2776657,1522677489,607117246,,0.794089628249,-0.44969030459799997,0.127986677022,0.0309917075953,0.9994453628159999,-0.0103272609409,0.00646749470449,0.00144858955459,-0.000389513449677,0.0065223775133699995,-0.00548676997376,-0.005267140926689999,-0.000594996874621,0.6637380719179999,-0.22681181132800002,6.959623336789999,0.6837849617,0.22658035159099998,0.37496995925899995,2777007,1522677489,605239517,,"['head_nod', 'head_pan', 'left_e0', 'left_e1', 'left_s0', 'left_s1', 'left_w0', 'left_w1', 'left_w2', 'right_e0', 'right_e1', 'right_s0', 'right_s1', 'right_w0', 'right_w1', 'right_w2', 'torso_t0']","(0.0, -0.1012427320004373, -0.9069661408372509, 1.5021506865367915, 0.27880100819817394, 0.6454224165027879, 2.3420051679040554, -0.48780589054756157, -0.03298058693953639, 0.464412683532309, 0.9238399295039904, 0.31408256631953846, -0.7067816480182044, -0.37160684586524145, 1.4066603824909245, -0.03259709174256504, -12.565987119160338)","(0.0, -0.007461282550876154, -0.005890486224375911, 0.004319689897875668, -0.01649336142825255, -0.006283185306000972, 0.022383847652628464, -0.018456856836377853, -0.008639379795751335, -0.0035342917346255468, -0.0011780972448751821, 0.0035342917346255468, -0.009817477040626518, 0.0011780972448751821, 0.0035342917346255468, 0.0011780972448751821, 0.0)","(0.0, 0.0, -14.428, 10.916, 0.216, 5.068, 0.084, -2.616, 0.392, 7.772, -16.044, 0.0, -28.848, -0.008, 0.18, -0.128, -20.48)",2757940,1522677492,541696596,robotiq_force_torque_frame_id,1.16600012779,-0.536999988556,0.325999450684,-0.0320000015199,-0.209000006318,-0.11100000143100001,0.0,0.0,0.0,0.0,0.0,0.0,0.0,0.0,0.0,0.0,3,"(0.7024095404966024, -0.1174017737801253, 0.0336742520002795, -0.11804593225734603, 0.9925762301672101, 0.029283038476972945, -0.00029806391913546164)",0.13000011444000004,-0.23000001907399997,0.09999847412099999,0.002999998629099998,0.0,0.0
1522706292.57,21389,1522677492,557446002,,2776658,1522677489,617122630,,0.7943260296439999,-0.448370019868,0.128368853172,0.0301073338927,0.999474065739,-0.010045217866,0.00665086154883,-0.0108640037303,-0.0148521809256,-0.00258350707393,0.000244733584483,0.018786658122099998,-0.013791584293200002,0.821120321751,-0.24313715100299998,6.951981544489999,0.697755515575,0.28924161195799997,0.386842191219,1098329,1522677489,619000064,,['r_gripper_l_finger_joint'],"(0.020050991371273995,)","(0.0,)","(0.0,)",2757941,1522677492,553895949,robotiq_force_torque_frame_id,0.8360002040860001,-0.35700016021700004,0.176001739502,-0.0309999994934,-0.20800000429200002,-0.11500000208599999,0.0,0.0,0.0,0.0,0.0,0.0,0.0,0.0,0.0,0.0,3,"(0.7024095404966024, -0.1174017737801253, 0.0336742520002795, -0.11804593225734603, 0.9925762301672101, 0.029283038476972945, -0.00029806391913546164)",-0.329999923704,0.1799998283389999,-0.149997711182,0.0010000020264999965,0.0010000020259999798,-0.0040000006549999745
1522706292.61,21390,1522677492,567487001,,2776659,1522677489,627114896,,0.7943130513429999,-0.44989942474100003,0.12824828901,0.0309610228004,0.999441012719,-0.010609501643299999,0.006820237398600001,-0.006382646998029999,-0.0021946995647500003,-0.0052384836256,-0.0005106349079040001,0.0138337887629,-0.00248854174705,0.908015608788,-0.24018549919100002,6.927093505860001,0.675576508045,0.335234493017,0.361997663975,2777009,1522677489,625185950,,"['head_nod', 'head_pan', 'left_e0', 'left_e1', 'left_s0', 'left_s1', 'left_w0', 'left_w1', 'left_w2', 'right_e0', 'right_e1', 'right_s0', 'right_s1', 'right_w0', 'right_w1', 'right_w2', 'torso_t0']","(0.0, -0.1012427320004373, -0.9069661408372509, 1.5013836961428486, 0.27880100819817394, 0.6450389213058165, 2.3420051679040554, -0.48780589054756157, -0.03259709174256504, 0.464412683532309, 0.9238399295039904, 0.31408256631953846, -0.7071651432151758, -0.37199034106221285, 1.406276887293953, -0.03259709174256504, -12.565987119160338)","(0.0, 0.0023561944897503642, -0.001570796326500243, 0.008246680714126275, 0.009817477040626518, -0.013351768775252066, 0.007461282550876154, 0.009817477040626518, 0.0019634954081253035, -0.0027488935713754254, 0.01021017612225158, -0.003141592653000486, 0.0019634954081253035, -0.0011780972448751821, 0.001570796326500243, 0.0011780972448751821, 0.0)","(0.0, 0.0, -14.62, 10.916, 0.308, 5.068, 0.096, -2.636, 0.392, 7.744, -16.044, 0.028, -28.792, -0.016, 0.188, -0.12, -20.48)",2757942,1522677492,562046028,robotiq_force_torque_frame_id,0.375999927521,-0.527000236511,0.026000213623,-0.032999999821200006,-0.211999997497,-0.119000002742,0.0,0.0,0.0,0.0,0.0,0.0,0.0,0.0,0.0,0.0,3,"(0.7024095404966024, -0.1174017737801253, 0.0336742520002795, -0.11804593225734603, 0.9925762301672101, 0.029283038476972945, -0.00029806391913546164)",-0.4600002765650001,-0.170000076294,-0.15000152587899998,-0.002000000327800004,-0.003999993204999969,-0.004000000656000008
1522706292.61,21391,1522677492,577435970,,2776660,1522677489,637117160,,0.7948474261399999,-0.449241952923,0.12891470461500001,0.0305071631182,0.999452328565,-0.010512674898700001,0.00733754667317,0.00858238543531,-0.00217695470918,0.0060928059210699995,0.0056299870319899996,-0.0218952813234,-0.0339172688837,1.40326189995,-0.43530428409599997,7.12609863281,0.800471305847,0.557359576225,0.36995750665700006,2777009,1522677489,625185950,,"['head_nod', 'head_pan', 'left_e0', 'left_e1', 'left_s0', 'left_s1', 'left_w0', 'left_w1', 'left_w2', 'right_e0', 'right_e1', 'right_s0', 'right_s1', 'right_w0', 'right_w1', 'right_w2', 'torso_t0']","(0.0, -0.1012427320004373, -0.9069661408372509, 1.5013836961428486, 0.27880100819817394, 0.6450389213058165, 2.3420051679040554, -0.48780589054756157, -0.03259709174256504, 0.464412683532309, 0.9238399295039904, 0.31408256631953846, -0.7071651432151758, -0.37199034106221285, 1.406276887293953, -0.03259709174256504, -12.565987119160338)","(0.0, 0.0023561944897503642, -0.001570796326500243, 0.008246680714126275, 0.009817477040626518, -0.013351768775252066, 0.007461282550876154, 0.009817477040626518, 0.0019634954081253035, -0.0027488935713754254, 0.01021017612225158, -0.003141592653000486, 0.0019634954081253035, -0.0011780972448751821, 0.001570796326500243, 0.0011780972448751821, 0.0)","(0.0, 0.0, -14.62, 10.916, 0.308, 5.068, 0.096, -2.636, 0.392, 7.744, -16.044, 0.028, -28.792, -0.016, 0.188, -0.12, -20.48)",2757943,1522677492,574252718,robotiq_force_torque_frame_id,-0.00399994850159,-0.42699985504199994,0.165999603271,-0.0289999991655,-0.20999999344300002,-0.128999993205,0.0,0.0,0.0,0.0,0.0,0.0,0.0,0.0,0.0,0.0,3,"(0.7024095404966024, -0.1174017737801253, 0.0336742520002795, -0.11804593225734603, 0.9925762301672101, 0.029283038476972945, -0.00029806391913546164)",-0.37999987602259,0.10000038146900009,0.139999389648,0.004000000655700005,0.002000004053999971,-0.009999990463
1522706292.61,21392,1522677492,587435960,,2776661,1522677489,647121882,,0.7942638378479999,-0.449649747284,0.128514927419,0.030883880603700002,0.999449509484,-0.0100235498516,0.00681119375481,-5.60051623959e-05,0.00982471814296,-0.00505301080398,0.00564140193659,0.00739324464013,0.009254194180580001,1.55422353745,-0.48602616787,7.0831046104399995,0.797868251801,0.570575296879,0.37831479311,2777009,1522677489,625185950,,"['head_nod', 'head_pan', 'left_e0', 'left_e1', 'left_s0', 'left_s1', 'left_w0', 'left_w1', 'left_w2', 'right_e0', 'right_e1', 'right_s0', 'right_s1', 'right_w0', 'right_w1', 'right_w2', 'torso_t0']","(0.0, -0.1012427320004373, -0.9069661408372509, 1.5013836961428486, 0.27880100819817394, 0.6450389213058165, 2.3420051679040554, -0.48780589054756157, -0.03259709174256504, 0.464412683532309, 0.9238399295039904, 0.31408256631953846, -0.7071651432151758, -0.37199034106221285, 1.406276887293953, -0.03259709174256504, -12.565987119160338)","(0.0, 0.0023561944897503642, -0.001570796326500243, 0.008246680714126275, 0.009817477040626518, -0.013351768775252066, 0.007461282550876154, 0.009817477040626518, 0.0019634954081253035, -0.0027488935713754254, 0.01021017612225158, -0.003141592653000486, 0.0019634954081253035, -0.0011780972448751821, 0.001570796326500243, 0.0011780972448751821, 0.0)","(0.0, 0.0, -14.62, 10.916, 0.308, 5.068, 0.096, -2.636, 0.392, 7.744, -16.044, 0.028, -28.792, -0.016, 0.188, -0.12, -20.48)",2757944,1522677492,582386761,robotiq_force_torque_frame_id,-0.28399991989100004,-0.536999988556,0.23599929809599998,-0.0340000018477,-0.211999997497,-0.131999999285,0.0,0.0,0.0,0.0,0.0,0.0,0.0,0.0,0.0,0.0,3,"(0.7024095404966024, -0.1174017737801253, 0.0336742520002795, -0.11804593225734603, 0.9925762301672101, 0.029283038476972945, -0.00029806391913546164)",-0.27999997138941,-0.11000013351400001,0.06999969482499999,-0.005000002682200001,-0.002000004053999971,-0.003000006080000006
1522706292.61,21393,1522677492,597460985,,2776662,1522677489,657114822,,0.7944020074600001,-0.450410790145,0.12825869194,0.0315068884303,0.999424977456,-0.0103860054909,0.007011512535390001,-0.00034885031802599995,0.00681830290042,-4.16567347163e-06,0.0193256677478,0.0072949433725400005,0.000545847916036,1.0460973978,-0.439877152443,6.91224145889,0.771353065968,0.38651227951,0.366545140743,2777012,1522677489,655210033,,"['head_nod', 'head_pan', 'left_e0', 'left_e1', 'left_s0', 'left_s1', 'left_w0', 'left_w1', 'left_w2', 'right_e0', 'right_e1', 'right_s0', 'right_s1', 'right_w0', 'right_w1', 'right_w2', 'torso_t0']","(0.0, -0.1012427320004373, -0.9065826456402796, 1.5021506865367915, 0.27880100819817394, 0.6446554261088451, 2.3423886631010267, -0.48703890015361884, -0.03298058693953639, 0.464412683532309, 0.9230729391100477, 0.3133155759255958, -0.7067816480182044, -0.37160684586524145, 1.406276887293953, -0.03259709174256504, -12.565987119160338)","(0.0, 0.0047123889795007284, -0.00039269908162506076, 0.01531526418337737, -0.007853981632501214, -0.018456856836377853, -0.018456856836377853, -0.005890486224375911, -0.009424777959001457, 0.013744467856877126, -0.018849555918002914, -0.003141592653000486, 0.012173671530376884, 0.005497787142750851, 0.019242254999627974, -0.0023561944897503642, 0.0)","(0.0, 0.0, -14.72, 10.916, 0.34, 5.1, 0.096, -2.656, 0.4, 7.712, -16.072, -0.092, -28.76, -0.008, 0.188, -0.12, -20.48)",2757945,1522677492,594594150,robotiq_force_torque_frame_id,-0.503999948502,-0.487000274658,0.26600189209,-0.0439999997616,-0.216000005603,-0.118000000715,0.0,0.0,0.0,0.0,0.0,0.0,0.0,0.0,0.0,0.0,3,"(0.7024095404966024, -0.1174017737801253, 0.0336742520002795, -0.11804593225734603, 0.9925762301672101, 0.029283038476972945, -0.00029806391913546164)",-0.220000028611,0.04999971389799995,0.030002593994000043,-0.009999997913900001,-0.004000008106000014,0.013999998570000005
1522706292.65,21394,1522677492,607441902,,2776663,1522677489,667118655,,0.794298801703,-0.44966365964599997,0.128084499009,0.0307134110055,0.999452599889,-0.010265207625899999,0.0067684911475599996,-0.002279925704,-0.0011424177353800001,-0.00399122209035,0.000700839180162,0.007476138309329999,0.0101438981776,0.544111251831,-0.213472723961,6.8492732048,0.68560141325,0.16913190484,0.36206606030500005,1098331,1522677489,670000128,,['r_gripper_l_finger_joint'],"(0.020050991371273995,)","(0.0,)","(0.0,)",2757946,1522677492,602739719,robotiq_force_torque_frame_id,-0.0439999103546,-0.247000026703,0.28600234985399997,-0.0430000014603,-0.211999997497,-0.11400000006,0.0,0.0,0.0,0.0,0.0,0.0,0.0,0.0,0.0,0.0,3,"(0.7024095404966024, -0.1174017737801253, 0.0336742520002795, -0.11804593225734603, 0.9925762301672101, 0.029283038476972945, -0.00029806391913546164)",0.46000003814740004,0.240000247955,0.020000457763999946,0.0009999983013000008,0.004000008106000014,0.004000000655000002
1522706292.65,21395,1522677492,617446899,,2776664,1522677489,677119570,,0.7945623352940001,-0.449334281722,0.128244577774,0.030444235918,0.9994592032260001,-0.0102454291825,0.0070342566321200005,0.008842849388040001,-0.0114209730305,0.019032785267199998,-0.0159435972949,-0.0338045844579,-0.00260693910965,0.681111335754,-0.312206625938,6.8806853294399986,0.726145803928,0.257053881884,0.378702104092,2777014,1522677489,675205867,,"['head_nod', 'head_pan', 'left_e0', 'left_e1', 'left_s0', 'left_s1', 'left_w0', 'left_w1', 'left_w2', 'right_e0', 'right_e1', 'right_s0', 'right_s1', 'right_w0', 'right_w1', 'right_w2', 'torso_t0']","(0.0, -0.10085923680346595, -0.9061991504433081, 1.5013836961428486, 0.2791845033951453, 0.6446554261088451, 2.3412381775101125, -0.48780589054756157, -0.033364082136507746, 0.464412683532309, 0.9238399295039904, 0.3144660615165098, -0.7071651432151758, -0.3712233506682701, 1.4058933920969816, -0.033364082136507746, -12.565987119160338)","(0.0, 0.013351768775252066, -0.013351768775252066, -0.021598449489378342, 0.007461282550876154, -0.0011780972448751821, 0.014922565101752308, -0.027881634795379313, -0.0027488935713754254, -0.0011780972448751821, -0.004319689897875668, -0.007853981632501214, -0.02631083846887907, -0.0019634954081253035, -0.0070685834692510935, -0.0070685834692510935, 0.0)","(0.0, 0.0, -14.556, 10.948, 0.308, 5.068, 0.096, -2.648, 0.408, 7.744, -16.012, -0.06, -28.76, -0.008, 0.2, -0.128, -20.48)",2757947,1522677492,614944492,robotiq_force_torque_frame_id,-0.21399998664900002,0.16299982070900002,0.356002044678,-0.0489999987185,-0.204999998212,-0.118000000715,0.0,0.0,0.0,0.0,0.0,0.0,0.0,0.0,0.0,0.0,3,"(0.7024095404966024, -0.1174017737801253, 0.0336742520002795, -0.11804593225734603, 0.9925762301672101, 0.029283038476972945, -0.00029806391913546164)",-0.17000007629440003,0.409999847412,0.06999969482400004,-0.005999997258199996,0.006999999285000003,-0.004000000655000002
1522706292.65,21396,1522677492,627465963,,2776665,1522677489,687139944,,0.795074715995,-0.449618279354,0.12870225357,0.030653486507900004,0.999445362884,-0.010556047858899999,0.00760921991931,0.010015401146600001,-0.00792575809064,0.012594291948500001,-0.0363027351057,-0.026159415491,0.0006657246857259999,0.7967421412469999,-0.315979540348,6.89530563354,0.747718393803,0.32366105914099996,0.36819070577600005,2777014,1522677489,675205867,,"['head_nod', 'head_pan', 'left_e0', 'left_e1', 'left_s0', 'left_s1', 'left_w0', 'left_w1', 'left_w2', 'right_e0', 'right_e1', 'right_s0', 'right_s1', 'right_w0', 'right_w1', 'right_w2', 'torso_t0']","(0.0, -0.10085923680346595, -0.9061991504433081, 1.5013836961428486, 0.2791845033951453, 0.6446554261088451, 2.3412381775101125, -0.48780589054756157, -0.033364082136507746, 0.464412683532309, 0.9238399295039904, 0.3144660615165098, -0.7071651432151758, -0.3712233506682701, 1.4058933920969816, -0.033364082136507746, -12.565987119160338)","(0.0, 0.013351768775252066, -0.013351768775252066, -0.021598449489378342, 0.007461282550876154, -0.0011780972448751821, 0.014922565101752308, -0.027881634795379313, -0.0027488935713754254, -0.0011780972448751821, -0.004319689897875668, -0.007853981632501214, -0.02631083846887907, -0.0019634954081253035, -0.0070685834692510935, -0.0070685834692510935, 0.0)","(0.0, 0.0, -14.556, 10.948, 0.308, 5.068, 0.096, -2.648, 0.408, 7.744, -16.012, -0.06, -28.76, -0.008, 0.2, -0.128, -20.48)",2757948,1522677492,623080444,robotiq_force_torque_frame_id,-0.444000005722,0.20299978256200002,0.23599929809599998,-0.0480000004172,-0.19900000095400003,-0.11699999868899999,0.0,0.0,0.0,0.0,0.0,0.0,0.0,0.0,0.0,0.0,3,"(0.7024095404966024, -0.1174017737801253, 0.0336742520002795, -0.11804593225734603, 0.9925762301672101, 0.029283038476972945, -0.00029806391913546164)",-0.23000001907299997,0.039999961853000005,-0.12000274658200002,0.0009999983013000008,0.005999997257999962,0.0010000020260000075
1522706292.65,21397,1522677492,637445926,,2776666,1522677489,697126794,,0.79454324763,-0.4498813637100001,0.128218770011,0.0310001754874,0.99944266421,-0.0101117801218,0.007148564912010001,0.017184011816200002,-0.0028527259812199997,0.014677061857900001,-0.00517701666446,-0.0426870326875,-0.009937429404299999,0.537338733673,-0.173577845097,6.88183927536,0.659206867218,0.244777143002,0.35773018002499996,2777014,1522677489,675205867,,"['head_nod', 'head_pan', 'left_e0', 'left_e1', 'left_s0', 'left_s1', 'left_w0', 'left_w1', 'left_w2', 'right_e0', 'right_e1', 'right_s0', 'right_s1', 'right_w0', 'right_w1', 'right_w2', 'torso_t0']","(0.0, -0.10085923680346595, -0.9061991504433081, 1.5013836961428486, 0.2791845033951453, 0.6446554261088451, 2.3412381775101125, -0.48780589054756157, -0.033364082136507746, 0.464412683532309, 0.9238399295039904, 0.3144660615165098, -0.7071651432151758, -0.3712233506682701, 1.4058933920969816, -0.033364082136507746, -12.565987119160338)","(0.0, 0.013351768775252066, -0.013351768775252066, -0.021598449489378342, 0.007461282550876154, -0.0011780972448751821, 0.014922565101752308, -0.027881634795379313, -0.0027488935713754254, -0.0011780972448751821, -0.004319689897875668, -0.007853981632501214, -0.02631083846887907, -0.0019634954081253035, -0.0070685834692510935, -0.0070685834692510935, 0.0)","(0.0, 0.0, -14.556, 10.948, 0.308, 5.068, 0.096, -2.648, 0.408, 7.744, -16.012, -0.06, -28.76, -0.008, 0.2, -0.128, -20.48)",2757949,1522677492,635287553,robotiq_force_torque_frame_id,-0.0939998626709,-0.14700012207000002,0.016001892089799997,-0.0399999991059,-0.207000002265,-0.123000003397,0.0,0.0,0.0,0.0,0.0,0.0,0.0,0.0,0.0,0.0,3,"(0.7024095404966024, -0.1174017737801253, 0.0336742520002795, -0.11804593225734603, 0.9925762301672101, 0.029283038476972945, -0.00029806391913546164)",0.3500001430511,-0.34999990463200004,-0.2199974060062,0.0080000013113,-0.008000001310999982,-0.006000004708000009
1522706292.65,21398,1522677492,647423982,,2776667,1522677489,707123232,,0.7947816714229999,-0.450371114869,0.128690899337,0.0312854084306,0.999425209628,-0.010606704106100002,0.007613895689459999,-0.00550308873139,0.00107146277538,-0.0200918248633,0.0218904559013,0.0172240720255,-0.0111506163835,0.783715128899,-0.150745660067,6.90430164337,0.678412675858,0.328615158796,0.36237204074900004,2777017,1522677489,705209416,,"['head_nod', 'head_pan', 'left_e0', 'left_e1', 'left_s0', 'left_s1', 'left_w0', 'left_w1', 'left_w2', 'right_e0', 'right_e1', 'right_s0', 'right_s1', 'right_w0', 'right_w1', 'right_w2', 'torso_t0']","(0.0, -0.1012427320004373, -0.9069661408372509, 1.50176719133982, 0.27880100819817394, 0.6450389213058165, 2.341621672707084, -0.48703890015361884, -0.03298058693953639, 0.46479617872928036, 0.9234564343070191, 0.3133155759255958, -0.7075486384121471, -0.37199034106221285, 1.4055098969000104, -0.03259709174256504, -12.565987119160338)","(0.0, 0.0035342917346255468, 0.0, 0.009032078877376396, -0.001570796326500243, 0.004319689897875668, -0.006283185306000972, 0.0027488935713754254, 0.004319689897875668, -0.015707963265002428, 0.00510508806112579, -0.0019634954081253035, 0.024347343060753767, 0.022383847652628464, -0.012566370612001944, -0.0023561944897503642, 0.0)","(0.0, 0.0, -14.62, 10.884, 0.216, 5.1, 0.104, -2.684, 0.4, 7.804, -15.984, 0.06, -28.732, 0.0, 0.228, -0.112, -20.48)",2757950,1522677492,643416937,robotiq_force_torque_frame_id,0.105999946594,-0.576999950409,-0.0140007019043,-0.0430000014603,-0.20800000429200002,-0.128999993205,0.0,0.0,0.0,0.0,0.0,0.0,0.0,0.0,0.0,0.0,3,"(0.7024095404966024, -0.1174017737801253, 0.0336742520002795, -0.11804593225734603, 0.9925762301672101, 0.029283038476972945, -0.00029806391913546164)",0.19999980926490002,-0.42999982833899997,-0.030002593994099998,-0.003000002354400004,-0.0010000020270000132,-0.0059999898079999975
