time,.header.seq,.header.stamp.secs,.header.stamp.nsecs,.header.frame_id,.endpoint_state.header.seq,.endpoint_state.header.stamp.secs,.endpoint_state.header.stamp.nsecs,.endpoint_state.header.frame_id,.endpoint_state.pose.position.x,.endpoint_state.pose.position.y,.endpoint_state.pose.position.z,.endpoint_state.pose.orientation.x,.endpoint_state.pose.orientation.y,.endpoint_state.pose.orientation.z,.endpoint_state.pose.orientation.w,.endpoint_state.twist.linear.x,.endpoint_state.twist.linear.y,.endpoint_state.twist.linear.z,.endpoint_state.twist.angular.x,.endpoint_state.twist.angular.y,.endpoint_state.twist.angular.z,.endpoint_state.wrench.force.x,.endpoint_state.wrench.force.y,.endpoint_state.wrench.force.z,.endpoint_state.wrench.torque.x,.endpoint_state.wrench.torque.y,.endpoint_state.wrench.torque.z,.joint_state.header.seq,.joint_state.header.stamp.secs,.joint_state.header.stamp.nsecs,.joint_state.header.frame_id,.joint_state.name,.joint_state.position,.joint_state.velocity,.joint_state.effort,.wrench_stamped.header.seq,.wrench_stamped.header.stamp.secs,.wrench_stamped.header.stamp.nsecs,.wrench_stamped.header.frame_id,.wrench_stamped.wrench.force.x,.wrench_stamped.wrench.force.y,.wrench_stamped.wrench.force.z,.wrench_stamped.wrench.torque.x,.wrench_stamped.wrench.torque.y,.wrench_stamped.wrench.torque.z,.tactile_values.tactile_values_0,.tactile_values.tactile_values_1,.tactile_values.tactile_values_2,.tactile_values.tactile_values_3,.tactile_values.tactile_values_4,.tactile_values.tactile_values_5,.tactile_values.tactile_values_6,.tactile_values.tactile_values_7,.tactile_values.tactile_values_8,.tactile_values.tactile_values_9,.tag,.goal_vector,.delta_wrench.force.x,.delta_wrench.force.y,.delta_wrench.force.z,.delta_wrench.torque.x,.delta_wrench.torque.y,.delta_wrench.torque.z
1522706750.35,20566,1522677950,345436096,,2822434,1522677947,377118629,,0.795327815877,-0.450631904893,0.128917273608,0.031760013418099996,0.999404617537,-0.010618163321200002,0.00830461327173,0.000222572248034,0.022741835846,0.0036685285389000005,0.012641425479600002,0.00826491687337,0.038481802974,1.2739071845999999,-0.283736586571,6.787408351900001,0.692760825157,0.472433567047,0.34860438108400005,1116446,1522677947,393999872,,['l_gripper_l_finger_joint'],"(0.0032494800670444966,)","(0.0,)","(0.0,)",2803670,1522677950,343609938,robotiq_force_torque_frame_id,1.41900001168,1.2259999752,-0.534998703003,-0.05099999904630001,-0.184000000358,-0.130999997258,0.0,0.0,0.0,0.0,0.0,0.0,0.0,0.0,0.0,0.0,3,"(0.5282605997723452, -0.8173976392976043, 0.13420757995327057, 0.9999377972961765, -0.004352227397903713, -0.009388168303919133, 0.0041619648057520916)",0.0,0.0,0.0,0.0,0.0,0.0
1522706750.36,20567,1522677950,355454921,,2822435,1522677947,387140009,,0.795262712802,-0.451016550167,0.129096368312,0.0318974837397,0.999401127359,-0.010499494847799998,0.00834851915321,-0.00654576189747,-0.0025631955754,-0.013531753591499999,-0.00810233249305,0.0188605914097,-0.00211658191475,1.27946615219,-0.401079982519,6.74258852005,0.770756542683,0.466377288103,0.362310528755,1116447,1522677947,403000064,,['r_gripper_l_finger_joint'],"(0.019983251598477365,)","(0.0,)","(0.0,)",2803670,1522677950,343609938,robotiq_force_torque_frame_id,1.41900001168,1.2259999752,-0.534998703003,-0.05099999904630001,-0.184000000358,-0.130999997258,0.0,0.0,0.0,0.0,0.0,0.0,0.0,0.0,0.0,0.0,3,"(0.5282605997723452, -0.8173976392976043, 0.13420757995327057, 0.9999377972961765, -0.004352227397903713, -0.009388168303919133, 0.0041619648057520916)",0.0,0.0,0.0,0.0,0.0,0.0
1522706750.37,20568,1522677950,365416049,,2822436,1522677947,397117625,,0.7957786546160001,-0.449451005951,0.12892385577999999,0.031158622038400002,0.999426141905,-0.0100313978874,0.00871195765948,0.00119358473166,-0.0041924608086500005,0.0011114404858099999,-0.00746060441372,-0.0015656002015999998,-0.00254721552481,1.14985775948,-0.375553905964,6.7931790351900005,0.778814911842,0.417372554541,0.37748202681500004,2822787,1522677947,405189674,,"['head_nod', 'head_pan', 'left_e0', 'left_e1', 'left_s0', 'left_s1', 'left_w0', 'left_w1', 'left_w2', 'right_e0', 'right_e1', 'right_s0', 'right_s1', 'right_w0', 'right_w1', 'right_w2', 'torso_t0']","(0.0, -0.10085923680346595, -0.9073496360342223, 1.50176719133982, 0.27880100819817394, 0.6446554261088451, 2.3412381775101125, -0.48780589054756157, -0.03259709174256504, 0.4655631691232231, 0.922305948716105, 0.3121650903346817, -0.7075486384121471, -0.37160684586524145, 1.405126401703039, -0.032213596545593685, -12.565987119160338)","(0.0, 0.01727875959150267, -0.006675884387626033, 0.00510508806112579, 0.01649336142825255, -0.00039269908162506076, 0.024347343060753767, 0.008639379795751335, -0.005890486224375911, 0.024347343060753767, -0.014922565101752308, -0.0011780972448751821, -0.011388273367126762, 0.008639379795751335, -0.01531526418337737, 0.009817477040626518, 0.0)","(0.0, 0.0, -14.556, 10.948, 0.496, 5.036, 0.104, -2.656, 0.364, 7.804, -16.072, -0.06, -28.732, 0.0, 0.188, -0.14, -20.48)",2803672,1522677950,363958795,robotiq_force_torque_frame_id,1.3490000784399998,-0.363999938965,-0.424998092651,-0.0489999987185,-0.18999999761599998,-0.103000000119,0.0,0.0,0.0,0.0,0.0,0.0,0.0,0.0,0.0,0.0,3,"(0.5282605997723452, -0.8173976392976043, 0.13420757995327057, 0.9999377972961765, -0.004352227397903713, -0.009388168303919133, 0.0041619648057520916)",-0.06999993324000009,-1.5899999141649999,0.11000061035199998,0.002000000327800011,-0.005999997257999989,0.02799999713899999
1522706750.38,20569,1522677950,375463008,,2822438,1522677947,417116905,,0.79569959865,-0.450370608745,0.12927281057700002,0.0314831097953,0.9994091117139999,-0.010634763186299998,0.008783110617540002,0.0117951215988,0.00894759062199,0.0044630314549,0.00876513852482,-0.0287154464915,0.0274908788477,0.683098733425,-0.269265413284,6.764324188230001,0.70185571909,0.24451860785500001,0.340671807528,2822787,1522677947,405189674,,"['head_nod', 'head_pan', 'left_e0', 'left_e1', 'left_s0', 'left_s1', 'left_w0', 'left_w1', 'left_w2', 'right_e0', 'right_e1', 'right_s0', 'right_s1', 'right_w0', 'right_w1', 'right_w2', 'torso_t0']","(0.0, -0.10085923680346595, -0.9073496360342223, 1.50176719133982, 0.27880100819817394, 0.6446554261088451, 2.3412381775101125, -0.48780589054756157, -0.03259709174256504, 0.4655631691232231, 0.922305948716105, 0.3121650903346817, -0.7075486384121471, -0.37160684586524145, 1.405126401703039, -0.032213596545593685, -12.565987119160338)","(0.0, 0.01727875959150267, -0.006675884387626033, 0.00510508806112579, 0.01649336142825255, -0.00039269908162506076, 0.024347343060753767, 0.008639379795751335, -0.005890486224375911, 0.024347343060753767, -0.014922565101752308, -0.0011780972448751821, -0.011388273367126762, 0.008639379795751335, -0.01531526418337737, 0.009817477040626518, 0.0)","(0.0, 0.0, -14.556, 10.948, 0.496, 5.036, 0.104, -2.656, 0.364, 7.804, -16.072, -0.06, -28.732, 0.0, 0.188, -0.14, -20.48)",2803672,1522677950,363958795,robotiq_force_torque_frame_id,1.3490000784399998,-0.363999938965,-0.424998092651,-0.0489999987185,-0.18999999761599998,-0.103000000119,0.0,0.0,0.0,0.0,0.0,0.0,0.0,0.0,0.0,0.0,3,"(0.5282605997723452, -0.8173976392976043, 0.13420757995327057, 0.9999377972961765, -0.004352227397903713, -0.009388168303919133, 0.0041619648057520916)",0.0,0.0,0.0,0.0,0.0,0.0
1522706750.41,20570,1522677950,385411977,,2822439,1522677947,427126830,,0.7952623882780001,-0.449825944016,0.128460126772,0.031138515984900004,0.99943014591,-0.0102800984566,0.00800598799732,0.00794833962637,-0.00017434224866599997,0.0116566707661,-0.012222482735899999,-0.0211178639761,0.007756954112770001,0.8463064432140001,-0.34685146808600004,6.7988796234099995,0.73939627409,0.31082236766800003,0.36882805824299997,2822787,1522677947,405189674,,"['head_nod', 'head_pan', 'left_e0', 'left_e1', 'left_s0', 'left_s1', 'left_w0', 'left_w1', 'left_w2', 'right_e0', 'right_e1', 'right_s0', 'right_s1', 'right_w0', 'right_w1', 'right_w2', 'torso_t0']","(0.0, -0.10085923680346595, -0.9073496360342223, 1.50176719133982, 0.27880100819817394, 0.6446554261088451, 2.3412381775101125, -0.48780589054756157, -0.03259709174256504, 0.4655631691232231, 0.922305948716105, 0.3121650903346817, -0.7075486384121471, -0.37160684586524145, 1.405126401703039, -0.032213596545593685, -12.565987119160338)","(0.0, 0.01727875959150267, -0.006675884387626033, 0.00510508806112579, 0.01649336142825255, -0.00039269908162506076, 0.024347343060753767, 0.008639379795751335, -0.005890486224375911, 0.024347343060753767, -0.014922565101752308, -0.0011780972448751821, -0.011388273367126762, 0.008639379795751335, -0.01531526418337737, 0.009817477040626518, 0.0)","(0.0, 0.0, -14.556, 10.948, 0.496, 5.036, 0.104, -2.656, 0.364, 7.804, -16.072, -0.06, -28.732, 0.0, 0.188, -0.14, -20.48)",2803674,1522677950,384347182,robotiq_force_torque_frame_id,0.379000049829,-1.17399988174,0.06499977111819999,-0.05099999904630001,-0.19900000095400003,-0.097000002861,0.0,0.0,0.0,0.0,0.0,0.0,0.0,0.0,0.0,0.0,3,"(0.5282605997723452, -0.8173976392976043, 0.13420757995327057, 0.9999377972961765, -0.004352227397903713, -0.009388168303919133, 0.0041619648057520916)",-0.9700000286109998,-0.809999942775,0.4899978637692,-0.002000000327800011,-0.009000003338000051,0.005999997258000003
1522706750.41,20571,1522677950,395390987,,2822440,1522677947,437115572,,0.795393908881,-0.44990709572,0.128617658432,0.0314740781101,0.999419500405,-0.010072275306799999,0.00828214267262,-0.00958445360983,-0.0121756653521,-0.0119448018585,0.0123926435339,0.017558535675900003,-0.0237054718499,0.8062947988510001,-0.191780686378,6.79939556122,0.6643170118330001,0.289014577866,0.343157470226,1116448,1522677947,444000000,,['l_gripper_l_finger_joint'],"(0.0032494800670444966,)","(0.0,)","(0.0,)",2803675,1522677950,392473827,robotiq_force_torque_frame_id,0.839000087976,-0.40399990081799997,-0.014998245239299999,-0.05099999904630001,-0.18999999761599998,-0.09000000357629999,0.0,0.0,0.0,0.0,0.0,0.0,0.0,0.0,0.0,0.0,3,"(0.5282605997723452, -0.8173976392976043, 0.13420757995327057, 0.9999377972961765, -0.004352227397903713, -0.009388168303919133, 0.0041619648057520916)",0.460000038147,0.769999980922,-0.0799980163575,0.0,0.009000003338000051,0.006999999284700006
1522706750.41,20572,1522677950,405430078,,2822441,1522677947,447123403,,0.795689188646,-0.450158669877,0.128844925427,0.0315091478763,0.9994122612049999,-0.0104374761248,0.00856532806476,0.0005762221370619999,0.0142598257456,-0.00736577668829,0.00676187823199,0.007190466253,0.0144781522515,1.02430105209,-0.33524358272599997,6.732904911039999,0.7469589114190001,0.34135466814000004,0.366853415966,2822791,1522677947,445175037,,"['head_nod', 'head_pan', 'left_e0', 'left_e1', 'left_s0', 'left_s1', 'left_w0', 'left_w1', 'left_w2', 'right_e0', 'right_e1', 'right_s0', 'right_s1', 'right_w0', 'right_w1', 'right_w2', 'torso_t0']","(0.0, -0.1004757416064946, -0.9065826456402796, 1.50176719133982, 0.2784175130012026, 0.6442719309118737, 2.3427721582979983, -0.48742239535059023, -0.03259709174256504, 0.46479617872928036, 0.922305948716105, 0.3136990711225671, -0.7071651432151758, -0.37160684586524145, 1.4043594113090963, -0.032213596545593685, -12.565987119160338)","(0.0, -0.0070685834692510935, -0.007461282550876154, 0.0007853981632501215, -0.00039269908162506076, -0.018064157754752792, 0.0027488935713754254, -0.009032078877376396, 0.0, 0.01021017612225158, 0.006675884387626033, 0.01060287520387664, 0.009424777959001457, -0.00510508806112579, -0.004319689897875668, 0.005890486224375911, 0.0)","(0.0, 0.0, -14.62, 10.916, 0.496, 5.004, 0.104, -2.656, 0.392, 7.772, -16.044, -0.028, -28.672, 0.0, 0.14, -0.112, -20.48)",2803676,1522677950,404684268,robotiq_force_torque_frame_id,0.748999935389,0.055999898910499994,-0.164999771118,-0.052999999374199996,-0.18500000238400002,-0.09399999678130001,0.0,0.0,0.0,0.0,0.0,0.0,0.0,0.0,0.0,0.0,3,"(0.5282605997723452, -0.8173976392976043, 0.13420757995327057, 0.9999377972961765, -0.004352227397903713, -0.009388168303919133, 0.0041619648057520916)",-0.090000152587,0.45999979972849997,-0.1500015258787,-0.0020000003278999867,0.004999995231999954,-0.003999993205000024
1522706750.45,20573,1522677950,415421962,,2822442,1522677947,457120074,,0.795504313276,-0.44995405843099995,0.128502023224,0.0312880104265,0.9994222398999999,-0.010390138860899999,0.00826388597794,-0.00354285295514,0.0248378143133,-0.016167496542,0.019080640131000002,0.0253753404439,0.018614603775599998,1.21492516994,-0.232346832752,6.77747440338,0.6192278862,0.440063208342,0.33319914340999995,2822792,1522677947,455178253,,"['head_nod', 'head_pan', 'left_e0', 'left_e1', 'left_s0', 'left_s1', 'left_w0', 'left_w1', 'left_w2', 'right_e0', 'right_e1', 'right_s0', 'right_s1', 'right_w0', 'right_w1', 'right_w2', 'torso_t0']","(0.0, -0.1004757416064946, -0.9065826456402796, 1.5013836961428486, 0.2784175130012026, 0.6446554261088451, 2.3431556534949696, -0.48742239535059023, -0.032213596545593685, 0.4651796739262517, 0.9226894439130764, 0.3136990711225671, -0.7067816480182044, -0.37199034106221285, 1.4043594113090963, -0.032213596545593685, -12.565987119160338)","(0.0, 0.008246680714126275, 0.012959069693627005, -0.01610066234662749, 0.0019634954081253035, 0.014922565101752308, -0.01021017612225158, 0.009032078877376396, 0.005890486224375911, 0.003926990816250607, 0.008246680714126275, 0.021991148571003403, 0.02042035224450316, 0.005890486224375911, 0.001570796326500243, 0.007853981632501214, 0.0)","(0.0, 0.0, -14.752, 10.948, 0.528, 5.1, 0.096, -2.656, 0.38, 7.648, -16.044, 0.092, -28.732, -0.008, 0.148, -0.112, -20.48)",2803677,1522677950,412832745,robotiq_force_torque_frame_id,1.0389998972399999,0.555999898911,0.0249988555908,-0.04500000178809999,-0.188999995589,-0.101999998093,0.0,0.0,0.0,0.0,0.0,0.0,0.0,0.0,0.0,0.0,3,"(0.5282605997723452, -0.8173976392976043, 0.13420757995327057, 0.9999377972961765, -0.004352227397903713, -0.009388168303919133, 0.0041619648057520916)",0.28999996185099985,0.5000000000005,0.1899986267088,0.007999997586100004,-0.003999993204999969,-0.008000001311699992
1522706750.45,20574,1522677950,425416946,,2822442,1522677947,457120074,,0.795504313276,-0.44995405843099995,0.128502023224,0.0312880104265,0.9994222398999999,-0.010390138860899999,0.00826388597794,-0.00354285295514,0.0248378143133,-0.016167496542,0.019080640131000002,0.0253753404439,0.018614603775599998,1.21492516994,-0.232346832752,6.77747440338,0.6192278862,0.440063208342,0.33319914340999995,2822793,1522677947,465210984,,"['head_nod', 'head_pan', 'left_e0', 'left_e1', 'left_s0', 'left_s1', 'left_w0', 'left_w1', 'left_w2', 'right_e0', 'right_e1', 'right_s0', 'right_s1', 'right_w0', 'right_w1', 'right_w2', 'torso_t0']","(0.0, -0.1004757416064946, -0.9065826456402796, 1.5021506865367915, 0.27880100819817394, 0.6454224165027879, 2.3427721582979983, -0.4881893857445329, -0.03298058693953639, 0.4640291883353377, 0.922305948716105, 0.3136990711225671, -0.7075486384121471, -0.37199034106221285, 1.4043594113090963, -0.03259709174256504, -12.565987119160338)","(0.0, -0.009817477040626518, -0.007461282550876154, 0.0027488935713754254, 0.001570796326500243, -0.0019634954081253035, 0.023561944897503646, -0.005890486224375911, 0.0023561944897503642, -0.003926990816250607, -0.0047123889795007284, -0.013744467856877126, -0.012959069693627005, -0.0070685834692510935, 0.008246680714126275, 0.008246680714126275, 0.0)","(0.0, 0.0, -14.62, 10.916, 0.528, 5.036, 0.084, -2.648, 0.372, 7.712, -16.072, -0.06, -28.732, 0.008, 0.16, -0.12, -20.48)",2803678,1522677950,425026405,robotiq_force_torque_frame_id,1.45899997354,0.285999917984,0.0350009918213,-0.0460000000894,-0.190999999642,-0.09899999946360001,0.0,0.0,0.0,0.0,0.0,0.0,0.0,0.0,0.0,0.0,3,"(0.5282605997723452, -0.8173976392976043, 0.13420757995327057, 0.9999377972961765, -0.004352227397903713, -0.009388168303919133, 0.0041619648057520916)",0.42000007630000025,-0.269999980927,0.010002136230500003,-0.0009999983013000077,-0.0020000040530000207,0.002999998629399994
1522706750.45,20575,1522677950,435426950,,2822443,1522677947,467145468,,0.7956154855259999,-0.45082407569899996,0.12901226589700002,0.031534561920599995,0.999405414217,-0.0109749777923,0.00859879643965,-0.0019106539901700002,-0.0173441586312,0.00987595984246,-0.01518724707,-0.005892518935989999,-0.025284567551599996,1.0151004791299998,-0.392274111509,6.84469127655,0.7655076980589999,0.363082587719,0.36618906259499995,2822793,1522677947,465210984,,"['head_nod', 'head_pan', 'left_e0', 'left_e1', 'left_s0', 'left_s1', 'left_w0', 'left_w1', 'left_w2', 'right_e0', 'right_e1', 'right_s0', 'right_s1', 'right_w0', 'right_w1', 'right_w2', 'torso_t0']","(0.0, -0.1004757416064946, -0.9065826456402796, 1.5021506865367915, 0.27880100819817394, 0.6454224165027879, 2.3427721582979983, -0.4881893857445329, -0.03298058693953639, 0.4640291883353377, 0.922305948716105, 0.3136990711225671, -0.7075486384121471, -0.37199034106221285, 1.4043594113090963, -0.03259709174256504, -12.565987119160338)","(0.0, -0.009817477040626518, -0.007461282550876154, 0.0027488935713754254, 0.001570796326500243, -0.0019634954081253035, 0.023561944897503646, -0.005890486224375911, 0.0023561944897503642, -0.003926990816250607, -0.0047123889795007284, -0.013744467856877126, -0.012959069693627005, -0.0070685834692510935, 0.008246680714126275, 0.008246680714126275, 0.0)","(0.0, 0.0, -14.62, 10.916, 0.528, 5.036, 0.084, -2.648, 0.372, 7.712, -16.072, -0.06, -28.732, 0.008, 0.16, -0.12, -20.48)",2803679,1522677950,433173261,robotiq_force_torque_frame_id,0.869000059366,-0.363999938965,-0.0450008392334,-0.059000000357599995,-0.194000005722,-0.09499999880789999,0.0,0.0,0.0,0.0,0.0,0.0,0.0,0.0,0.0,0.0,3,"(0.5282605997723452, -0.8173976392976043, 0.13420757995327057, 0.9999377972961765, -0.004352227397903713, -0.009388168303919133, 0.0041619648057520916)",-0.5899999141740001,-0.649999856949,-0.0800018310547,-0.013000000268199995,-0.0030000060799999784,0.004000000655700026
1522706750.45,20576,1522677950,445600986,,2822445,1522677947,487127130,,0.794906379179,-0.450797925013,0.128528629817,0.0318253847515,0.9994042769499999,-0.0108789373367,0.0077385284216899995,-0.012316182865299998,0.000841036169735,-0.009792856052950001,0.006874124864600001,0.0264875389136,0.014667850169,1.9225230216999998,-0.353618860245,6.910289764400001,0.749875605106,0.703972518444,0.353134006262,1116450,1522677947,495000064,,['l_gripper_l_finger_joint'],"(0.0032494800670444966,)","(0.0,)","(0.0,)",2803680,1522677950,445374493,robotiq_force_torque_frame_id,1.07900009751,-1.09399995804,-0.0650012969971,-0.059000000357599995,-0.195999994874,-0.107000000775,0.0,0.0,0.0,0.0,0.0,0.0,0.0,0.0,0.0,0.0,3,"(0.5282605997723452, -0.8173976392976043, 0.13420757995327057, 0.9999377972961765, -0.004352227397903713, -0.009388168303919133, 0.0041619648057520916)",0.21000003814400003,-0.730000019075,-0.0200004577637,0.0,-0.0019999891520000035,-0.012000001967100021
1522706750.49,20577,1522677950,455427885,,2822446,1522677947,497119986,,0.795474904465,-0.45021586522,0.128706508959,0.0316639730901,0.999410963048,-0.010227482161299999,0.00839752085325,-0.00673287573646,-0.008554157010689999,9.17907387502e-05,-0.0216822657137,0.0202742350082,-0.00203004005044,1.44232082367,-0.378605753183,6.91631269455,0.734847545624,0.536759316921,0.361796468496,2822796,1522677947,495218482,,"['head_nod', 'head_pan', 'left_e0', 'left_e1', 'left_s0', 'left_s1', 'left_w0', 'left_w1', 'left_w2', 'right_e0', 'right_e1', 'right_s0', 'right_s1', 'right_w0', 'right_w1', 'right_w2', 'torso_t0']","(0.0, -0.10085923680346595, -0.9069661408372509, 1.5021506865367915, 0.27803401780423126, 0.6450389213058165, 2.3408546823131413, -0.48780589054756157, -0.03298058693953639, 0.46479617872928036, 0.9226894439130764, 0.3133155759255958, -0.7071651432151758, -0.3712233506682701, 1.4043594113090963, -0.032213596545593685, -12.565987119160338)","(0.0, -0.0070685834692510935, -0.0047123889795007284, -0.00039269908162506076, -0.006675884387626033, 0.01021017612225158, -0.03652101459113065, -0.0019634954081253035, -0.0070685834692510935, -0.022383847652628464, -0.006675884387626033, 0.011780972448751823, -0.0007853981632501215, -0.0070685834692510935, 0.018849555918002914, -0.0023561944897503642, 0.0)","(0.0, 0.0, -14.62, 10.948, 0.436, 5.036, 0.104, -2.636, 0.392, 7.744, -16.104, 0.028, -28.732, -0.008, 0.168, -0.12, -20.48)",2803681,1522677950,453516780,robotiq_force_torque_frame_id,1.42900000215,-1.0640002250700002,-0.0450008392334,-0.04500000178809999,-0.188999995589,-0.09899999946360001,0.0,0.0,0.0,0.0,0.0,0.0,0.0,0.0,0.0,0.0,3,"(0.5282605997723452, -0.8173976392976043, 0.13420757995327057, 0.9999377972961765, -0.004352227397903713, -0.009388168303919133, 0.0041619648057520916)",0.34999990463999997,0.029999732969999693,0.0200004577637,0.013999998569500002,0.006999999285000003,0.008000001311399996
1522706750.49,20578,1522677950,465429067,,2822447,1522677947,507119217,,0.795477298001,-0.450062180888,0.12926734684900001,0.0312954364825,0.999418552283,-0.0106090796345,0.00840240666022,-0.0037890667351900002,0.0048869033277099995,0.00733633705956,-0.0005275784358809999,0.0108481464949,0.0032294621279200003,1.44867014885,-0.31953018903700003,6.83279418945,0.7439953088760001,0.532966852188,0.36186355352399996,2822797,1522677947,505183671,,"['head_nod', 'head_pan', 'left_e0', 'left_e1', 'left_s0', 'left_s1', 'left_w0', 'left_w1', 'left_w2', 'right_e0', 'right_e1', 'right_s0', 'right_s1', 'right_w0', 'right_w1', 'right_w2', 'torso_t0']","(0.0, -0.10085923680346595, -0.9073496360342223, 1.50176719133982, 0.2784175130012026, 0.6446554261088451, 2.3420051679040554, -0.4881893857445329, -0.03259709174256504, 0.4651796739262517, 0.9226894439130764, 0.3136990711225671, -0.7079321336091184, -0.37199034106221285, 1.405126401703039, -0.032213596545593685, -12.565987119160338)","(0.0, -0.004319689897875668, 0.008639379795751335, -0.02042035224450316, -0.0023561944897503642, -0.008246680714126275, -0.012566370612001944, 0.01060287520387664, 0.0, -0.00039269908162506076, -0.0035342917346255468, 0.0070685834692510935, -0.009424777959001457, 0.0023561944897503642, 0.022776546734253524, 0.001570796326500243, 0.0)","(0.0, 0.0, -14.556, 10.916, 0.464, 4.968, 0.104, -2.636, 0.364, 7.804, -16.072, 0.06, -28.644, 0.0, 0.168, -0.112, -20.48)",2803681,1522677950,453516780,robotiq_force_torque_frame_id,1.42900000215,-1.0640002250700002,-0.0450008392334,-0.04500000178809999,-0.188999995589,-0.09899999946360001,0.0,0.0,0.0,0.0,0.0,0.0,0.0,0.0,0.0,0.0,3,"(0.5282605997723452, -0.8173976392976043, 0.13420757995327057, 0.9999377972961765, -0.004352227397903713, -0.009388168303919133, 0.0041619648057520916)",0.0,0.0,0.0,0.0,0.0,0.0
1522706750.49,20579,1522677950,475450038,,2822448,1522677947,517119343,,0.795529876084,-0.45028500636200003,0.12919533398900002,0.0313998946225,0.9994148432209999,-0.0106076360083,0.0084555203898,-0.00265964022904,0.0077202274886,-0.00289328179387,0.0196890218973,0.00249599408428,-0.0034854780766799998,1.41510808468,-0.473179340363,6.939066886900001,0.845501244068,0.505648553371,0.372905761003,2822798,1522677947,515209723,,"['head_nod', 'head_pan', 'left_e0', 'left_e1', 'left_s0', 'left_s1', 'left_w0', 'left_w1', 'left_w2', 'right_e0', 'right_e1', 'right_s0', 'right_s1', 'right_w0', 'right_w1', 'right_w2', 'torso_t0']","(0.0, -0.1012427320004373, -0.9069661408372509, 1.5021506865367915, 0.27880100819817394, 0.6450389213058165, 2.3412381775101125, -0.48742239535059023, -0.03298058693953639, 0.4655631691232231, 0.922305948716105, 0.3133155759255958, -0.7075486384121471, -0.3723738362591842, 1.405126401703039, -0.032213596545593685, -12.565987119160338)","(0.0, 0.00510508806112579, -0.0027488935713754254, 0.01021017612225158, 0.019242254999627974, 0.0023561944897503642, 0.01727875959150267, 0.01021017612225158, 0.003926990816250607, 0.013351768775252066, 0.014137166938502187, -0.009032078877376396, -0.0007853981632501215, 0.009424777959001457, -0.004319689897875668, 0.006675884387626033, 0.0)","(0.0, 0.0, -14.684, 10.948, 0.528, 5.1, 0.084, -2.656, 0.392, 7.836, -16.132, -0.06, -28.704, 0.016, 0.16, -0.112, -20.48)",2803683,1522677950,473942901,robotiq_force_torque_frame_id,0.8890000402930001,-0.123999929428,0.32500190734900003,-0.059000000357599995,-0.17599999904599997,-0.09499999880789999,0.0,0.0,0.0,0.0,0.0,0.0,0.0,0.0,0.0,0.0,3,"(0.5282605997723452, -0.8173976392976043, 0.13420757995327057, 0.9999377972961765, -0.004352227397903713, -0.009388168303919133, 0.0041619648057520916)",-0.5399999618569999,0.9400002956420003,0.3700027465824,-0.013999998569500002,0.01299999654300002,0.004000000655700026
1522706750.49,20580,1522677950,485464096,,2822449,1522677947,527130040,,0.795629995627,-0.449759793568,0.12888580449,0.0314181307398,0.99941954838,-0.0101033724922,0.00844921541241,0.00392780874291,-0.006195040234199999,-0.00128828344174,-0.00812361025104,-0.00896571554861,0.0147061772113,1.32916581631,-0.510416507721,6.998314380650001,0.908064723015,0.487102121115,0.38492357730899995,2822798,1522677947,515209723,,"['head_nod', 'head_pan', 'left_e0', 'left_e1', 'left_s0', 'left_s1', 'left_w0', 'left_w1', 'left_w2', 'right_e0', 'right_e1', 'right_s0', 'right_s1', 'right_w0', 'right_w1', 'right_w2', 'torso_t0']","(0.0, -0.1012427320004373, -0.9069661408372509, 1.5021506865367915, 0.27880100819817394, 0.6450389213058165, 2.3412381775101125, -0.48742239535059023, -0.03298058693953639, 0.4655631691232231, 0.922305948716105, 0.3133155759255958, -0.7075486384121471, -0.3723738362591842, 1.405126401703039, -0.032213596545593685, -12.565987119160338)","(0.0, 0.00510508806112579, -0.0027488935713754254, 0.01021017612225158, 0.019242254999627974, 0.0023561944897503642, 0.01727875959150267, 0.01021017612225158, 0.003926990816250607, 0.013351768775252066, 0.014137166938502187, -0.009032078877376396, -0.0007853981632501215, 0.009424777959001457, -0.004319689897875668, 0.006675884387626033, 0.0)","(0.0, 0.0, -14.684, 10.948, 0.528, 5.1, 0.084, -2.656, 0.392, 7.836, -16.132, -0.06, -28.704, 0.016, 0.16, -0.112, -20.48)",2803683,1522677950,473942901,robotiq_force_torque_frame_id,0.8890000402930001,-0.123999929428,0.32500190734900003,-0.059000000357599995,-0.17599999904599997,-0.09499999880789999,0.0,0.0,0.0,0.0,0.0,0.0,0.0,0.0,0.0,0.0,3,"(0.5282605997723452, -0.8173976392976043, 0.13420757995327057, 0.9999377972961765, -0.004352227397903713, -0.009388168303919133, 0.0041619648057520916)",0.0,0.0,0.0,0.0,0.0,0.0
1522706750.53,20581,1522677950,495409965,,2822450,1522677947,537127945,,0.795542462191,-0.45018968531000003,0.128888671512,0.031388116116,0.999418670504,-0.0102952458649,0.008432978515109999,-0.0027005974851100002,-0.010295921259799999,0.0021237370931800003,-0.00891737736832,0.000283825113665,-0.0250446224909,1.7938412427900001,-0.477470695972,6.92655563354,0.8016309738160001,0.681654155254,0.341430693865,2822798,1522677947,515209723,,"['head_nod', 'head_pan', 'left_e0', 'left_e1', 'left_s0', 'left_s1', 'left_w0', 'left_w1', 'left_w2', 'right_e0', 'right_e1', 'right_s0', 'right_s1', 'right_w0', 'right_w1', 'right_w2', 'torso_t0']","(0.0, -0.1012427320004373, -0.9069661408372509, 1.5021506865367915, 0.27880100819817394, 0.6450389213058165, 2.3412381775101125, -0.48742239535059023, -0.03298058693953639, 0.4655631691232231, 0.922305948716105, 0.3133155759255958, -0.7075486384121471, -0.3723738362591842, 1.405126401703039, -0.032213596545593685, -12.565987119160338)","(0.0, 0.00510508806112579, -0.0027488935713754254, 0.01021017612225158, 0.019242254999627974, 0.0023561944897503642, 0.01727875959150267, 0.01021017612225158, 0.003926990816250607, 0.013351768775252066, 0.014137166938502187, -0.009032078877376396, -0.0007853981632501215, 0.009424777959001457, -0.004319689897875668, 0.006675884387626033, 0.0)","(0.0, 0.0, -14.684, 10.948, 0.528, 5.1, 0.084, -2.656, 0.392, 7.836, -16.132, -0.06, -28.704, 0.016, 0.16, -0.112, -20.48)",2803685,1522677950,494280074,robotiq_force_torque_frame_id,1.6090000689,0.39600005149800005,0.145001602173,-0.0540000014007,-0.172000005841,-0.101999998093,0.0,0.0,0.0,0.0,0.0,0.0,0.0,0.0,0.0,0.0,3,"(0.729030535447201, -0.0945102789634731, 0.0019525902987892335, 0.9859321394842029, 0.16484069811544416, 0.015161401764689431, 0.023140710305542746)",0.7200000286069999,0.5199999809260001,-0.18000030517600002,0.004999998956899995,0.003999993204999969,-0.00699999928510002
1522706750.53,20582,1522677950,505445957,,2822451,1522677947,547119244,,0.795837781493,-0.449688192282,0.12893799579,0.0312632347662,0.999421639526,-0.010171600458600001,0.00869109564323,0.00018063919852900003,0.016677220537,-0.00220206465024,0.0114874894051,0.0063431126106699995,0.0116715305353,1.31361818314,-0.483745515347,7.004748344419999,0.868104159832,0.482220649719,0.38811051845600003,1116452,1522677947,545999872,,['l_gripper_l_finger_joint'],"(0.0032494800670444966,)","(0.0,)","(0.0,)",2803686,1522677950,502437418,robotiq_force_torque_frame_id,1.70899997354,0.735999965668,0.21500129699700002,-0.054999999702,-0.17599999904599997,-0.112000003457,0.0,0.0,0.0,0.0,0.0,0.0,0.0,0.0,0.0,0.0,3,"(0.729030535447201, -0.0945102789634731, 0.0019525902987892335, 0.9859321394842029, 0.16484069811544416, 0.015161401764689431, 0.023140710305542746)",0.09999990464000019,0.3399999141699999,0.06999969482400001,-0.0009999983013000008,-0.003999993204999969,-0.01000000536399999
1522706750.53,20583,1522677950,515409946,,2822452,1522677947,557121041,,0.795476348786,-0.44963206347400003,0.129054024969,0.0312011761392,0.999426518782,-0.0102061594406,0.00830388293901,0.0153526036079,0.0217421400293,0.0118350507139,0.017200553796999998,-0.0339068287604,0.0255936325719,1.74106383324,-0.40713518858000003,6.86741447449,0.759619235992,0.649196207523,0.362129330635,2822802,1522677947,555180388,,"['head_nod', 'head_pan', 'left_e0', 'left_e1', 'left_s0', 'left_s1', 'left_w0', 'left_w1', 'left_w2', 'right_e0', 'right_e1', 'right_s0', 'right_s1', 'right_w0', 'right_w1', 'right_w2', 'torso_t0']","(0.0, -0.10085923680346595, -0.9073496360342223, 1.50176719133982, 0.27803401780423126, 0.6446554261088451, 2.3420051679040554, -0.48742239535059023, -0.03259709174256504, 0.4655631691232231, 0.9226894439130764, 0.3136990711225671, -0.7075486384121471, -0.37160684586524145, 1.405126401703039, -0.032213596545593685, -12.565987119160338)","(0.0, 0.0, 0.0007853981632501215, -0.0047123889795007284, 0.004319689897875668, 0.006675884387626033, 0.004319689897875668, -0.009817477040626518, -0.006675884387626033, 0.030237829285129678, -0.00510508806112579, 0.006283185306000972, -0.009424777959001457, 0.0027488935713754254, -0.01021017612225158, -0.001570796326500243, 0.0)","(0.0, 0.0, -14.62, 10.916, 0.56, 5.036, 0.096, -2.648, 0.38, 7.772, -16.104, 0.06, -28.644, 0.0, 0.168, -0.12, -20.48)",2803687,1522677950,514645174,robotiq_force_torque_frame_id,1.6989999830700002,0.6360000610350001,0.45499916076700003,-0.05099999904630001,-0.17800000309900002,-0.108999997377,0.0,0.0,0.0,0.0,0.0,0.0,0.0,0.0,0.0,0.0,3,"(0.729030535447201, -0.0945102789634731, 0.0019525902987892335, 0.9859321394842029, 0.16484069811544416, 0.015161401764689431, 0.023140710305542746)",-0.009999990469999886,-0.0999999046329999,0.23999786377000001,0.004000000655699991,-0.0020000040530000485,0.0030000060799999922
1522706750.53,20584,1522677950,525398015,,2822453,1522677947,567120942,,0.7955879548899999,-0.44972417200900006,0.12898498807,0.031084090990900003,0.999427891662,-0.0103923626791,0.00834670317143,0.00717447739439,0.00871086976191,-0.00621697944124,0.0018758858068699997,-0.005267642082589999,0.026330654004,1.3122321367299998,-0.369441866875,6.920746803280001,0.772144794464,0.47203096747400003,0.361519932747,2822803,1522677947,565199691,,"['head_nod', 'head_pan', 'left_e0', 'left_e1', 'left_s0', 'left_s1', 'left_w0', 'left_w1', 'left_w2', 'right_e0', 'right_e1', 'right_s0', 'right_s1', 'right_w0', 'right_w1', 'right_w2', 'torso_t0']","(0.0, -0.10085923680346595, -0.9065826456402796, 1.5013836961428486, 0.27803401780423126, 0.6450389213058165, 2.341621672707084, -0.48742239535059023, -0.03259709174256504, 0.46594666432019444, 0.922305948716105, 0.3136990711225671, -0.7071651432151758, -0.3723738362591842, 1.405126401703039, -0.032213596545593685, -12.565987119160338)","(0.0, 0.0019634954081253035, 0.007853981632501214, 0.007853981632501214, -0.008639379795751335, 0.0011780972448751821, -0.012959069693627005, -0.023169245815878585, 0.005497787142750851, -0.001570796326500243, -0.011780972448751823, 0.014922565101752308, 0.01531526418337737, -0.0011780972448751821, -0.009032078877376396, -0.01610066234662749, 0.0)","(0.0, 0.0, -14.492, 10.948, 0.464, 4.968, 0.12, -2.656, 0.392, 7.804, -16.104, 0.0, -28.732, 0.016, 0.16, -0.112, -20.48)",2803688,1522677950,522780679,robotiq_force_torque_frame_id,1.8590000689,0.356000089645,0.585000228882,-0.05099999904630001,-0.18000000715300002,-0.101000003517,0.0,0.0,0.0,0.0,0.0,0.0,0.0,0.0,0.0,0.0,3,"(0.729030535447201, -0.0945102789634731, 0.0019525902987892335, 0.9859321394842029, 0.16484069811544416, 0.015161401764689431, 0.023140710305542746)",0.1600000858299997,-0.27999997139000005,0.13000106811499995,0.0,-0.0020000040539999986,0.007999993859999999
1522706750.54,20585,1522677950,535460948,,2822454,1522677947,577119961,,0.7958323508840001,-0.45010405974699996,0.129065141586,0.0315486496858,0.999408460941,-0.010431244385899999,0.00886566653739,0.00793806877037,-0.028703829004799997,0.00977154776694,-0.008610486462169999,-0.027386057937500003,-0.044285732993300006,0.954688191414,-0.258999943733,6.840575218200001,0.7350947856899999,0.34217450022699997,0.361234307289,2822803,1522677947,565199691,,"['head_nod', 'head_pan', 'left_e0', 'left_e1', 'left_s0', 'left_s1', 'left_w0', 'left_w1', 'left_w2', 'right_e0', 'right_e1', 'right_s0', 'right_s1', 'right_w0', 'right_w1', 'right_w2', 'torso_t0']","(0.0, -0.10085923680346595, -0.9065826456402796, 1.5013836961428486, 0.27803401780423126, 0.6450389213058165, 2.341621672707084, -0.48742239535059023, -0.03259709174256504, 0.46594666432019444, 0.922305948716105, 0.3136990711225671, -0.7071651432151758, -0.3723738362591842, 1.405126401703039, -0.032213596545593685, -12.565987119160338)","(0.0, 0.0019634954081253035, 0.007853981632501214, 0.007853981632501214, -0.008639379795751335, 0.0011780972448751821, -0.012959069693627005, -0.023169245815878585, 0.005497787142750851, -0.001570796326500243, -0.011780972448751823, 0.014922565101752308, 0.01531526418337737, -0.0011780972448751821, -0.009032078877376396, -0.01610066234662749, 0.0)","(0.0, 0.0, -14.492, 10.948, 0.464, 4.968, 0.12, -2.656, 0.392, 7.804, -16.104, 0.0, -28.732, 0.016, 0.16, -0.112, -20.48)",2803688,1522677950,522780679,robotiq_force_torque_frame_id,1.8590000689,0.356000089645,0.585000228882,-0.05099999904630001,-0.18000000715300002,-0.101000003517,0.0,0.0,0.0,0.0,0.0,0.0,0.0,0.0,0.0,0.0,3,"(0.729030535447201, -0.0945102789634731, 0.0019525902987892335, 0.9859321394842029, 0.16484069811544416, 0.015161401764689431, 0.023140710305542746)",0.0,0.0,0.0,0.0,0.0,0.0
1522706750.55,20586,1522677950,545422077,,2822455,1522677947,587120005,,0.79586670536,-0.44928954153899997,0.129189324958,0.0311045577666,0.999427848223,-0.0100502212281,0.00868767722281,0.00208101626444,0.0072743107908,0.00165576420256,0.000348742286508,-0.006099140822619999,0.00338088592779,1.01636195183,-0.287250459194,6.85201120377,0.687670230865,0.39202174544299995,0.33313384652100003,2822803,1522677947,565199691,,"['head_nod', 'head_pan', 'left_e0', 'left_e1', 'left_s0', 'left_s1', 'left_w0', 'left_w1', 'left_w2', 'right_e0', 'right_e1', 'right_s0', 'right_s1', 'right_w0', 'right_w1', 'right_w2', 'torso_t0']","(0.0, -0.10085923680346595, -0.9065826456402796, 1.5013836961428486, 0.27803401780423126, 0.6450389213058165, 2.341621672707084, -0.48742239535059023, -0.03259709174256504, 0.46594666432019444, 0.922305948716105, 0.3136990711225671, -0.7071651432151758, -0.3723738362591842, 1.405126401703039, -0.032213596545593685, -12.565987119160338)","(0.0, 0.0019634954081253035, 0.007853981632501214, 0.007853981632501214, -0.008639379795751335, 0.0011780972448751821, -0.012959069693627005, -0.023169245815878585, 0.005497787142750851, -0.001570796326500243, -0.011780972448751823, 0.014922565101752308, 0.01531526418337737, -0.0011780972448751821, -0.009032078877376396, -0.01610066234662749, 0.0)","(0.0, 0.0, -14.492, 10.948, 0.464, 4.968, 0.12, -2.656, 0.392, 7.804, -16.104, 0.0, -28.732, 0.016, 0.16, -0.112, -20.48)",2803690,1522677950,543132492,robotiq_force_torque_frame_id,1.26899991632,-0.444000101089,0.285000991821,-0.0599999986589,-0.168999999762,-0.11100000143100001,0.0,0.0,0.0,0.0,0.0,0.0,0.0,0.0,0.0,0.0,3,"(0.729030535447201, -0.0945102789634731, 0.0019525902987892335, 0.9859321394842029, 0.16484069811544416, 0.015161401764689431, 0.023140710305542746)",-0.5900001525799998,-0.800000190734,-0.29999923706099996,-0.008999999612599993,0.011000007391000016,-0.009999997914000011
1522706750.59,20587,1522677950,555421113,,2822456,1522677947,597119468,,0.7954014825669999,-0.44996655258699997,0.128750378333,0.0315428637809,0.999417338375,-0.0100823619373,0.00826906755747,-0.00557820004128,-0.008854593734549998,-0.012481088715,-0.012619928753799999,0.015367941937400001,-0.00673326236116,0.690625011921,-0.328896701336,6.79080343246,0.811505258083,0.194939464331,0.390777349472,2822806,1522677947,595204287,,"['head_nod', 'head_pan', 'left_e0', 'left_e1', 'left_s0', 'left_s1', 'left_w0', 'left_w1', 'left_w2', 'right_e0', 'right_e1', 'right_s0', 'right_s1', 'right_w0', 'right_w1', 'right_w2', 'torso_t0']","(0.0, -0.10162622719740866, -0.9073496360342223, 1.5013836961428486, 0.2784175130012026, 0.6446554261088451, 2.3412381775101125, -0.48780589054756157, -0.03298058693953639, 0.4651796739262517, 0.9226894439130764, 0.3133155759255958, -0.7071651432151758, -0.3712233506682701, 1.4047429065060677, -0.032213596545593685, -12.565987119160338)","(0.0, 0.010995574285501701, 0.0047123889795007284, -0.01531526418337737, -0.018064157754752792, -0.01610066234662749, 0.012173671530376884, 0.01021017612225158, 0.00039269908162506076, 0.001570796326500243, 0.006675884387626033, -0.005890486224375911, 0.015707963265002428, -0.021598449489378342, -0.006283185306000972, 0.007461282550876154, 0.0)","(0.0, 0.0, -14.684, 10.916, 0.464, 5.036, 0.084, -2.648, 0.372, 7.9, -16.044, -0.092, -28.704, 0.016, 0.14, -0.112, -20.48)",2803690,1522677950,543132492,robotiq_force_torque_frame_id,1.26899991632,-0.444000101089,0.285000991821,-0.0599999986589,-0.168999999762,-0.11100000143100001,0.0,0.0,0.0,0.0,0.0,0.0,0.0,0.0,0.0,0.0,3,"(0.729030535447201, -0.0945102789634731, 0.0019525902987892335, 0.9859321394842029, 0.16484069811544416, 0.015161401764689431, 0.023140710305542746)",0.0,0.0,0.0,0.0,0.0,0.0
1522706750.59,20588,1522677950,565462112,,2822457,1522677947,607127791,,0.7957006223950001,-0.45041575704400005,0.12931927818299999,0.0315517210633,0.9994078009540001,-0.0105032660885,0.00884407668191,-0.010221536933799999,0.00406517669095,-0.00582904355928,0.00352487317367,0.026555558767499998,0.000617123565038,0.571365237236,-0.30395516753199997,6.82672071457,0.78318798542,0.201232746243,0.38083142042199997,1116455,1522677947,607000064,,['r_gripper_l_finger_joint'],"(0.019983251598477365,)","(0.0,)","(0.0,)",2803692,1522677950,563521632,robotiq_force_torque_frame_id,0.488999944925,-0.163999891281,0.485001754761,-0.0630000010133,-0.173999994993,-0.104999996722,0.0,0.0,0.0,0.0,0.0,0.0,0.0,0.0,0.0,0.0,3,"(0.729030535447201, -0.0945102789634731, 0.0019525902987892335, 0.9859321394842029, 0.16484069811544416, 0.015161401764689431, 0.023140710305542746)",-0.7799999713950001,0.280000209808,0.20000076293999997,-0.003000002354399997,-0.004999995231000004,0.006000004709000015
1522706750.59,20589,1522677950,575447082,,2822458,1522677947,617115942,,0.7953871607269999,-0.450116131883,0.128753272627,0.031704446937599995,0.9994104035279999,-0.010269750143899999,0.00825866791333,0.011390273331799998,0.004263270714860001,0.0200469036101,-0.0164116170235,-0.0312543425589,0.0166393396285,1.1189340353,-0.369717538357,6.7965641021700005,0.7605460882189999,0.40355131030100005,0.37261900305699996,2822808,1522677947,615210360,,"['head_nod', 'head_pan', 'left_e0', 'left_e1', 'left_s0', 'left_s1', 'left_w0', 'left_w1', 'left_w2', 'right_e0', 'right_e1', 'right_s0', 'right_s1', 'right_w0', 'right_w1', 'right_w2', 'torso_t0']","(0.0, -0.10085923680346595, -0.9065826456402796, 1.5013836961428486, 0.2784175130012026, 0.6450389213058165, 2.3412381775101125, -0.48742239535059023, -0.033364082136507746, 0.4651796739262517, 0.9226894439130764, 0.3133155759255958, -0.7071651432151758, -0.37160684586524145, 1.4047429065060677, -0.03183010134862233, -12.565987119160338)","(0.0, 0.012173671530376884, -0.013744467856877126, -0.006283185306000972, -0.006675884387626033, -0.0023561944897503642, -0.00039269908162506076, -0.014529866020127248, -0.013744467856877126, -0.004319689897875668, -0.001570796326500243, 0.014529866020127248, -0.029845130203504617, 0.0007853981632501215, -0.0047123889795007284, -0.005497787142750851, 0.0)","(0.0, 0.0, -14.72, 10.948, 0.496, 5.004, 0.084, -2.648, 0.372, 7.772, -16.044, -0.028, -28.672, 0.0, 0.168, -0.12, -20.48)",2803693,1522677950,575744689,robotiq_force_torque_frame_id,0.9889999449250001,0.696000003815,0.384999465942,-0.0610000006855,-0.18299999833099997,-0.11400000006,0.0,0.0,0.0,0.0,0.0,0.0,0.0,0.0,0.0,0.0,3,"(0.729030535447201, -0.0945102789634731, 0.0019525902987892335, 0.9859321394842029, 0.16484069811544416, 0.015161401764689431, 0.023140710305542746)",0.5000000000000001,0.859999895096,-0.10000228881899997,0.0020000003277999973,-0.009000003337999968,-0.009000003337999996
1522706750.63,20590,1522677950,585453987,,2822459,1522677947,627121443,,0.7954256622910001,-0.45078175236,0.129353331197,0.0315153774215,0.999410924417,-0.010581022169,0.008522154171,0.00690157972526,0.015069934726100001,0.00818337319611,0.018178067877,-0.0201372747618,0.013627387930100002,0.567284226418,-0.313165217638,6.79141187668,0.8139494061470001,0.18862801790199998,0.371993869543,2822808,1522677947,615210360,,"['head_nod', 'head_pan', 'left_e0', 'left_e1', 'left_s0', 'left_s1', 'left_w0', 'left_w1', 'left_w2', 'right_e0', 'right_e1', 'right_s0', 'right_s1', 'right_w0', 'right_w1', 'right_w2', 'torso_t0']","(0.0, -0.10085923680346595, -0.9065826456402796, 1.5013836961428486, 0.2784175130012026, 0.6450389213058165, 2.3412381775101125, -0.48742239535059023, -0.033364082136507746, 0.4651796739262517, 0.9226894439130764, 0.3133155759255958, -0.7071651432151758, -0.37160684586524145, 1.4047429065060677, -0.03183010134862233, -12.565987119160338)","(0.0, 0.012173671530376884, -0.013744467856877126, -0.006283185306000972, -0.006675884387626033, -0.0023561944897503642, -0.00039269908162506076, -0.014529866020127248, -0.013744467856877126, -0.004319689897875668, -0.001570796326500243, 0.014529866020127248, -0.029845130203504617, 0.0007853981632501215, -0.0047123889795007284, -0.005497787142750851, 0.0)","(0.0, 0.0, -14.72, 10.948, 0.496, 5.004, 0.084, -2.648, 0.372, 7.772, -16.044, -0.028, -28.672, 0.0, 0.168, -0.12, -20.48)",2803694,1522677950,583880635,robotiq_force_torque_frame_id,1.61900005937,0.626000070572,0.20499916076699998,-0.0599999986589,-0.190999999642,-0.101999998093,0.0,0.0,0.0,0.0,0.0,0.0,0.0,0.0,0.0,0.0,3,"(0.729030535447201, -0.0945102789634731, 0.0019525902987892335, 0.9859321394842029, 0.16484069811544416, 0.015161401764689431, 0.023140710305542746)",0.6300001144449999,-0.06999993324300002,-0.18000030517500004,0.0010000020265999998,-0.008000001311000038,0.01200000196699999
1522706750.63,20591,1522677950,595395088,,2822460,1522677947,637115606,,0.7956843885609999,-0.450458013572,0.129073572177,0.0316853967754,0.9994065255869999,-0.0103732999353,0.008661806637620001,0.00506829985066,0.00526869188709,0.009079448185600001,0.011061470667,-0.0183978190894,0.013740436361200002,0.8443180918690001,-0.432324707508,6.804125308990001,0.8017916679379999,0.331399738789,0.376545101404,2822808,1522677947,615210360,,"['head_nod', 'head_pan', 'left_e0', 'left_e1', 'left_s0', 'left_s1', 'left_w0', 'left_w1', 'left_w2', 'right_e0', 'right_e1', 'right_s0', 'right_s1', 'right_w0', 'right_w1', 'right_w2', 'torso_t0']","(0.0, -0.10085923680346595, -0.9065826456402796, 1.5013836961428486, 0.2784175130012026, 0.6450389213058165, 2.3412381775101125, -0.48742239535059023, -0.033364082136507746, 0.4651796739262517, 0.9226894439130764, 0.3133155759255958, -0.7071651432151758, -0.37160684586524145, 1.4047429065060677, -0.03183010134862233, -12.565987119160338)","(0.0, 0.012173671530376884, -0.013744467856877126, -0.006283185306000972, -0.006675884387626033, -0.0023561944897503642, -0.00039269908162506076, -0.014529866020127248, -0.013744467856877126, -0.004319689897875668, -0.001570796326500243, 0.014529866020127248, -0.029845130203504617, 0.0007853981632501215, -0.0047123889795007284, -0.005497787142750851, 0.0)","(0.0, 0.0, -14.72, 10.948, 0.496, 5.004, 0.084, -2.648, 0.372, 7.772, -16.044, -0.028, -28.672, 0.0, 0.168, -0.12, -20.48)",2803694,1522677950,583880635,robotiq_force_torque_frame_id,1.61900005937,0.626000070572,0.20499916076699998,-0.0599999986589,-0.190999999642,-0.101999998093,0.0,0.0,0.0,0.0,0.0,0.0,0.0,0.0,0.0,0.0,3,"(0.729030535447201, -0.0945102789634731, 0.0019525902987892335, 0.9859321394842029, 0.16484069811544416, 0.015161401764689431, 0.023140710305542746)",0.0,0.0,0.0,0.0,0.0,0.0
1522706750.63,20592,1522677950,605432987,,2822461,1522677947,647264987,,0.7954397068250001,-0.44997103736500005,0.128670024871,0.031482473339800005,0.9994164186669999,-0.0103157319114,0.00832235817775,-0.00509404130928,-0.025075354018900004,-0.0103224850211,-0.029062147570299998,0.021438915071799996,-0.0224969754428,0.912331044674,-0.40590813756,6.7259140014600005,0.774481475353,0.324057340622,0.374375522137,1116456,1522677947,647000064,,['l_gripper_l_finger_joint'],"(0.0032494800670444966,)","(0.0,)","(0.0,)",2803696,1522677950,604239482,robotiq_force_torque_frame_id,1.3590000689,-0.034000015258800004,0.265000534058,-0.0599999986589,-0.18999999761599998,-0.0930000022054,0.0,0.0,0.0,0.0,0.0,0.0,0.0,0.0,0.0,0.0,3,"(0.729030535447201, -0.0945102789634731, 0.0019525902987892335, 0.9859321394842029, 0.16484069811544416, 0.015161401764689431, 0.023140710305542746)",-0.2599999904700001,-0.6600000858308,0.060001373291000026,0.0,0.0010000020260000353,0.008999995887600004
1522706750.63,20593,1522677950,615411996,,2822461,1522677947,647264987,,0.7954397068250001,-0.44997103736500005,0.128670024871,0.031482473339800005,0.9994164186669999,-0.0103157319114,0.00832235817775,-0.00509404130928,-0.025075354018900004,-0.0103224850211,-0.029062147570299998,0.021438915071799996,-0.0224969754428,0.912331044674,-0.40590813756,6.7259140014600005,0.774481475353,0.324057340622,0.374375522137,2822811,1522677947,645349274,,"['head_nod', 'head_pan', 'left_e0', 'left_e1', 'left_s0', 'left_s1', 'left_w0', 'left_w1', 'left_w2', 'right_e0', 'right_e1', 'right_s0', 'right_s1', 'right_w0', 'right_w1', 'right_w2', 'torso_t0']","(0.0, -0.10162622719740866, -0.9065826456402796, 1.5021506865367915, 0.2784175130012026, 0.6454224165027879, 2.3427721582979983, -0.48780589054756157, -0.03298058693953639, 0.4655631691232231, 0.9230729391100477, 0.3133155759255958, -0.7071651432151758, -0.37199034106221285, 1.4043594113090963, -0.03183010134862233, -12.565987119160338)","(0.0, 0.0027488935713754254, -0.00510508806112579, 0.01610066234662749, -0.011388273367126762, -0.005497787142750851, -0.01060287520387664, 0.003926990816250607, 0.01021017612225158, -0.028274333877004374, -0.0310232274483798, 0.0027488935713754254, 0.02670353755050413, -0.019242254999627974, 0.014922565101752308, -0.0011780972448751821, 0.0)","(0.0, 0.0, -14.684, 10.916, 0.372, 4.968, 0.084, -2.648, 0.364, 7.744, -16.012, -0.092, -28.644, 0.0, 0.168, -0.12, -20.48)",2803697,1522677950,612375183,robotiq_force_torque_frame_id,1.25899992585,-0.0639999866486,0.27499885559099996,-0.0579999983311,-0.190999999642,-0.09600000083450001,0.0,0.0,0.0,0.0,0.0,0.0,0.0,0.0,0.0,0.0,3,"(0.729030535447201, -0.0945102789634731, 0.0019525902987892335, 0.9859321394842029, 0.16484069811544416, 0.015161401764689431, 0.023140710305542746)",-0.10000014304999993,-0.029999971389799998,0.009998321532999954,0.002000000327800004,-0.0010000020260000353,-0.002999998629100012
1522706750.67,20594,1522677950,625423908,,2822462,1522677947,657259306,,0.7953943630920001,-0.450560607153,0.129053135858,0.031798903176599995,0.9994014547560001,-0.0108143704947,0.008283198568899999,-0.00306824642145,0.0229045695877,-0.013275123711500001,0.00588249206973,0.024730269516799998,0.029688853262700002,0.6438534259800001,-0.192177906632,6.760875701900001,0.711613178253,0.20418086647999997,0.353653460741,1116457,1522677947,656999936,,['r_gripper_l_finger_joint'],"(0.019983251598477365,)","(0.0,)","(0.0,)",2803698,1522677950,624561122,robotiq_force_torque_frame_id,1.4489999830700002,-0.294000005722,0.18499870300299998,-0.0579999983311,-0.188999995589,-0.097999997437,0.0,0.0,0.0,0.0,0.0,0.0,0.0,0.0,0.0,0.0,3,"(0.729030535447201, -0.0945102789634731, 0.0019525902987892335, 0.9859321394842029, 0.16484069811544416, 0.015161401764689431, 0.023140710305542746)",0.19000005722000024,-0.2300000190734,-0.09000015258799998,0.0,0.0020000040530000207,-0.0019999966024999843
1522706750.67,20595,1522677950,635433912,,2822463,1522677947,667254562,,0.795261937113,-0.45044196528,0.129093783617,0.0320910693456,0.999396633542,-0.0104799905012,0.00816712512355,0.007237933603279999,-0.0017739228107599998,0.012095662245499999,-0.00824535101187,-0.022615257946200003,-0.0015351818165099998,0.8376557827,-0.41011768579499996,6.750197410580001,0.85482609272,0.257849484682,0.38915696740199995,2822812,1522677947,655334213,,"['head_nod', 'head_pan', 'left_e0', 'left_e1', 'left_s0', 'left_s1', 'left_w0', 'left_w1', 'left_w2', 'right_e0', 'right_e1', 'right_s0', 'right_s1', 'right_w0', 'right_w1', 'right_w2', 'torso_t0']","(0.0, -0.1012427320004373, -0.9069661408372509, 1.50176719133982, 0.27880100819817394, 0.6446554261088451, 2.341621672707084, -0.48780589054756157, -0.03298058693953639, 0.464412683532309, 0.922305948716105, 0.3136990711225671, -0.7075486384121471, -0.37199034106221285, 1.405126401703039, -0.03183010134862233, -12.565987119160338)","(0.0, 0.0011780972448751821, -0.013351768775252066, -0.01060287520387664, 0.008639379795751335, -0.0047123889795007284, 0.0019634954081253035, 0.0007853981632501215, -0.001570796326500243, 0.011780972448751823, 0.009032078877376396, 0.022383847652628464, 0.01727875959150267, -0.011780972448751823, 0.003926990816250607, 0.00510508806112579, 0.0)","(0.0, 0.0, -14.684, 10.916, 0.528, 5.004, 0.084, -2.628, 0.4, 7.836, -16.012, -0.028, -28.704, -0.016, 0.16, -0.084, -20.48)",2803699,1522677950,632710524,robotiq_force_torque_frame_id,1.67900000215,-0.18400011062600002,0.145001602173,-0.057000000029800005,-0.19200000166900003,-0.11500000208599999,0.0,0.0,0.0,0.0,0.0,0.0,0.0,0.0,0.0,0.0,3,"(0.729030535447201, -0.0945102789634731, 0.0019525902987892335, 0.9859321394842029, 0.16484069811544416, 0.015161401764689431, 0.023140710305542746)",0.23000001907999978,0.109999895096,-0.039997100829999965,0.0009999983012999938,-0.003000006080000034,-0.017000004648999992
1522706750.67,20596,1522677950,645415067,,2822463,1522677947,667254562,,0.795261937113,-0.45044196528,0.129093783617,0.0320910693456,0.999396633542,-0.0104799905012,0.00816712512355,0.007237933603279999,-0.0017739228107599998,0.012095662245499999,-0.00824535101187,-0.022615257946200003,-0.0015351818165099998,0.8376557827,-0.41011768579499996,6.750197410580001,0.85482609272,0.257849484682,0.38915696740199995,2822814,1522677947,675306910,,"['head_nod', 'head_pan', 'left_e0', 'left_e1', 'left_s0', 'left_s1', 'left_w0', 'left_w1', 'left_w2', 'right_e0', 'right_e1', 'right_s0', 'right_s1', 'right_w0', 'right_w1', 'right_w2', 'torso_t0']","(0.0, -0.1012427320004373, -0.9065826456402796, 1.5025341817337627, 0.27880100819817394, 0.6446554261088451, 2.3412381775101125, -0.48780589054756157, -0.03259709174256504, 0.46594666432019444, 0.922305948716105, 0.3133155759255958, -0.7079321336091184, -0.3727573314561555, 1.4047429065060677, -0.03106311095467963, -12.565987119160338)","(0.0, 0.005497787142750851, -0.00039269908162506076, 0.008639379795751335, 0.00510508806112579, -0.006675884387626033, 0.003926990816250607, 0.008246680714126275, 0.0047123889795007284, 0.01610066234662749, -0.007853981632501214, -0.009424777959001457, -0.00039269908162506076, 0.012959069693627005, -0.00039269908162506076, -0.006283185306000972, 0.0)","(0.0, 0.0, -14.556, 10.916, 0.34, 5.068, 0.084, -2.616, 0.372, 7.992, -16.104, 0.028, -28.672, 0.008, 0.168, -0.1, -20.48)",2803700,1522677950,644915333,robotiq_force_torque_frame_id,0.718999963999,1.07600011826,0.055001449584999994,-0.06499999761580001,-0.18500000238400002,-0.12800000607999998,0.0,0.0,0.0,0.0,0.0,0.0,0.0,0.0,0.0,0.0,3,"(0.729030535447201, -0.0945102789634731, 0.0019525902987892335, 0.9859321394842029, 0.16484069811544416, 0.015161401764689431, 0.023140710305542746)",-0.960000038151,1.2600002288860002,-0.09000015258800001,-0.007999997586000007,0.006999999285000003,-0.01300000399399999
1522706750.67,20597,1522677950,655404090,,2822464,1522677947,677262235,,0.7958271326109999,-0.45025881174099996,0.129504607852,0.0318210238008,0.999396322394,-0.0107520013216,0.00887736994445,0.005219530214689999,0.00647170135279,0.00489115279348,0.0222333310689,-0.014675429619200002,0.0027770881225900003,1.34620153904,-0.30742716789200003,6.93873405457,0.825745642185,0.479603111744,0.38127529621100004,2822814,1522677947,675306910,,"['head_nod', 'head_pan', 'left_e0', 'left_e1', 'left_s0', 'left_s1', 'left_w0', 'left_w1', 'left_w2', 'right_e0', 'right_e1', 'right_s0', 'right_s1', 'right_w0', 'right_w1', 'right_w2', 'torso_t0']","(0.0, -0.1012427320004373, -0.9065826456402796, 1.5025341817337627, 0.27880100819817394, 0.6446554261088451, 2.3412381775101125, -0.48780589054756157, -0.03259709174256504, 0.46594666432019444, 0.922305948716105, 0.3133155759255958, -0.7079321336091184, -0.3727573314561555, 1.4047429065060677, -0.03106311095467963, -12.565987119160338)","(0.0, 0.005497787142750851, -0.00039269908162506076, 0.008639379795751335, 0.00510508806112579, -0.006675884387626033, 0.003926990816250607, 0.008246680714126275, 0.0047123889795007284, 0.01610066234662749, -0.007853981632501214, -0.009424777959001457, -0.00039269908162506076, 0.012959069693627005, -0.00039269908162506076, -0.006283185306000972, 0.0)","(0.0, 0.0, -14.556, 10.916, 0.34, 5.068, 0.084, -2.616, 0.372, 7.992, -16.104, 0.028, -28.672, 0.008, 0.168, -0.1, -20.48)",2803701,1522677950,653053021,robotiq_force_torque_frame_id,0.399000030756,1.51600005627,0.0750019073486,-0.059000000357599995,-0.173999994993,-0.12800000607999998,0.0,0.0,0.0,0.0,0.0,0.0,0.0,0.0,0.0,0.0,3,"(0.729030535447201, -0.0945102789634731, 0.0019525902987892335, 0.9859321394842029, 0.16484069811544416, 0.015161401764689431, 0.023140710305542746)",-0.319999933243,0.4399999380099999,0.02000045776360001,0.005999997258200017,0.011000007391000016,0.0
1522706750.71,20598,1522677950,666178941,,2822466,1522677947,697263869,,0.795544428926,-0.449750436589,0.12902580526,0.0315959213332,0.9994162947849999,-0.00988242649245,0.008432385196979999,0.000420138599742,0.0324414286182,-0.0053380854032000005,0.0362437062076,0.007469434306390001,0.0386564742269,1.29091906548,-0.363924145699,6.86265468597,0.797050595284,0.46762907505,0.365761697292,1116458,1522677947,697999872,,['l_gripper_l_finger_joint'],"(0.0032494800670444966,)","(0.0,)","(0.0,)",2803702,1522677950,665262534,robotiq_force_torque_frame_id,1.55900011659,0.0459999084473,0.0350009918213,-0.057000000029800005,-0.172000005841,-0.11299999803300001,0.0,0.0,0.0,0.0,0.0,0.0,0.0,0.0,0.0,0.0,3,"(0.729030535447201, -0.0945102789634731, 0.0019525902987892335, 0.9859321394842029, 0.16484069811544416, 0.015161401764689431, 0.023140710305542746)",1.160000085834,-1.4700001478227,-0.0400009155273,0.0020000003277999903,0.0019999891520000035,0.015000008046999969
1522706750.71,20599,1522677950,675422906,,2822466,1522677947,697263869,,0.795544428926,-0.449750436589,0.12902580526,0.0315959213332,0.9994162947849999,-0.00988242649245,0.008432385196979999,0.000420138599742,0.0324414286182,-0.0053380854032000005,0.0362437062076,0.007469434306390001,0.0386564742269,1.29091906548,-0.363924145699,6.86265468597,0.797050595284,0.46762907505,0.365761697292,2822817,1522677947,705341743,,"['head_nod', 'head_pan', 'left_e0', 'left_e1', 'left_s0', 'left_s1', 'left_w0', 'left_w1', 'left_w2', 'right_e0', 'right_e1', 'right_s0', 'right_s1', 'right_w0', 'right_w1', 'right_w2', 'torso_t0']","(0.0, -0.1012427320004373, -0.9069661408372509, 1.50176719133982, 0.27880100819817394, 0.6450389213058165, 2.3408546823131413, -0.48780589054756157, -0.03298058693953639, 0.4655631691232231, 0.922305948716105, 0.3133155759255958, -0.7067816480182044, -0.3723738362591842, 1.405126401703039, -0.032213596545593685, -12.565987119160338)","(0.0, -0.010995574285501701, -0.0011780972448751821, 0.0035342917346255468, -0.0019634954081253035, -0.008246680714126275, -0.009424777959001457, -0.009032078877376396, -0.01610066234662749, 0.011780972448751823, -0.014529866020127248, -0.018456856836377853, -0.009817477040626518, -0.008639379795751335, 0.005890486224375911, -0.0035342917346255468, 0.0)","(0.0, 0.0, -14.652, 10.948, 0.308, 5.036, 0.096, -2.648, 0.364, 7.804, -16.044, 0.028, -28.672, 0.04, 0.168, -0.112, -20.48)",2803703,1522677950,673408892,robotiq_force_torque_frame_id,2.4190000116799997,-0.393999910355,-0.164999771118,-0.0599999986589,-0.171000003815,-0.115999996662,0.0,0.0,0.0,0.0,0.0,0.0,0.0,0.0,0.0,0.0,3,"(0.729030535447201, -0.0945102789634731, 0.0019525902987892335, 0.9859321394842029, 0.16484069811544416, 0.015161401764689431, 0.023140710305542746)",0.8599998950899996,-0.4399998188023,-0.2000007629393,-0.002999998629099998,0.0010000020260000075,-0.0029999986289999947
1522706750.71,20600,1522677950,685405969,,2822467,1522677947,707253308,,0.7953508771269999,-0.450194167884,0.128681562731,0.0313975417224,0.999419505406,-0.0104453537923,0.00810809302388,0.00434235495864,-0.0133681351116,0.0131565912108,-0.00649063584159,-0.019531862398,-0.0110634773385,1.21352553368,-0.308106303215,6.81177043915,0.766047954559,0.43757876753799996,0.359336733818,1116459,1522677947,707000064,,['r_gripper_l_finger_joint'],"(0.019983251598477365,)","(0.0,)","(0.0,)",2803703,1522677950,673408892,robotiq_force_torque_frame_id,2.4190000116799997,-0.393999910355,-0.164999771118,-0.0599999986589,-0.171000003815,-0.115999996662,0.0,0.0,0.0,0.0,0.0,0.0,0.0,0.0,0.0,0.0,3,"(0.729030535447201, -0.0945102789634731, 0.0019525902987892335, 0.9859321394842029, 0.16484069811544416, 0.015161401764689431, 0.023140710305542746)",0.0,0.0,0.0,0.0,0.0,0.0
