time,.header.seq,.header.stamp.secs,.header.stamp.nsecs,.header.frame_id,.endpoint_state.header.seq,.endpoint_state.header.stamp.secs,.endpoint_state.header.stamp.nsecs,.endpoint_state.header.frame_id,.endpoint_state.pose.position.x,.endpoint_state.pose.position.y,.endpoint_state.pose.position.z,.endpoint_state.pose.orientation.x,.endpoint_state.pose.orientation.y,.endpoint_state.pose.orientation.z,.endpoint_state.pose.orientation.w,.endpoint_state.twist.linear.x,.endpoint_state.twist.linear.y,.endpoint_state.twist.linear.z,.endpoint_state.twist.angular.x,.endpoint_state.twist.angular.y,.endpoint_state.twist.angular.z,.endpoint_state.wrench.force.x,.endpoint_state.wrench.force.y,.endpoint_state.wrench.force.z,.endpoint_state.wrench.torque.x,.endpoint_state.wrench.torque.y,.endpoint_state.wrench.torque.z,.joint_state.header.seq,.joint_state.header.stamp.secs,.joint_state.header.stamp.nsecs,.joint_state.header.frame_id,.joint_state.name,.joint_state.position,.joint_state.velocity,.joint_state.effort,.wrench_stamped.header.seq,.wrench_stamped.header.stamp.secs,.wrench_stamped.header.stamp.nsecs,.wrench_stamped.header.frame_id,.wrench_stamped.wrench.force.x,.wrench_stamped.wrench.force.y,.wrench_stamped.wrench.force.z,.wrench_stamped.wrench.torque.x,.wrench_stamped.wrench.torque.y,.wrench_stamped.wrench.torque.z,.tactile_values.tactile_values_0,.tactile_values.tactile_values_1,.tactile_values.tactile_values_2,.tactile_values.tactile_values_3,.tactile_values.tactile_values_4,.tactile_values.tactile_values_5,.tactile_values.tactile_values_6,.tactile_values.tactile_values_7,.tactile_values.tactile_values_8,.tactile_values.tactile_values_9,.tag,.goal_vector,.delta_wrench.force.x,.delta_wrench.force.y,.delta_wrench.force.z,.delta_wrench.torque.x,.delta_wrench.torque.y,.delta_wrench.torque.z
1522082637.43,34736,1522053837,399410009,,789366,1522053834,781847956,,0.815830553937,-0.452016648415,0.08714382743999999,0.999443963757,-0.0306771287162,0.00743892759699,0.010739620061600001,0.0165664938724,0.036105299608400004,0.0021121880043199997,0.017606471399299998,-0.023045381470499997,0.0380266545282,0.216700673103,-0.057369440794,0.270956039429,0.40388315916100004,0.36536431312600004,0.288146257401,789761,1522053834,759958771,,"['head_nod', 'head_pan', 'left_e0', 'left_e1', 'left_s0', 'left_s1', 'left_w0', 'left_w1', 'left_w2', 'right_e0', 'right_e1', 'right_s0', 'right_s1', 'right_w0', 'right_w1', 'right_w2', 'torso_t0']","(0.0, -0.10162622719740866, -0.9154030351706206, 1.5098205904762185, 0.28685440733457235, 0.6527088252452435, 2.3485245862525685, -0.47668452983539233, -0.026461168591023387, 0.4651796739262517, 0.922305948716105, 0.3136990711225671, -0.7094661143970039, -0.3723738362591842, 1.408577858475781, -0.032213596545593685, -12.565987119160338)","(0.0, 0.0, -0.0011780972448751821, 0.007461282550876154, 0.012173671530376884, -0.011388273367126762, 0.018849555918002914, -0.0019634954081253035, 0.0027488935713754254, -0.006283185306000972, 0.0027488935713754254, -0.0027488935713754254, -0.0035342917346255468, 0.01531526418337737, 0.004319689897875668, -0.0011780972448751821, 0.0)","(0.0, 0.0, -14.524, 11.108, 0.404, 4.12, 0.068, -2.648, 0.316, 7.144, -15.984, 0.124, -28.968, 0.032, 0.2, -0.12, -20.48)",254277,1522053837,396503126,robotiq_force_torque_frame_id,-3.30499994755,-0.791999959946,0.804999542236,-0.0579999983311,-0.20999999344300002,-0.142000004649,-2.0,6.0,6.0,11.0,15.0,119.0,124.0,128.0,131.0,145.0,3,"(0.10835054662578285, -0.8137091741785296, 0.14207793518772907, 0.9999377972961767, -0.004352227397900769, -0.009388168303921661, 0.004161964805750736)",0.0,0.0,0.0,0.0,0.0,0.0
1522082637.43,34737,1522053837,409393072,,789367,1522053834,791853762,,0.816642982867,-0.451907653553,0.08763590645300001,0.9994290958769999,-0.0309147346992,0.00822179160261,0.0108703098555,0.0107548420183,0.00708245666051,0.0109091458482,-0.0025884845048000002,-0.0283251903361,0.0169065715753,0.420749396086,0.0281657725573,0.36050766706500004,0.33435639739,0.478552371264,0.258724570274,789763,1522053834,779904099,,"['head_nod', 'head_pan', 'left_e0', 'left_e1', 'left_s0', 'left_s1', 'left_w0', 'left_w1', 'left_w2', 'right_e0', 'right_e1', 'right_s0', 'right_s1', 'right_w0', 'right_w1', 'right_w2', 'torso_t0']","(0.0, -0.10200972239438001, -0.9146360447766779, 1.509437095279247, 0.286470912137601, 0.6530923204422149, 2.3473741006616544, -0.4759175394414496, -0.026461168591023387, 0.4655631691232231, 0.9234564343070191, 0.3136990711225671, -0.7098496095939753, -0.37199034106221285, 1.4081943632788099, -0.03298058693953639, -12.565987119160338)","(0.0, -0.012959069693627005, 0.0011780972448751821, -0.01060287520387664, 0.0023561944897503642, 0.011388273367126762, -0.00510508806112579, -0.005497787142750851, -0.0047123889795007284, 0.030237829285129678, 0.0007853981632501215, 0.023561944897503646, 0.0027488935713754254, -0.0027488935713754254, -0.01610066234662749, 0.006283185306000972, 0.0)","(0.0, 0.0, -14.492, 11.108, 0.56, 4.088, 0.068, -2.636, 0.324, 7.24, -15.984, 0.092, -28.968, 0.024, 0.2, -0.14, -20.48)",254278,1522053837,404634887,robotiq_force_torque_frame_id,-2.56499993801,-0.742000007629,0.6350013732909999,-0.057000000029800005,-0.20800000429200002,-0.151999995112,-2.0,1.0,7.0,9.0,11.0,111.0,115.0,124.0,127.0,145.0,3,"(0.10835054662578285, -0.8137091741785296, 0.14207793518772907, 0.9999377972961767, -0.004352227397900769, -0.009388168303921661, 0.004161964805750736)",0.7400000095399997,0.04999995231700005,-0.16999816894500008,0.0009999983012999938,0.001999989150999998,-0.009999990462999986
1522082637.43,34738,1522053837,419431924,,789367,1522053834,791853762,,0.816642982867,-0.451907653553,0.08763590645300001,0.9994290958769999,-0.0309147346992,0.00822179160261,0.0108703098555,0.0107548420183,0.00708245666051,0.0109091458482,-0.0025884845048000002,-0.0283251903361,0.0169065715753,0.420749396086,0.0281657725573,0.36050766706500004,0.33435639739,0.478552371264,0.258724570274,789765,1522053834,799932972,,"['head_nod', 'head_pan', 'left_e0', 'left_e1', 'left_s0', 'left_s1', 'left_w0', 'left_w1', 'left_w2', 'right_e0', 'right_e1', 'right_s0', 'right_s1', 'right_w0', 'right_w1', 'right_w2', 'torso_t0']","(0.0, -0.10239321759135137, -0.9146360447766779, 1.5086701048853044, 0.28685440733457235, 0.6527088252452435, 2.3473741006616544, -0.4759175394414496, -0.026461168591023387, 0.4663301595171658, 0.9230729391100477, 0.31408256631953846, -0.7098496095939753, -0.37160684586524145, 1.4081943632788099, -0.032213596545593685, -12.565987119160338)","(0.0, 0.0027488935713754254, 0.021991148571003403, -0.018456856836377853, 0.004319689897875668, 0.003926990816250607, 0.019242254999627974, -0.003141592653000486, 0.006675884387626033, -0.02670353755050413, 0.009424777959001457, -0.010995574285501701, 0.009424777959001457, -0.004319689897875668, -0.012566370612001944, 0.007461282550876154, 0.0)","(0.0, 0.0, -14.524, 11.14, 0.56, 4.088, 0.076, -2.588, 0.336, 7.176, -15.984, 0.124, -28.996, 0.04, 0.188, -0.14, -20.48)",254279,1522053837,416930494,robotiq_force_torque_frame_id,-2.36499989033,-0.672000074387,0.9449989318850001,-0.059000000357599995,-0.211999997497,-0.148000001907,1.0,2.0,7.0,15.0,20.0,110.0,116.0,127.0,128.0,153.0,3,"(0.10835054662578285, -0.8137091741785296, 0.14207793518772907, 0.9999377972961767, -0.004352227397900769, -0.009388168303921661, 0.004161964805750736)",0.20000004768000013,0.06999993324199993,0.30999755859400013,-0.0020000003277999903,-0.003999993204999969,0.0039999932049999964
1522082637.47,34739,1522053837,429415941,,789368,1522053834,801850646,,0.8162496661480001,-0.451154876359,0.08738134079939999,0.999444838923,-0.030718297695,0.00776118385953,0.0103035995034,-0.00922168704371,-0.0250741609453,-0.013012721873000002,-0.0177770122702,0.0140398027755,-0.031801153566900005,0.198592185974,-0.018336892128,0.26330211758600003,0.352648079395,0.357586741447,0.27061384916299996,789766,1522053834,809893096,,"['head_nod', 'head_pan', 'left_e0', 'left_e1', 'left_s0', 'left_s1', 'left_w0', 'left_w1', 'left_w2', 'right_e0', 'right_e1', 'right_s0', 'right_s1', 'right_w0', 'right_w1', 'right_w2', 'torso_t0']","(0.0, -0.10200972239438001, -0.9146360447766779, 1.5090536000822758, 0.28685440733457235, 0.6527088252452435, 2.3473741006616544, -0.4751505490475069, -0.02569417819708068, 0.4651796739262517, 0.9226894439130764, 0.3144660615165098, -0.7094661143970039, -0.3708398554712988, 1.4074273728848672, -0.03259709174256504, -12.565987119160338)","(0.0, 0.00510508806112579, 0.004319689897875668, 0.030237829285129678, 0.01767145867312773, 0.005497787142750851, 0.0011780972448751821, 0.024740042142378828, 0.03377212101975522, 0.007853981632501214, 0.0007853981632501215, -0.027096236632129192, -0.009424777959001457, 0.0011780972448751821, -0.005497787142750851, -0.0035342917346255468, 0.0)","(0.0, 0.0, -14.588, 11.076, 0.62, 4.152, 0.076, -2.628, 0.316, 7.144, -16.012, 0.216, -29.024, 0.04, 0.2, -0.128, -20.48)",254280,1522053837,425072854,robotiq_force_torque_frame_id,-2.29499995708,-0.521999979019,1.2550003051799998,-0.06499999761580001,-0.21400000155,-0.141000002623,2.0,12.0,15.0,20.0,21.0,116.0,118.0,126.0,128.0,155.0,3,"(0.10835054662578285, -0.8137091741785296, 0.14207793518772907, 0.9999377972961767, -0.004352227397900769, -0.009388168303921661, 0.004161964805750736)",0.06999993325000009,0.15000009536800007,0.31000137329499977,-0.005999997258200017,-0.0020000040530000207,0.006999999283999997
1522082637.47,34740,1522053837,439407110,,789369,1522053834,811843693,,0.8165098394600001,-0.451340049365,0.0871295444235,0.9994399091159999,-0.0308262439581,0.00798464350852,0.010288645079200002,0.0010427377573,-0.0159897720183,0.00734188877942,0.0018121995404800002,-0.0158871889782,-0.0182378833648,0.534285724163,0.03639729321000001,0.329158812761,0.305370420218,0.523194670677,0.244504347444,789766,1522053834,809893096,,"['head_nod', 'head_pan', 'left_e0', 'left_e1', 'left_s0', 'left_s1', 'left_w0', 'left_w1', 'left_w2', 'right_e0', 'right_e1', 'right_s0', 'right_s1', 'right_w0', 'right_w1', 'right_w2', 'torso_t0']","(0.0, -0.10200972239438001, -0.9146360447766779, 1.5090536000822758, 0.28685440733457235, 0.6527088252452435, 2.3473741006616544, -0.4751505490475069, -0.02569417819708068, 0.4651796739262517, 0.9226894439130764, 0.3144660615165098, -0.7094661143970039, -0.3708398554712988, 1.4074273728848672, -0.03259709174256504, -12.565987119160338)","(0.0, 0.00510508806112579, 0.004319689897875668, 0.030237829285129678, 0.01767145867312773, 0.005497787142750851, 0.0011780972448751821, 0.024740042142378828, 0.03377212101975522, 0.007853981632501214, 0.0007853981632501215, -0.027096236632129192, -0.009424777959001457, 0.0011780972448751821, -0.005497787142750851, -0.0035342917346255468, 0.0)","(0.0, 0.0, -14.588, 11.076, 0.62, 4.152, 0.076, -2.628, 0.316, 7.144, -16.012, 0.216, -29.024, 0.04, 0.2, -0.128, -20.48)",254281,1522053837,437262973,robotiq_force_torque_frame_id,-1.9550000429199998,-0.9120000839229999,1.14499969482,-0.0689999982715,-0.201000005007,-0.146999999881,-1.0,5.0,9.0,20.0,32.0,118.0,122.0,124.0,143.0,155.0,3,"(0.10835054662578285, -0.8137091741785296, 0.14207793518772907, 0.9999377972961767, -0.004352227397900769, -0.009388168303921661, 0.004161964805750736)",0.3399999141600001,-0.39000010490399994,-0.11000061035999975,-0.004000000655699984,0.01299999654300002,-0.005999997257999989
1522082637.47,34741,1522053837,449414968,,789371,1522053834,831847772,,0.816367569085,-0.452299057648,0.08760515730260002,0.9994242769670001,-0.0310866192865,0.008051370513969999,0.0109504403202,-0.0026589226528300003,0.0155207684435,-0.015876029947799998,0.0007302154762180001,0.023259445860599998,0.0375071513755,0.289674252272,-0.156147867441,0.242655813694,0.423195302486,0.39715242385899996,0.263505458832,312181,1522053834,836999936,,['r_gripper_l_finger_joint'],"(0.019983251598477365,)","(0.0,)","(0.0,)",254282,1522053837,445399078,robotiq_force_torque_frame_id,-1.82499992847,-0.9720000267030001,0.935000610352,-0.0710000023246,-0.19699999690099998,-0.165999993682,-2.0,5.0,9.0,20.0,32.0,108.0,122.0,124.0,143.0,155.0,3,"(0.10835054662578285, -0.8137091741785296, 0.14207793518772907, 0.9999377972961767, -0.004352227397900769, -0.009388168303921661, 0.004161964805750736)",0.13000011444999982,-0.059999942780000204,-0.20999908446800009,-0.00200000405310001,0.004000008106000014,-0.01899999380100001
1522082637.47,34742,1522053837,459434986,,789371,1522053834,831847772,,0.816367569085,-0.452299057648,0.08760515730260002,0.9994242769670001,-0.0310866192865,0.008051370513969999,0.0109504403202,-0.0026589226528300003,0.0155207684435,-0.015876029947799998,0.0007302154762180001,0.023259445860599998,0.0375071513755,0.289674252272,-0.156147867441,0.242655813694,0.423195302486,0.39715242385899996,0.263505458832,312181,1522053834,836999936,,['r_gripper_l_finger_joint'],"(0.019983251598477365,)","(0.0,)","(0.0,)",254283,1522053837,457634116,robotiq_force_torque_frame_id,-2.20499992371,-0.412000083923,0.894999694824,-0.0729999989271,-0.204999998212,-0.166999995708,-2.0,-1.0,4.0,20.0,29.0,118.0,119.0,122.0,143.0,150.0,3,"(0.10835054662578285, -0.8137091741785296, 0.14207793518772907, 0.9999377972961767, -0.004352227397900769, -0.009388168303921661, 0.004161964805750736)",-0.37999999523999994,0.5599999427800001,-0.040000915528,-0.0019999966024999982,-0.00800000131100001,-0.0010000020260000075
1522082637.47,34743,1522053837,469563007,,789372,1522053834,841848024,,0.816243270263,-0.451118186271,0.0873326963022,0.99944603963,-0.0306501203106,0.007700343861529999,0.010434974684,0.008978066506520001,0.00406398989682,0.00599031615592,-0.0189409452396,-0.01826877773,0.0252201912121,0.358991414309,-0.0145777016878,0.296741515398,0.370002239943,0.413599848747,0.279048800468,789769,1522053834,839941837,,"['head_nod', 'head_pan', 'left_e0', 'left_e1', 'left_s0', 'left_s1', 'left_w0', 'left_w1', 'left_w2', 'right_e0', 'right_e1', 'right_s0', 'right_s1', 'right_w0', 'right_w1', 'right_w2', 'torso_t0']","(0.0, -0.10200972239438001, -0.9146360447766779, 1.5086701048853044, 0.286470912137601, 0.6527088252452435, 2.3473741006616544, -0.47553404424447826, -0.02569417819708068, 0.46594666432019444, 0.9230729391100477, 0.3144660615165098, -0.7098496095939753, -0.37160684586524145, 1.4081943632788099, -0.032213596545593685, -12.565987119160338)","(0.0, -0.008639379795751335, 0.0, 0.005497787142750851, -0.012566370612001944, -0.01688606050987761, 0.01060287520387664, -0.01688606050987761, -0.01767145867312773, -0.0023561944897503642, 0.0070685834692510935, 0.014922565101752308, -0.012173671530376884, -0.011388273367126762, -0.01610066234662749, -0.007461282550876154, 0.0)","(0.0, 0.0, -14.556, 11.172, 0.56, 4.088, 0.076, -2.616, 0.316, 7.24, -16.012, 0.152, -28.996, 0.032, 0.18, -0.14, -20.48)",254284,1522053837,465775489,robotiq_force_torque_frame_id,-2.44499993324,-0.38200011253399996,0.975001525879,-0.07000000029799999,-0.212999999523,-0.148000001907,-1.0,1.0,23.0,29.0,66.0,118.0,119.0,122.0,143.0,153.0,3,"(0.10835054662578285, -0.8137091741785296, 0.14207793518772907, 0.9999377972961767, -0.004352227397900769, -0.009388168303921661, 0.004161964805750736)",-0.2400000095300001,0.02999997138900007,0.08000183105500003,0.002999998629100012,-0.00800000131100001,0.01899999380100001
1522082637.48,34744,1522053837,479454040,,789373,1522053834,851846188,,0.816638167282,-0.4518288280899999,0.0875032440618,0.99944298464,-0.0304624217314,0.0082307031377,0.010863555636100001,0.00118095178146,-0.0127341048032,0.00238287298223,-0.0111882186852,-0.005849978573479999,-0.0163998681254,0.16238494217399999,-0.021139219403300002,0.297558635473,0.373005628586,0.3339163661,0.260850310326,789771,1522053834,859952996,,"['head_nod', 'head_pan', 'left_e0', 'left_e1', 'left_s0', 'left_s1', 'left_w0', 'left_w1', 'left_w2', 'right_e0', 'right_e1', 'right_s0', 'right_s1', 'right_w0', 'right_w1', 'right_w2', 'torso_t0']","(0.0, -0.10162622719740866, -0.9154030351706206, 1.509437095279247, 0.28723790253154374, 0.6527088252452435, 2.346990605464683, -0.476301034638421, -0.026077673394052033, 0.4663301595171658, 0.9226894439130764, 0.3133155759255958, -0.7094661143970039, -0.37199034106221285, 1.4074273728848672, -0.032213596545593685, -12.565987119160338)","(0.0, -0.0023561944897503642, -0.006675884387626033, 0.004319689897875668, 0.007853981632501214, 0.005497787142750851, -0.009032078877376396, 0.014137166938502187, -0.00510508806112579, 0.0047123889795007284, -0.012173671530376884, -0.006283185306000972, -0.011388273367126762, -0.004319689897875668, -0.004319689897875668, 0.0035342917346255468, 0.0)","(0.0, 0.0, -14.524, 11.076, 0.592, 4.088, 0.052, -2.636, 0.316, 7.208, -16.012, 0.152, -28.996, 0.048, 0.188, -0.128, -20.48)",254285,1522053837,473908271,robotiq_force_torque_frame_id,-2.4349999427799998,-0.40200009346,0.975001525879,-0.06499999761580001,-0.21400000155,-0.14000000059599998,1.0,1.0,19.0,23.0,66.0,122.0,124.0,126.0,143.0,153.0,3,"(0.10835054662578285, -0.8137091741785296, 0.14207793518772907, 0.9999377972961767, -0.004352227397900769, -0.009388168303921661, 0.004161964805750736)",0.00999999046000033,-0.019999980926000027,0.0,0.0050000026821999805,-0.0010000020270000132,0.00800000131100001
1522082637.52,34745,1522053837,489465951,,789375,1522053834,871852677,,0.816358123659,-0.45244414617,0.0871450029916,0.9994347782009999,-0.0306782617008,0.007918822871270001,0.0112365753813,0.00359727678885,-0.0058926129003000005,-0.00406460113197,-0.0048822227715,-0.00903297225187,-0.0105561250345,0.724606990814,-0.0889301896095,0.33855804801,0.35358473658600004,0.598139226437,0.25559473037700003,789772,1522053834,869920280,,"['head_nod', 'head_pan', 'left_e0', 'left_e1', 'left_s0', 'left_s1', 'left_w0', 'left_w1', 'left_w2', 'right_e0', 'right_e1', 'right_s0', 'right_s1', 'right_w0', 'right_w1', 'right_w2', 'torso_t0']","(0.0, -0.10200972239438001, -0.9142525495797066, 1.509437095279247, 0.28723790253154374, 0.6527088252452435, 2.3473741006616544, -0.476301034638421, -0.02569417819708068, 0.4651796739262517, 0.9226894439130764, 0.31408256631953846, -0.7094661143970039, -0.3727573314561555, 1.4074273728848672, -0.03298058693953639, -12.565987119160338)","(0.0, 0.006675884387626033, 0.003926990816250607, 0.015707963265002428, -0.0019634954081253035, 0.006675884387626033, -0.012959069693627005, 0.0, -0.00510508806112579, -0.0047123889795007284, 0.0011780972448751821, -0.0023561944897503642, 0.00510508806112579, -0.0027488935713754254, -0.01649336142825255, 0.006283185306000972, 0.0)","(0.0, 0.0, -14.492, 11.044, 0.62, 4.152, 0.076, -2.608, 0.336, 7.08, -16.044, 0.184, -29.024, 0.048, 0.188, -0.148, -20.48)",254286,1522053837,486114815,robotiq_force_torque_frame_id,-2.5149999856900003,-0.38200011253399996,1.03499908447,-0.0599999986589,-0.216999992728,-0.14499999582800002,1.0,7.0,19.0,33.0,41.0,122.0,124.0,124.0,139.0,155.0,3,"(0.10835054662578285, -0.8137091741785296, 0.14207793518772907, 0.9999377972961767, -0.004352227397900769, -0.009388168303921661, 0.004161964805750736)",-0.08000004291000051,0.019999980926000027,0.05999755859100009,0.004999998956900009,-0.0029999911779999833,-0.004999995232000037
1522082637.52,34746,1522053837,499586105,,789376,1522053834,881857417,,0.8162089937929999,-0.45146296375100003,0.08694972079260001,0.9994478579430001,-0.0305484396013,0.007714823517810001,0.0105476816597,0.000384511239542,0.019475137239400003,-0.0182853876458,0.0229587940608,0.00893159988084,0.0210459490695,0.315172493458,-0.0315834879875,0.316483229399,0.36603671312299996,0.40832564234700003,0.257149368525,789772,1522053834,869920280,,"['head_nod', 'head_pan', 'left_e0', 'left_e1', 'left_s0', 'left_s1', 'left_w0', 'left_w1', 'left_w2', 'right_e0', 'right_e1', 'right_s0', 'right_s1', 'right_w0', 'right_w1', 'right_w2', 'torso_t0']","(0.0, -0.10200972239438001, -0.9142525495797066, 1.509437095279247, 0.28723790253154374, 0.6527088252452435, 2.3473741006616544, -0.476301034638421, -0.02569417819708068, 0.4651796739262517, 0.9226894439130764, 0.31408256631953846, -0.7094661143970039, -0.3727573314561555, 1.4074273728848672, -0.03298058693953639, -12.565987119160338)","(0.0, 0.006675884387626033, 0.003926990816250607, 0.015707963265002428, -0.0019634954081253035, 0.006675884387626033, -0.012959069693627005, 0.0, -0.00510508806112579, -0.0047123889795007284, 0.0011780972448751821, -0.0023561944897503642, 0.00510508806112579, -0.0027488935713754254, -0.01649336142825255, 0.006283185306000972, 0.0)","(0.0, 0.0, -14.492, 11.044, 0.62, 4.152, 0.076, -2.608, 0.336, 7.08, -16.044, 0.184, -29.024, 0.048, 0.188, -0.148, -20.48)",254287,1522053837,494343129,robotiq_force_torque_frame_id,-2.4849998951,-0.412000083923,0.525000762939,-0.0799999982119,-0.19799999892700001,-0.141000002623,5.0,7.0,12.0,20.0,36.0,122.0,124.0,131.0,139.0,157.0,3,"(0.10835054662578285, -0.8137091741785296, 0.14207793518772907, 0.9999377972961767, -0.004352227397900769, -0.009388168303921661, 0.004161964805750736)",0.030000090590000195,-0.02999997138900007,-0.5099983215310001,-0.019999999552999997,0.01899999380099998,0.003999993205000024
1522082637.52,34747,1522053837,513537883,,789377,1522053834,891856760,,0.816778998093,-0.45122322943300003,0.0874549519332,0.9994499296259999,-0.030202498769099997,0.00817607788265,0.0109908593494,0.008966479277670001,-0.012873138614100001,0.016000472299600003,-0.0153400814405,-0.0321350407618,-0.0135944539408,0.373551756144,-0.07805447280410001,0.329137504101,0.36987602710699996,0.45615366101300003,0.267917454243,312184,1522053834,894000128,,['l_gripper_l_finger_joint'],"(0.02083,)","(0.0,)","(0.0,)",254288,1522053837,506545701,robotiq_force_torque_frame_id,-2.5849999189400004,-0.6119998931880001,0.264998626709,-0.082000002265,-0.19200000166900003,-0.142000004649,-2.0,1.0,4.0,20.0,24.0,126.0,129.0,138.0,139.0,157.0,3,"(0.10835054662578285, -0.8137091741785296, 0.14207793518772907, 0.9999377972961767, -0.004352227397900769, -0.009388168303921661, 0.004161964805750736)",-0.10000002384000028,-0.19999980926500005,-0.26000213623,-0.0020000040530999963,0.005999997257999989,-0.0010000020260000075
1522082637.56,34748,1522053837,519475936,,789377,1522053834,891856760,,0.816778998093,-0.45122322943300003,0.0874549519332,0.9994499296259999,-0.030202498769099997,0.00817607788265,0.0109908593494,0.008966479277670001,-0.012873138614100001,0.016000472299600003,-0.0153400814405,-0.0321350407618,-0.0135944539408,0.373551756144,-0.07805447280410001,0.329137504101,0.36987602710699996,0.45615366101300003,0.267917454243,312184,1522053834,894000128,,['l_gripper_l_finger_joint'],"(0.02083,)","(0.0,)","(0.0,)",254289,1522053837,518748715,robotiq_force_torque_frame_id,-2.21499991417,-0.811999940872,0.924998474121,-0.0680000036955,-0.207000002265,-0.145999997854,-2.0,1.0,4.0,24.0,50.0,126.0,129.0,138.0,139.0,143.0,3,"(0.10835054662578285, -0.8137091741785296, 0.14207793518772907, 0.9999377972961767, -0.004352227397900769, -0.009388168303921661, 0.004161964805750736)",0.3700000047700005,-0.20000004768399993,0.659999847412,0.013999998569500002,-0.015000000595999985,-0.0039999932049999964
1522082637.56,34749,1522053837,529431104,,789378,1522053834,901839401,,0.8169633407260001,-0.45132933957800003,0.08754529067530001,0.9994271707179999,-0.0311134813388,0.008542370650789999,0.0102132077953,0.0203904415329,-0.009166802003290002,0.0234677026109,-0.0175717104696,-0.0490129254373,-0.011602802369,0.422663450241,-0.162925809622,0.297970682383,0.44481444358800004,0.478772759438,0.27379924058899996,789775,1522053834,899934825,,"['head_nod', 'head_pan', 'left_e0', 'left_e1', 'left_s0', 'left_s1', 'left_w0', 'left_w1', 'left_w2', 'right_e0', 'right_e1', 'right_s0', 'right_s1', 'right_w0', 'right_w1', 'right_w2', 'torso_t0']","(0.0, -0.10200972239438001, -0.9146360447766779, 1.5086701048853044, 0.28723790253154374, 0.6530923204422149, 2.3485245862525685, -0.47553404424447826, -0.026461168591023387, 0.4651796739262517, 0.922305948716105, 0.3144660615165098, -0.7098496095939753, -0.37045636027432743, 1.4070438776878957, -0.032213596545593685, -12.565987119160338)","(0.0, 0.01021017612225158, 0.00510508806112579, -0.012173671530376884, -0.01727875959150267, 0.003926990816250607, -0.008639379795751335, 0.0310232274483798, 0.004319689897875668, -0.013744467856877126, -0.02631083846887907, 0.007853981632501214, -0.021991148571003403, 0.006283185306000972, -0.009032078877376396, 0.0007853981632501215, 0.0)","(0.0, 0.0, -14.46, 11.044, 0.56, 4.12, 0.076, -2.588, 0.324, 7.144, -16.012, 0.06, -28.968, 0.064, 0.208, -0.14, -20.48)",254290,1522053837,526886056,robotiq_force_torque_frame_id,-2.22499990463,-1.27199997902,1.3049995422399998,-0.05099999904630001,-0.21099999547000003,-0.149000003934,-1.0,2.0,4.0,24.0,50.0,124.0,134.0,139.0,143.0,151.0,3,"(0.10835054662578285, -0.8137091741785296, 0.14207793518772907, 0.9999377972961767, -0.004352227397900769, -0.009388168303921661, 0.004161964805750736)",-0.00999999046000033,-0.46000003814800006,0.3800010681189998,0.017000004649199985,-0.003999993205000024,-0.003000006080000006
1522082637.56,34750,1522053837,539479970,,789380,1522053834,921839593,,0.816493156239,-0.45072195421000005,0.08703514648779999,0.999454108372,-0.030444362985,0.00787094378969,0.010132831073,-0.0062461322843699995,-0.005689864005370001,-0.0102349933763,0.00288053646795,0.0100872547053,-0.0199089965052,0.222536191344,-0.16447751224,0.270182073116,0.442628920078,0.355990111828,0.290032744408,789777,1522053834,919943283,,"['head_nod', 'head_pan', 'left_e0', 'left_e1', 'left_s0', 'left_s1', 'left_w0', 'left_w1', 'left_w2', 'right_e0', 'right_e1', 'right_s0', 'right_s1', 'right_w0', 'right_w1', 'right_w2', 'torso_t0']","(0.0, -0.1012427320004373, -0.9150195399736493, 1.5086701048853044, 0.28723790253154374, 0.6527088252452435, 2.3473741006616544, -0.4751505490475069, -0.026077673394052033, 0.4655631691232231, 0.9230729391100477, 0.3148495567134812, -0.7094661143970039, -0.3708398554712988, 1.4074273728848672, -0.03259709174256504, -12.565987119160338)","(0.0, 0.008246680714126275, 0.00039269908162506076, 0.013351768775252066, -0.0007853981632501215, -0.01767145867312773, -0.004319689897875668, -0.012959069693627005, 0.0047123889795007284, -0.0019634954081253035, 0.013744467856877126, -0.009817477040626518, 0.007461282550876154, -0.00039269908162506076, -0.009817477040626518, 0.013744467856877126, 0.0)","(0.0, 0.0, -14.492, 11.076, 0.528, 4.056, 0.068, -2.608, 0.336, 7.176, -16.012, 0.028, -28.996, 0.048, 0.18, -0.148, -20.48)",254291,1522053837,535025050,robotiq_force_torque_frame_id,-2.86499989033,-0.6920000553129999,1.15499801636,-0.06499999761580001,-0.202000007033,-0.151999995112,-1.0,0.0,4.0,56.0,74.0,124.0,126.0,136.0,148.0,151.0,3,"(0.10835054662578285, -0.8137091741785296, 0.14207793518772907, 0.9999377972961767, -0.004352227397900769, -0.009388168303921661, 0.004161964805750736)",-0.6399999856999998,0.5799999237070002,-0.15000152587999982,-0.013999998569500002,0.008999988437000034,-0.0029999911779999833
1522082637.56,34751,1522053837,549743890,,789381,1522053834,932281248,,0.8170936407800001,-0.45184791222900006,0.0871502917056,0.999438905088,-0.030520941893500003,0.00863558259402,0.0107598241108,-0.00876402921808,0.011310723427899998,-0.0111770568123,0.029508409334,0.0193386388318,0.00239755782083,0.572213411331,-0.0767496824265,0.303943157196,0.37043434381499996,0.542513370514,0.26273328065900003,312185,1522053834,937999872,,['r_gripper_l_finger_joint'],"(0.019983251598477365,)","(0.0,)","(0.0,)",254292,1522053837,547247426,robotiq_force_torque_frame_id,-2.87499988079,-0.271999979019,0.725001525879,-0.07400000095369999,-0.201000005007,-0.151999995112,-5.0,-1.0,0.0,77.0,100.0,121.0,126.0,136.0,144.0,152.0,3,"(0.10835054662578285, -0.8137091741785296, 0.14207793518772907, 0.9999377972961767, -0.004352227397900769, -0.009388168303921661, 0.004161964805750736)",-0.009999990459999886,0.4200000762939999,-0.42999649048099997,-0.009000003337899978,0.0010000020260000075,0.0
1522082637.6,34752,1522053837,559494018,,789382,1522053834,942258131,,0.816860830917,-0.452319220864,0.08755407950110002,0.9994201990710001,-0.031079851710299998,0.00869920819255,0.0108458417919,0.000322296376586,-0.009920537119889999,-0.00478556476188,-0.00807281867488,-0.00259947786631,0.00168568865032,0.0977697968483,-0.00817947089672,0.278920948505,0.37910225987400004,0.330676168203,0.255903840065,312185,1522053834,937999872,,['r_gripper_l_finger_joint'],"(0.019983251598477365,)","(0.0,)","(0.0,)",254293,1522053837,555535858,robotiq_force_torque_frame_id,-2.4849998951,-0.62200012207,0.415000152588,-0.0750000029802,-0.201000005007,-0.151999995112,-1.0,0.0,15.0,77.0,100.0,112.0,121.0,143.0,145.0,152.0,3,"(0.10835054662578285, -0.8137091741785296, 0.14207793518772907, 0.9999377972961767, -0.004352227397900769, -0.009388168303921661, 0.004161964805750736)",0.38999998568999983,-0.35000014305099997,-0.310001373291,-0.0010000020265000104,0.0,0.0
1522082637.6,34753,1522053837,569523096,,789383,1522053834,952253482,,0.8170857939380001,-0.45110050078100006,0.08751647515699999,0.999430814328,-0.030930476109199998,0.008658252916530001,0.0103144401634,0.0101820632452,0.0030364688826899997,0.004655556384979999,-0.0019817263282,-0.021281009522599998,0.0036372951120399997,0.331056922674,0.0041589140891999995,0.23301599919799998,0.337402939796,0.42151391506200003,0.258533716202,312186,1522053834,944999936,,['l_gripper_l_finger_joint'],"(0.02083,)","(0.0,)","(0.0,)",254294,1522053837,567740268,robotiq_force_torque_frame_id,-2.24499988556,-0.742000007629,0.49499816894500004,-0.0780000016093,-0.19699999690099998,-0.149000003934,-1.0,3.0,15.0,56.0,73.0,112.0,130.0,143.0,145.0,163.0,3,"(0.10835054662578285, -0.8137091741785296, 0.14207793518772907, 0.9999377972961767, -0.004352227397900769, -0.009388168303921661, 0.004161964805750736)",0.24000000954000011,-0.11999988555899999,0.07999801635700005,-0.002999998629099998,0.004000008106000014,0.0029999911779999833
1522082637.6,34754,1522053837,583101987,,789384,1522053834,962278733,,0.817195843909,-0.450985333388,0.0874238469929,0.999439403853,-0.0306596152375,0.00874665654415,0.010215773078499999,-0.0064095064308,-0.018312691459900002,-0.00435730557544,-0.0146946466098,0.00720062467494,-0.0111015023666,0.282571971416,-0.125354558229,0.311924606562,0.432072758675,0.410813510418,0.279200971127,789782,1522053834,970354619,,"['head_nod', 'head_pan', 'left_e0', 'left_e1', 'left_s0', 'left_s1', 'left_w0', 'left_w1', 'left_w2', 'right_e0', 'right_e1', 'right_s0', 'right_s1', 'right_w0', 'right_w1', 'right_w2', 'torso_t0']","(0.0, -0.10200972239438001, -0.915786530367592, 1.5102040856731898, 0.286470912137601, 0.6523253300482722, 2.3477575958586256, -0.47553404424447826, -0.026461168591023387, 0.4651796739262517, 0.9226894439130764, 0.3148495567134812, -0.7102331047909466, -0.37199034106221285, 1.4058933920969816, -0.03298058693953639, -12.565987119160338)","(0.0, -0.0007853981632501215, -0.0047123889795007284, 0.012959069693627005, -0.015707963265002428, 0.0011780972448751821, 0.009032078877376396, 0.03848450999925595, 0.006675884387626033, 0.012173671530376884, 0.003141592653000486, -0.0011780972448751821, 0.0070685834692510935, -0.012566370612001944, -0.024347343060753767, -0.008639379795751335, 0.0)","(0.0, 0.0, -14.492, 11.044, 0.436, 4.088, 0.076, -2.628, 0.324, 7.176, -15.984, 0.216, -28.968, 0.048, 0.208, -0.148, -20.48)",254295,1522053837,575879725,robotiq_force_torque_frame_id,-1.9349998235699999,-1.19200005531,0.47500152587899996,-0.082000002265,-0.190999999642,-0.153999999166,4.0,6.0,8.0,55.0,78.0,122.0,130.0,134.0,152.0,163.0,3,"(0.10835054662578285, -0.8137091741785296, 0.14207793518772907, 0.9999377972961767, -0.004352227397900769, -0.009388168303921661, 0.004161964805750736)",0.3100000619900001,-0.4500000476810001,-0.019996643066000075,-0.004000000655699998,0.005999997258999967,-0.004999995231999982
1522082637.6,34755,1522053837,589452028,,789385,1522053834,972258077,,0.817402086729,-0.451703939165,0.0877117286282,0.999437043979,-0.030348447999499997,0.009060527726280002,0.0110667820456,0.00894326137666,0.0025266437959299997,-0.0037047212261100003,-0.0029551931393,-0.0177535451257,0.0188131465555,0.468581974506,0.0276826918125,0.288902461529,0.341284930706,0.507931172848,0.270635306835,789782,1522053834,970354619,,"['head_nod', 'head_pan', 'left_e0', 'left_e1', 'left_s0', 'left_s1', 'left_w0', 'left_w1', 'left_w2', 'right_e0', 'right_e1', 'right_s0', 'right_s1', 'right_w0', 'right_w1', 'right_w2', 'torso_t0']","(0.0, -0.10200972239438001, -0.915786530367592, 1.5102040856731898, 0.286470912137601, 0.6523253300482722, 2.3477575958586256, -0.47553404424447826, -0.026461168591023387, 0.4651796739262517, 0.9226894439130764, 0.3148495567134812, -0.7102331047909466, -0.37199034106221285, 1.4058933920969816, -0.03298058693953639, -12.565987119160338)","(0.0, -0.0007853981632501215, -0.0047123889795007284, 0.012959069693627005, -0.015707963265002428, 0.0011780972448751821, 0.009032078877376396, 0.03848450999925595, 0.006675884387626033, 0.012173671530376884, 0.003141592653000486, -0.0011780972448751821, 0.0070685834692510935, -0.012566370612001944, -0.024347343060753767, -0.008639379795751335, 0.0)","(0.0, 0.0, -14.492, 11.044, 0.436, 4.088, 0.076, -2.628, 0.324, 7.176, -15.984, 0.216, -28.968, 0.048, 0.208, -0.148, -20.48)",254296,1522053837,584463058,robotiq_force_torque_frame_id,-1.9349998235699999,-1.77199997902,0.415000152588,-0.0839999988675,-0.19200000166900003,-0.153999999166,4.0,6.0,8.0,55.0,78.0,122.0,132.0,134.0,152.0,163.0,3,"(0.10835054662578285, -0.8137091741785296, 0.14207793518772907, 0.9999377972961767, -0.004352227397900769, -0.009388168303921661, 0.004161964805750736)",0.0,-0.57999992371,-0.06000137329099997,-0.0019999966024999982,-0.0010000020270000132,0.0
1522082637.64,34756,1522053837,599529981,,789386,1522053834,982257306,,0.817000313067,-0.451616486381,0.0872624406766,0.999437382703,-0.0307358217666,0.00866612017152,0.0102530813392,0.0110688438631,0.010178483289399999,0.00953750460547,-0.0173442087629,-0.016528617502,0.0168796541948,0.639086425304,-0.116737306118,0.295139849186,0.39063668251,0.571185946465,0.27863019704799996,789783,1522053834,980325929,,"['head_nod', 'head_pan', 'left_e0', 'left_e1', 'left_s0', 'left_s1', 'left_w0', 'left_w1', 'left_w2', 'right_e0', 'right_e1', 'right_s0', 'right_s1', 'right_w0', 'right_w1', 'right_w2', 'torso_t0']","(0.0, -0.10162622719740866, -0.9150195399736493, 1.5090536000822758, 0.286470912137601, 0.6523253300482722, 2.3477575958586256, -0.4770680250323637, -0.026077673394052033, 0.46594666432019444, 0.9226894439130764, 0.3136990711225671, -0.7094661143970039, -0.3712233506682701, 1.406276887293953, -0.03298058693953639, -12.565987119160338)","(0.0, -0.0023561944897503642, 0.0035342917346255468, -0.01610066234662749, 0.0023561944897503642, 0.006675884387626033, -0.00039269908162506076, -0.018849555918002914, 0.027488935713754253, -0.00039269908162506076, -0.007853981632501214, 0.024740042142378828, -0.009424777959001457, -0.011780972448751823, -0.0019634954081253035, 0.006675884387626033, 0.0)","(0.0, 0.0, -14.46, 11.044, 0.464, 4.12, 0.076, -2.616, 0.324, 7.144, -16.012, 0.152, -28.968, 0.048, 0.2, -0.156, -20.48)",254297,1522053837,596660491,robotiq_force_torque_frame_id,-2.3949999809299998,-1.32199993134,0.784999084473,-0.07400000095369999,-0.204999998212,-0.141000002623,1.0,6.0,29.0,62.0,101.0,115.0,116.0,132.0,152.0,163.0,3,"(0.10835054662578285, -0.8137091741785296, 0.14207793518772907, 0.9999377972961767, -0.004352227397900769, -0.009388168303921661, 0.004161964805750736)",-0.4600001573599999,0.4500000476800001,0.36999893188500005,0.009999997913800004,-0.012999996542999964,0.012999996542999992
1522082637.64,34757,1522053837,609446048,,789387,1522053834,992259214,,0.8169979271719999,-0.451194764514,0.08759189445389999,0.9994384264480001,-0.0305752000643,0.00857873571792,0.010695521185099999,0.011350474893100001,-0.00200760388267,0.0283629638382,-0.00989774826348,-0.0382397664639,-0.00676226647783,0.415959924459,0.029442280530900002,0.30477294325800003,0.33200195431699997,0.457957237959,0.26042157411600003,312188,1522053834,996000000,,['l_gripper_l_finger_joint'],"(0.02083,)","(0.0,)","(0.0,)",254298,1522053837,604877041,robotiq_force_torque_frame_id,-2.61499989033,-0.8219999313349999,1.03499908447,-0.0610000006855,-0.21099999547000003,-0.136000007391,2.0,12.0,29.0,62.0,101.0,118.0,121.0,136.0,153.0,163.0,3,"(0.10835054662578285, -0.8137091741785296, 0.14207793518772907, 0.9999377972961767, -0.004352227397900769, -0.009388168303921661, 0.004161964805750736)",-0.21999990940000025,0.500000000005,0.24999999999700007,0.013000000268199988,-0.005999997258000045,0.00499999523200001
1522082637.64,34758,1522053837,619751930,,789388,1522053835,2262049,,0.816704717852,-0.450032091716,0.08700332829600001,0.999470181307,-0.029907482668099998,0.00799911944773,0.010045558575,0.00596584155713,0.012344642695200001,-0.0011372922706,0.0055154822844,-0.00833240624861,0.0157596976475,0.241888254881,0.052039578557000005,0.29807204008099997,0.35199338197700003,0.38545989990199997,0.248018324375,312188,1522053834,996000000,,['l_gripper_l_finger_joint'],"(0.02083,)","(0.0,)","(0.0,)",254299,1522053837,617075875,robotiq_force_torque_frame_id,-2.41499996185,-0.882000112534,1.075,-0.0610000006855,-0.202999994159,-0.133000001311,5.0,9.0,22.0,25.0,81.0,118.0,121.0,136.0,147.0,160.0,3,"(0.10835054662578285, -0.8137091741785296, 0.14207793518772907, 0.9999377972961767, -0.004352227397900769, -0.009388168303921661, 0.004161964805750736)",0.19999992848000003,-0.06000018119900008,0.04000091552999985,0.0,0.008000001311000038,0.0030000060799999784
1522082637.64,34759,1522053837,629419088,,789389,1522053835,12252950,,0.817371935075,-0.452502302858,0.08781712029380001,0.9994101183040001,-0.0312793575222,0.00938188579174,0.0106300255439,-0.0024440672042600003,-0.0102411337463,-0.011059694204299999,-0.020143490867400003,0.0105148588472,0.00483882970622,0.40628379583400004,-0.0294858664274,0.329941034317,0.364636957645,0.47237485647200006,0.275704503059,789786,1522053835,10342432,,"['head_nod', 'head_pan', 'left_e0', 'left_e1', 'left_s0', 'left_s1', 'left_w0', 'left_w1', 'left_w2', 'right_e0', 'right_e1', 'right_s0', 'right_s1', 'right_w0', 'right_w1', 'right_w2', 'torso_t0']","(0.0, -0.10200972239438001, -0.9150195399736493, 1.5090536000822758, 0.28685440733457235, 0.6523253300482722, 2.3485245862525685, -0.4759175394414496, -0.026077673394052033, 0.46594666432019444, 0.9226894439130764, 0.3129320807286244, -0.7102331047909466, -0.37160684586524145, 1.4055098969000104, -0.03259709174256504, -12.565987119160338)","(0.0, 0.006675884387626033, 0.0023561944897503642, -0.0019634954081253035, 0.009424777959001457, -0.01767145867312773, 0.009032078877376396, 0.001570796326500243, -0.009424777959001457, -0.01649336142825255, -0.0011780972448751821, 0.0070685834692510935, 0.014137166938502187, -0.014529866020127248, -0.008246680714126275, -0.006675884387626033, 0.0)","(0.0, 0.0, -14.524, 11.044, 0.528, 4.184, 0.06, -2.608, 0.324, 7.208, -16.012, 0.152, -28.996, 0.024, 0.2, -0.14, -20.48)",254300,1522053837,625209746,robotiq_force_torque_frame_id,-2.03499996662,-0.62200012207,1.0849983215299999,-0.0610000006855,-0.204999998212,-0.146999999881,5.0,9.0,14.0,22.0,81.0,126.0,130.0,147.0,147.0,160.0,3,"(0.10835054662578285, -0.8137091741785296, 0.14207793518772907, 0.9999377972961767, -0.004352227397900769, -0.009388168303921661, 0.004161964805750736)",0.37999999522999994,0.259999990464,0.00999832152999991,0.0,-0.002000004052999993,-0.013999998569999977
1522082637.68,34760,1522053837,639399051,,789390,1522053835,22258911,,0.8176537847859999,-0.452398573033,0.08766198318900001,0.999401074459,-0.0314366663362,0.00951073895022,0.010898358772499998,0.0111612934577,0.00899682674554,-0.004583825620359999,0.0333670043424,-0.025562910670599997,-0.00985766485586,0.280728161335,-0.0729164928198,0.32889097929,0.425638735294,0.41032063961,0.293469727039,789787,1522053835,20363092,,"['head_nod', 'head_pan', 'left_e0', 'left_e1', 'left_s0', 'left_s1', 'left_w0', 'left_w1', 'left_w2', 'right_e0', 'right_e1', 'right_s0', 'right_s1', 'right_w0', 'right_w1', 'right_w2', 'torso_t0']","(0.0, -0.10200972239438001, -0.9138690543827352, 1.5090536000822758, 0.28608741694062967, 0.6527088252452435, 2.346990605464683, -0.47668452983539233, -0.026461168591023387, 0.4655631691232231, 0.922305948716105, 0.3136990711225671, -0.7098496095939753, -0.37199034106221285, 1.405126401703039, -0.03183010134862233, -12.565987119160338)","(0.0, 0.0019634954081253035, 0.0019634954081253035, 0.0019634954081253035, -0.00510508806112579, 0.0011780972448751821, 0.01727875959150267, 0.007853981632501214, -0.009032078877376396, 0.01688606050987761, -0.00510508806112579, -0.013351768775252066, 0.013351768775252066, 0.019242254999627974, -0.02513274122400389, 0.0035342917346255468, 0.0)","(0.0, 0.0, -14.46, 11.044, 0.528, 4.184, 0.076, -2.628, 0.316, 7.268, -16.012, 0.092, -28.996, 0.024, 0.2, -0.14, -20.48)",254301,1522053837,637417867,robotiq_force_torque_frame_id,-1.72500002384,-0.37200012206999994,1.18500061035,-0.057000000029800005,-0.207000002265,-0.151999995112,0.0,3.0,10.0,14.0,62.0,118.0,126.0,146.0,147.0,165.0,3,"(0.10835054662578285, -0.8137091741785296, 0.14207793518772907, 0.9999377972961767, -0.004352227397900769, -0.009388168303921661, 0.004161964805750736)",0.30999994278,0.25000000000000006,0.10000228882000006,0.004000000655699998,-0.0020000040530000207,-0.004999995231000004
1522082637.68,34761,1522053837,649451017,,789391,1522053835,32259799,,0.816709235991,-0.45119466542,0.08710340572349999,0.999450300202,-0.030285092593999998,0.00828628456797,0.010641808119299998,-0.007407137902060001,-0.038515309741,-0.00837885246395,-0.0219397116244,0.00491273005421,-0.032622861924200004,0.66205149889,-0.107300803065,0.34838438034100006,0.387263774872,0.565345585346,0.275640785694,789788,1522053835,30351913,,"['head_nod', 'head_pan', 'left_e0', 'left_e1', 'left_s0', 'left_s1', 'left_w0', 'left_w1', 'left_w2', 'right_e0', 'right_e1', 'right_s0', 'right_s1', 'right_w0', 'right_w1', 'right_w2', 'torso_t0']","(0.0, -0.10200972239438001, -0.9154030351706206, 1.5086701048853044, 0.286470912137601, 0.6530923204422149, 2.3473741006616544, -0.476301034638421, -0.026077673394052033, 0.46594666432019444, 0.9238399295039904, 0.3144660615165098, -0.7098496095939753, -0.37199034106221285, 1.406276887293953, -0.03259709174256504, -12.565987119160338)","(0.0, -0.008246680714126275, 0.0019634954081253035, 0.02042035224450316, -0.02670353755050413, 0.014137166938502187, -0.01021017612225158, -0.00039269908162506076, 0.0047123889795007284, -0.012173671530376884, -0.0023561944897503642, -0.031415926530004856, 0.011780972448751823, -0.018064157754752792, -0.009424777959001457, -0.0047123889795007284, 0.0)","(0.0, 0.0, -14.492, 11.076, 0.496, 4.152, 0.052, -2.596, 0.308, 7.176, -16.044, 0.152, -28.996, 0.032, 0.188, -0.148, -20.48)",254302,1522053837,645555974,robotiq_force_torque_frame_id,-2.16499996185,-0.8019999504090001,1.1949989318799998,-0.0560000017285,-0.221000000834,-0.137999996543,-1.0,0.0,10.0,13.0,62.0,118.0,125.0,146.0,163.0,165.0,3,"(0.10835054662578285, -0.8137091741785296, 0.14207793518772907, 0.9999377972961767, -0.004352227397900769, -0.009388168303921661, 0.004161964805750736)",-0.4399999380099999,-0.42999982833900013,0.00999832152999991,0.0009999983013000077,-0.013999998569,0.013999998569
1522082637.68,34762,1522053837,659477949,,789392,1522053835,42265177,,0.8175830148540001,-0.45110656765699997,0.0879383424362,0.9994394027200002,-0.0303920201173,0.00918739044494,0.0106206055189,-0.00474468013353,-0.007760848189870001,-0.0006500108959419999,-0.006862450897520001,0.00108597805548,-0.004073974008239999,0.394787251949,0.05073417723180001,0.33757653832400003,0.348028898239,0.461142212152,0.262061774731,312189,1522053835,39000064,,['r_gripper_l_finger_joint'],"(0.019983251598477365,)","(0.0,)","(0.0,)",254303,1522053837,657755310,robotiq_force_torque_frame_id,-2.2649999856900003,-1.0819999218,1.1049987793,-0.0619999989867,-0.216999992728,-0.129999995232,-4.0,-3.0,13.0,39.0,56.0,118.0,125.0,149.0,157.0,179.0,3,"(0.10835054662578285, -0.8137091741785296, 0.14207793518772907, 0.9999377972961767, -0.004352227397900769, -0.009388168303921661, 0.004161964805750736)",-0.10000002384000028,-0.27999997139099997,-0.09000015257999983,-0.005999997258200003,0.004000008106000014,0.008000001310999982
1522082637.68,34763,1522053837,669433116,,789393,1522053835,52278677,,0.817601315873,-0.450945519025,0.0870829765801,0.999449799524,-0.030192733835200002,0.00912079690797,0.0102619743923,0.00252509000395,0.00825980598718,0.000417832887645,0.0079662498751,-0.0017534821740399999,-0.007029029500629999,0.60714584589,-0.0229154974222,0.224849849939,0.332384616137,0.5266150236129999,0.25445112586,312190,1522053835,46000128,,['l_gripper_l_finger_joint'],"(0.02083,)","(0.0,)","(0.0,)",254304,1522053837,665910470,robotiq_force_torque_frame_id,-2.5149999856900003,-1.28199996948,1.21499938965,-0.0630000010133,-0.216000005603,-0.138999998569,-3.0,6.0,24.0,26.0,34.0,117.0,118.0,132.0,162.0,179.0,3,"(0.10835054662578285, -0.8137091741785296, 0.14207793518772907, 0.9999377972961767, -0.004352227397900769, -0.009388168303921661, 0.004161964805750736)",-0.25,-0.2000000476799999,0.11000061034999997,-0.0010000020265999998,0.0009999871249999903,-0.00900000333699999
1522082637.72,34764,1522053837,679547071,,789394,1522053835,62267595,,0.817324811097,-0.450728094984,0.08693150394789999,0.999460221215,-0.0299062163356,0.00874087011646,0.0104154512006,0.0119120172211,5.25065191899e-05,0.004579125111310001,-0.024127212069399998,-0.0203793074779,0.011176680687200001,0.221727281809,-0.132948756218,0.298098385334,0.46025955677,0.36625963449500004,0.278300881386,789791,1522053835,60342415,,"['head_nod', 'head_pan', 'left_e0', 'left_e1', 'left_s0', 'left_s1', 'left_w0', 'left_w1', 'left_w2', 'right_e0', 'right_e1', 'right_s0', 'right_s1', 'right_w0', 'right_w1', 'right_w2', 'torso_t0']","(0.0, -0.10162622719740866, -0.9150195399736493, 1.5102040856731898, 0.28685440733457235, 0.6523253300482722, 2.3466071102677115, -0.4759175394414496, -0.02569417819708068, 0.4663301595171658, 0.9230729391100477, 0.3148495567134812, -0.7090826192000325, -0.37199034106221285, 1.4055098969000104, -0.03298058693953639, -12.565987119160338)","(0.0, -0.0027488935713754254, 0.0027488935713754254, -0.009424777959001457, 0.0027488935713754254, 0.003926990816250607, 0.0200276531628781, -0.0027488935713754254, 0.00510508806112579, 0.00510508806112579, -0.008246680714126275, 0.013351768775252066, -0.00039269908162506076, -0.02552544030562895, -0.012959069693627005, 0.006675884387626033, 0.0)","(0.0, 0.0, -14.524, 11.044, 0.62, 4.12, 0.068, -2.616, 0.336, 7.24, -16.012, 0.028, -28.996, 0.056, 0.188, -0.128, -20.48)",254305,1522053837,678103657,robotiq_force_torque_frame_id,-2.78499996662,-1.142000103,1.2950012207,-0.0680000036955,-0.21799999475499998,-0.138999998569,-3.0,6.0,13.0,26.0,34.0,122.0,132.0,139.0,162.0,164.0,3,"(0.10835054662578285, -0.8137091741785296, 0.14207793518772907, 0.9999377972961767, -0.004352227397900769, -0.009388168303921661, 0.004161964805750736)",-0.26999998092999977,0.13999986647999996,0.08000183104999992,-0.005000002682199994,-0.0019999891519999757,0.0
1522082637.72,34765,1522053837,689421892,,789395,1522053835,72265965,,0.816950925016,-0.452566294127,0.08705309863610002,0.9994254517610001,-0.0308221985048,0.00870758108236,0.0110876725993,-0.00380827369887,0.00376239955618,-0.00830416054445,0.00774466807267,0.0120530858321,-0.00257247382828,0.42468729615199996,-0.0454902499914,0.283239811659,0.381604373455,0.452711820602,0.283562719822,789792,1522053835,70367597,,"['head_nod', 'head_pan', 'left_e0', 'left_e1', 'left_s0', 'left_s1', 'left_w0', 'left_w1', 'left_w2', 'right_e0', 'right_e1', 'right_s0', 'right_s1', 'right_w0', 'right_w1', 'right_w2', 'torso_t0']","(0.0, -0.10200972239438001, -0.9154030351706206, 1.509437095279247, 0.2876213977285151, 0.6523253300482722, 2.346990605464683, -0.4759175394414496, -0.026077673394052033, 0.4651796739262517, 0.9230729391100477, 0.3136990711225671, -0.7094661143970039, -0.3723738362591842, 1.4055098969000104, -0.03298058693953639, -12.565987119160338)","(0.0, -0.006283185306000972, 0.01649336142825255, -0.008639379795751335, -0.0023561944897503642, -0.01060287520387664, 0.0, 0.01021017612225158, -0.005497787142750851, -0.007853981632501214, 0.0019634954081253035, 0.0047123889795007284, 0.009424777959001457, 0.008639379795751335, 0.0, 0.001570796326500243, 0.0)","(0.0, 0.0, -14.492, 11.108, 0.592, 4.152, 0.04, -2.628, 0.324, 7.208, -16.012, 0.152, -28.996, 0.032, 0.18, -0.148, -20.48)",254306,1522053837,686246668,robotiq_force_torque_frame_id,-2.44499993324,-0.8019999504090001,1.3549987793,-0.0619999989867,-0.216999992728,-0.131999999285,1.0,6.0,11.0,13.0,34.0,126.0,127.0,139.0,155.0,164.0,3,"(0.10835054662578285, -0.8137091741785296, 0.14207793518772907, 0.9999377972961767, -0.004352227397900769, -0.009388168303921661, 0.004161964805750736)",0.34000003337999996,0.3400001525909999,0.05999755860000011,0.006000004708799994,0.0010000020269999854,0.006999999283999997
1522082637.72,34766,1522053837,699388980,,789396,1522053835,82261237,,0.8173054648549999,-0.45181708720700003,0.0873228873734,0.999421503541,-0.0310175797563,0.00890575497519,0.0107357130039,-0.00048524752047300005,-0.0206057886228,-0.00654533113417,-0.026569171018400003,-0.00107597895353,-0.008883614114899999,0.32574594020799996,0.0154781490564,0.292374372482,0.390854239464,0.40224194526699997,0.279512733221,789793,1522053835,80354197,,"['head_nod', 'head_pan', 'left_e0', 'left_e1', 'left_s0', 'left_s1', 'left_w0', 'left_w1', 'left_w2', 'right_e0', 'right_e1', 'right_s0', 'right_s1', 'right_w0', 'right_w1', 'right_w2', 'torso_t0']","(0.0, -0.10200972239438001, -0.9142525495797066, 1.5090536000822758, 0.28685440733457235, 0.6527088252452435, 2.3485245862525685, -0.47553404424447826, -0.026077673394052033, 0.4651796739262517, 0.922305948716105, 0.3144660615165098, -0.7094661143970039, -0.37160684586524145, 1.4058933920969816, -0.032213596545593685, -12.565987119160338)","(0.0, 0.003926990816250607, 0.007461282550876154, 0.007461282550876154, 0.0310232274483798, -0.00510508806112579, -0.00039269908162506076, 0.005497787142750851, -0.0023561944897503642, -0.019634954081253035, 0.0007853981632501215, -0.0023561944897503642, 0.006283185306000972, -0.014922565101752308, -0.015707963265002428, -0.0035342917346255468, 0.0)","(0.0, 0.0, -14.556, 11.044, 0.56, 4.12, 0.068, -2.608, 0.336, 7.3, -16.012, 0.152, -28.996, 0.032, 0.18, -0.128, -20.48)",254307,1522053837,698454346,robotiq_force_torque_frame_id,-2.54499995708,-0.35199990272500004,1.13500137329,-0.06499999761580001,-0.204999998212,-0.143000006676,-4.0,1.0,1.0,11.0,34.0,129.0,139.0,142.0,153.0,155.0,3,"(0.10835054662578285, -0.8137091741785296, 0.14207793518772907, 0.9999377972961767, -0.004352227397900769, -0.009388168303921661, 0.004161964805750736)",-0.10000002383999984,0.45000004768400004,-0.21999740601000006,-0.002999998629100012,0.011999994516000007,-0.011000007390999988
1522082637.72,34767,1522053837,709419965,,789397,1522053835,92263080,,0.817454111445,-0.45199711000799997,0.08733716761339999,0.999418695923,-0.0309858305084,0.009084809836360001,0.010936854102100001,0.00469437244458,0.00242098490231,0.00889960525576,0.019133053358599997,-0.0211523766752,-0.008674476113670001,0.317778378725,0.062459439039199996,0.36709654331200003,0.38620468974100003,0.420975744724,0.279288947582,312192,1522053835,96999936,,['l_gripper_l_finger_joint'],"(0.02083,)","(0.0,)","(0.0,)",254308,1522053837,706602081,robotiq_force_torque_frame_id,-2.7649999856900003,0.0980000257492,0.964999389648,-0.07400000095369999,-0.203999996185,-0.162000000477,-8.0,-8.0,-4.0,1.0,4.0,130.0,139.0,142.0,152.0,169.0,3,"(0.10835054662578285, -0.8137091741785296, 0.14207793518772907, 0.9999377972961767, -0.004352227397900769, -0.009388168303921661, 0.004161964805750736)",-0.22000002861000034,0.4499999284742,-0.17000198364199992,-0.009000003337899978,0.0010000020269999854,-0.01899999380100001
1522082637.76,34768,1522053837,719460964,,789398,1522053835,102260160,,0.8173765653749999,-0.45094934493,0.08724208699580001,0.9994459426819999,-0.0303887896954,0.008987774210379999,0.0101759044704,0.00433412378257,0.011285639109100002,0.00866826491393,0.010297828735299998,-0.0112179835544,0.00901887099638,0.213767930865,-0.06922340393069999,0.258488982916,0.413429498672,0.36496293544799996,0.29836294055,312192,1522053835,96999936,,['l_gripper_l_finger_joint'],"(0.02083,)","(0.0,)","(0.0,)",254309,1522053837,718813356,robotiq_force_torque_frame_id,-2.7649999856900003,0.28799996376,1.03499908447,-0.0670000016689,-0.202999994159,-0.16400000453,1.0,4.0,4.0,6.0,15.0,142.0,146.0,152.0,166.0,171.0,3,"(0.10835054662578285, -0.8137091741785296, 0.14207793518772907, 0.9999377972961767, -0.004352227397900769, -0.009388168303921661, 0.004161964805750736)",0.0,0.18999993801079998,0.06999969482200008,0.006999999284799996,0.0010000020260000075,-0.002000004052999993
1522082637.76,34769,1522053837,729401111,,789399,1522053835,112252304,,0.817172072325,-0.452884204776,0.0875903563793,0.999412047762,-0.0311807107258,0.00905684871285,0.0110134262864,-0.00496455498883,-0.025970868404099998,-0.0024348315074400003,-0.021054538961900002,0.00415957318886,-0.023301247910500002,0.716838002205,-0.057730421423899995,0.36784091591799994,0.43744614720299996,0.594099581242,0.28584215045,789796,1522053835,110363013,,"['head_nod', 'head_pan', 'left_e0', 'left_e1', 'left_s0', 'left_s1', 'left_w0', 'left_w1', 'left_w2', 'right_e0', 'right_e1', 'right_s0', 'right_s1', 'right_w0', 'right_w1', 'right_w2', 'torso_t0']","(0.0, -0.10162622719740866, -0.9154030351706206, 1.5090536000822758, 0.28723790253154374, 0.6523253300482722, 2.346990605464683, -0.47668452983539233, -0.026461168591023387, 0.4651796739262517, 0.922305948716105, 0.3133155759255958, -0.7098496095939753, -0.37199034106221285, 1.4058933920969816, -0.03298058693953639, -12.565987119160338)","(0.0, -0.004319689897875668, -0.014137166938502187, -0.02631083846887907, -0.013351768775252066, -0.005497787142750851, -0.012959069693627005, -0.011388273367126762, 0.006675884387626033, -0.01060287520387664, -0.003926990816250607, -0.01610066234662749, 0.003926990816250607, -0.01531526418337737, -0.0007853981632501215, 0.0011780972448751821, 0.0)","(0.0, 0.0, -14.588, 11.076, 0.528, 4.056, 0.084, -2.608, 0.316, 7.3, -16.044, 0.184, -28.968, 0.048, 0.2, -0.14, -20.48)",254310,1522053837,726950668,robotiq_force_torque_frame_id,-2.72499990463,0.588000035286,1.02500076294,-0.0630000010133,-0.20000000298,-0.153999999166,1.0,3.0,4.0,6.0,15.0,139.0,142.0,148.0,151.0,171.0,3,"(0.10835054662578285, -0.8137091741785296, 0.14207793518772907, 0.9999377972961767, -0.004352227397900769, -0.009388168303921661, 0.004161964805750736)",0.04000008106000008,0.300000071526,-0.009998321530000132,0.0040000006555999945,0.002999991178999989,0.010000005364000003
1522082637.76,34770,1522053837,739387035,,789400,1522053835,122252427,,0.817901865549,-0.451123927297,0.0875232670249,0.999434827714,-0.030469138168200002,0.009550222444,0.0105095205369,0.0021700966319499995,-0.0167553006781,-0.00471666712886,0.014433315155,-0.010348173603100001,-0.038981915575,-0.0020192861557,0.137262910604,0.234396636486,0.312623620033,0.279105454683,0.270857572556,789797,1522053835,120343392,,"['head_nod', 'head_pan', 'left_e0', 'left_e1', 'left_s0', 'left_s1', 'left_w0', 'left_w1', 'left_w2', 'right_e0', 'right_e1', 'right_s0', 'right_s1', 'right_w0', 'right_w1', 'right_w2', 'torso_t0']","(0.0, -0.10162622719740866, -0.9146360447766779, 1.5090536000822758, 0.28723790253154374, 0.6519418348513009, 2.348141091055597, -0.4759175394414496, -0.026077673394052033, 0.4655631691232231, 0.9226894439130764, 0.3148495567134812, -0.7098496095939753, -0.3712233506682701, 1.4047429065060677, -0.03259709174256504, -12.565987119160338)","(0.0, -0.0035342917346255468, 0.001570796326500243, 0.0035342917346255468, -0.01649336142825255, -0.01021017612225158, 0.01649336142825255, -0.003926990816250607, 0.008639379795751335, -0.009032078877376396, -0.01767145867312773, -0.021598449489378342, 0.014922565101752308, 0.01727875959150267, -0.008639379795751335, 0.003141592653000486, 0.0)","(0.0, 0.0, -14.428, 11.044, 0.528, 4.152, 0.052, -2.608, 0.308, 7.268, -15.952, 0.184, -28.996, 0.032, 0.188, -0.128, -20.48)",254311,1522053837,735083036,robotiq_force_torque_frame_id,-1.94499981403,-0.031999969482400005,0.734999847412,-0.054999999702,-0.203999996185,-0.149000003934,-2.0,3.0,5.0,6.0,47.0,139.0,146.0,148.0,151.0,158.0,3,"(0.10835054662578285, -0.8137091741785296, 0.14207793518772907, 0.9999377972961767, -0.004352227397900769, -0.009388168303921661, 0.004161964805750736)",0.7800000906000002,-0.6200000047684,-0.290000915528,0.0080000013113,-0.0039999932049999964,0.004999995231999982
1522082637.76,34771,1522053837,749473094,,789401,1522053835,132254956,,0.817572111549,-0.452236459973,0.0875261629501,0.9994084785609999,-0.0313425487495,0.00933419617064,0.0106400376125,0.0217262732093,-0.00301579462074,0.0234983513766,-0.011984297449100002,-0.0528866913789,-0.0035379921354000005,0.36445993185000003,0.0428626090288,0.240716248751,0.35360956192000004,0.436049550772,0.265715330839,789798,1522053835,130347428,,"['head_nod', 'head_pan', 'left_e0', 'left_e1', 'left_s0', 'left_s1', 'left_w0', 'left_w1', 'left_w2', 'right_e0', 'right_e1', 'right_s0', 'right_s1', 'right_w0', 'right_w1', 'right_w2', 'torso_t0']","(0.0, -0.10162622719740866, -0.9150195399736493, 1.509437095279247, 0.28685440733457235, 0.6523253300482722, 2.3473741006616544, -0.4759175394414496, -0.026461168591023387, 0.4655631691232231, 0.9219224535191337, 0.3136990711225671, -0.7094661143970039, -0.37160684586524145, 1.4055098969000104, -0.032213596545593685, -12.565987119160338)","(0.0, -0.0019634954081253035, 0.024347343060753767, 0.0011780972448751821, 0.009817477040626518, 0.006675884387626033, -0.00039269908162506076, 0.009817477040626518, -0.009424777959001457, -0.010995574285501701, -0.01767145867312773, 0.009424777959001457, -0.02591813938725401, 0.011388273367126762, -0.01610066234662749, -0.001570796326500243, 0.0)","(0.0, 0.0, -14.428, 11.044, 0.592, 4.12, 0.052, -2.608, 0.344, 7.24, -15.984, 0.184, -28.968, 0.04, 0.188, -0.128, -20.48)",254312,1522053837,747288004,robotiq_force_torque_frame_id,-1.56499993801,-0.591999912262,0.534999084473,-0.052999999374199996,-0.21400000155,-0.152999997139,-3.0,2.0,3.0,5.0,47.0,135.0,145.0,148.0,149.0,158.0,3,"(0.10835054662578285, -0.8137091741785296, 0.14207793518772907, 0.9999377972961767, -0.004352227397900769, -0.009388168303921661, 0.004161964805750736)",0.37999987602000007,-0.5599999427796,-0.20000076293899993,0.002000000327800004,-0.010000005365000009,-0.0039999932049999964
1522082637.8,34772,1522053837,759469985,,789402,1522053835,142252768,,0.8174674803890001,-0.45090983705,0.08732572116139999,0.999441033102,-0.0304442535627,0.009115640942370001,0.010376601872000001,0.00328969378205,0.0116820297891,0.00570219818439,0.00333209743282,-0.00719814025147,0.00520293178569,0.5177602767939999,-0.0323191732168,0.37073123454999996,0.40863442420999996,0.529940545559,0.27688270807300003,312193,1522053835,139000064,,['r_gripper_l_finger_joint'],"(0.019983251598477365,)","(0.0,)","(0.0,)",254313,1522053837,755425967,robotiq_force_torque_frame_id,-1.36499989033,-0.742000007629,0.584998321533,-0.0439999997616,-0.22599999606600002,-0.152999997139,-4.0,2.0,5.0,6.0,16.0,129.0,145.0,148.0,149.0,163.0,3,"(0.10835054662578285, -0.8137091741785296, 0.14207793518772907, 0.9999377972961767, -0.004352227397900769, -0.009388168303921661, 0.004161964805750736)",0.2000000476799999,-0.15000009536699999,0.04999923705999998,0.008999999612599993,-0.011999994516000007,0.0
