time,.header.seq,.header.stamp.secs,.header.stamp.nsecs,.header.frame_id,.endpoint_state.header.seq,.endpoint_state.header.stamp.secs,.endpoint_state.header.stamp.nsecs,.endpoint_state.header.frame_id,.endpoint_state.pose.position.x,.endpoint_state.pose.position.y,.endpoint_state.pose.position.z,.endpoint_state.pose.orientation.x,.endpoint_state.pose.orientation.y,.endpoint_state.pose.orientation.z,.endpoint_state.pose.orientation.w,.endpoint_state.twist.linear.x,.endpoint_state.twist.linear.y,.endpoint_state.twist.linear.z,.endpoint_state.twist.angular.x,.endpoint_state.twist.angular.y,.endpoint_state.twist.angular.z,.endpoint_state.wrench.force.x,.endpoint_state.wrench.force.y,.endpoint_state.wrench.force.z,.endpoint_state.wrench.torque.x,.endpoint_state.wrench.torque.y,.endpoint_state.wrench.torque.z,.joint_state.header.seq,.joint_state.header.stamp.secs,.joint_state.header.stamp.nsecs,.joint_state.header.frame_id,.joint_state.name,.joint_state.position,.joint_state.velocity,.joint_state.effort,.wrench_stamped.header.seq,.wrench_stamped.header.stamp.secs,.wrench_stamped.header.stamp.nsecs,.wrench_stamped.header.frame_id,.wrench_stamped.wrench.force.x,.wrench_stamped.wrench.force.y,.wrench_stamped.wrench.force.z,.wrench_stamped.wrench.torque.x,.wrench_stamped.wrench.torque.y,.wrench_stamped.wrench.torque.z,.tactile_values.tactile_values_0,.tactile_values.tactile_values_1,.tactile_values.tactile_values_2,.tactile_values.tactile_values_3,.tactile_values.tactile_values_4,.tactile_values.tactile_values_5,.tactile_values.tactile_values_6,.tactile_values.tactile_values_7,.tactile_values.tactile_values_8,.tactile_values.tactile_values_9,.tag,.goal_vector,.delta_wrench.force.x,.delta_wrench.force.y,.delta_wrench.force.z,.delta_wrench.torque.x,.delta_wrench.torque.y,.delta_wrench.torque.z
1522705832.56,26315,1522677032,563920021,,2730657,1522677029,606830135,,0.7946175877349999,-0.448956492009,0.128289381046,0.030292907756400003,0.999464998074,-0.00994300137638,0.00729342777896,0.0016934556754400001,0.010613230308100002,0.00021133515042200002,0.007083914907569999,-0.0011960991427899998,0.0099243558346,0.902614712715,-0.274922370911,6.66147327423,0.46002578735399996,0.390952825546,0.264673411846,2731009,1522677029,624887253,,"['head_nod', 'head_pan', 'left_e0', 'left_e1', 'left_s0', 'left_s1', 'left_w0', 'left_w1', 'left_w2', 'right_e0', 'right_e1', 'right_s0', 'right_s1', 'right_w0', 'right_w1', 'right_w2', 'torso_t0']","(0.0, -0.10162622719740866, -0.9073496360342223, 1.5010002009458774, 0.2784175130012026, 0.6446554261088451, 2.3423886631010267, -0.48857288094150425, -0.0337475773334791, 0.4655631691232231, 0.9246069198979331, 0.3133155759255958, -0.7075486384121471, -0.37160684586524145, 1.405126401703039, -0.033364082136507746, -12.565987119160338)","(0.0, -0.011780972448751823, -0.0019634954081253035, 0.01060287520387664, 0.008246680714126275, 0.010995574285501701, 0.01060287520387664, -0.01060287520387664, 0.0, -0.012566370612001944, 0.003926990816250607, 0.012173671530376884, 0.005497787142750851, -0.0047123889795007284, 0.007461282550876154, 0.0019634954081253035, 0.0)","(0.0, 0.0, -14.588, 10.916, 0.308, 5.068, 0.096, -2.616, 0.252, 7.24, -15.984, 0.06, -28.732, 0.008, 0.18, -0.112, -20.48)",2711991,1522677032,558792956,robotiq_force_torque_frame_id,0.0840002536774,-0.916999959946,0.0980010986328,-0.0430000014603,-0.207000002265,-0.108999997377,0.0,0.0,0.0,0.0,0.0,0.0,0.0,0.0,0.0,0.0,3,"(0.5282605997723452, -0.8173976392976043, 0.13420757995327057, 0.9999377972961768, -0.004352227397899916, -0.009388168303921954, 0.004161964805750852)",0.0,0.0,0.0,0.0,0.0,0.0
1522705832.58,26316,1522677032,573960065,,2730659,1522677029,626828738,,0.79462604704,-0.449544977063,0.128377822113,0.030483091421500002,0.999456817281,-0.010100445319,0.00740489919335,-0.00604465868581,0.00101965532965,-0.006595641023479999,-0.0093931062789,0.0207064064786,0.00392741099494,1.1153513193100002,-0.283911436796,6.693919181819999,0.48043423891099996,0.46391505003,0.266221106052,1080122,1522677029,632999936,,['r_gripper_l_finger_joint'],"(0.019983251598477365,)","(0.0,)","(0.0,)",2711992,1522677032,570995848,robotiq_force_torque_frame_id,-0.146000003815,-0.626999998093,0.148000335693,-0.0439999997616,-0.21099999547000003,-0.123999997973,0.0,0.0,0.0,0.0,0.0,0.0,0.0,0.0,0.0,0.0,3,"(0.5282605997723452, -0.8173976392976043, 0.13420757995327057, 0.9999377972961768, -0.004352227397899916, -0.009388168303921954, 0.004161964805750852)",-0.2300002574924,0.28999996185300003,0.0499992370602,-0.0009999983013000008,-0.003999993205000024,-0.015000000595999999
1522705832.58,26317,1522677032,583935976,,2730661,1522677029,646834357,,0.795165601932,-0.44948520715,0.1287833777,0.0306839779514,0.999445882458,-0.010164784897799999,0.00794346787896,0.0025907402743,-0.00362819564035,-0.0011879340801400002,0.0028268596184400003,-0.00649294636498,-0.0178298172756,1.0711469650299998,-0.246729895473,6.59116125107,0.440723061562,0.446975469589,0.262097656727,1080123,1522677029,655000064,,['l_gripper_l_finger_joint'],"(0.0032494800670444966,)","(0.0,)","(0.0,)",2711993,1522677032,579222168,robotiq_force_torque_frame_id,-0.155999994278,-0.467000150681,0.317998504639,-0.04500000178809999,-0.20999999344300002,-0.119000002742,0.0,0.0,0.0,0.0,0.0,0.0,0.0,0.0,0.0,0.0,3,"(0.5282605997723452, -0.8173976392976043, 0.13420757995327057, 0.9999377972961768, -0.004352227397899916, -0.009388168303921954, 0.004161964805750852)",-0.009999990462999986,0.15999984741200002,0.16999816894599998,-0.0010000020264999895,0.0010000020270000132,0.004999995231000004
1522705832.59,26318,1522677032,593930006,,2730662,1522677029,656825267,,0.794677710709,-0.449722505378,0.128259302766,0.030902029888900003,0.9994426872900001,-0.010227622472899999,0.00740102086026,0.00480340349125,-0.00918546627825,-0.00160133981155,-0.00949553234169,-0.013864320896700002,-0.0041148499498800005,1.09699070454,-0.35937666893,6.69945287704,0.530785322189,0.45332339406000005,0.300317943096,2731012,1522677029,654911004,,"['head_nod', 'head_pan', 'left_e0', 'left_e1', 'left_s0', 'left_s1', 'left_w0', 'left_w1', 'left_w2', 'right_e0', 'right_e1', 'right_s0', 'right_s1', 'right_w0', 'right_w1', 'right_w2', 'torso_t0']","(0.0, -0.1012427320004373, -0.9069661408372509, 1.50176719133982, 0.27880100819817394, 0.6446554261088451, 2.3427721582979983, -0.48742239535059023, -0.03259709174256504, 0.4655631691232231, 0.9242234247009617, 0.3133155759255958, -0.7071651432151758, -0.37199034106221285, 1.405126401703039, -0.03259709174256504, -12.565987119160338)","(0.0, 0.003926990816250607, -0.007461282550876154, 0.012959069693627005, -0.0007853981632501215, -0.006283185306000972, -0.0011780972448751821, -0.006675884387626033, -0.0035342917346255468, 0.003141592653000486, -0.0035342917346255468, -0.007853981632501214, 0.00510508806112579, -0.012173671530376884, -0.01531526418337737, -0.0007853981632501215, 0.0)","(0.0, 0.0, -14.588, 10.916, 0.248, 5.068, 0.104, -2.664, 0.24, 7.268, -15.984, 0.028, -28.732, 0.008, 0.18, -0.14, -20.48)",2711994,1522677032,591421349,robotiq_force_torque_frame_id,0.264000082016,-0.786999845505,0.447999572754,-0.0410000011325,-0.20999999344300002,-0.09899999946360001,0.0,0.0,0.0,0.0,0.0,0.0,0.0,0.0,0.0,0.0,3,"(0.5282605997723452, -0.8173976392976043, 0.13420757995327057, 0.9999377972961768, -0.004352227397899916, -0.009388168303921954, 0.004161964805750852)",0.420000076294,-0.31999969482400004,0.130001068115,0.0040000006555999945,0.0,0.020000003278399986
1522705832.6,26319,1522677032,603928089,,2730664,1522677029,676823994,,0.795226093207,-0.449928952025,0.128788847622,0.0310352860282,0.999431533352,-0.0103656130578,0.008122513666169999,-0.00307057734355,0.011774778052100001,-0.00820646252858,0.0196497261133,0.012020699177899998,0.0158214419603,1.44531929493,-0.37751561403300005,6.6788554191600005,0.434593558311,0.614485859871,0.242919683456,2731014,1522677029,674899856,,"['head_nod', 'head_pan', 'left_e0', 'left_e1', 'left_s0', 'left_s1', 'left_w0', 'left_w1', 'left_w2', 'right_e0', 'right_e1', 'right_s0', 'right_s1', 'right_w0', 'right_w1', 'right_w2', 'torso_t0']","(0.0, -0.10085923680346595, -0.9069661408372509, 1.5013836961428486, 0.27880100819817394, 0.6438884357149024, 2.341621672707084, -0.48703890015361884, -0.033364082136507746, 0.4655631691232231, 0.9234564343070191, 0.3133155759255958, -0.7075486384121471, -0.37199034106221285, 1.4047429065060677, -0.03259709174256504, -12.565987119160338)","(0.0, -0.009424777959001457, 0.003926990816250607, -0.008246680714126275, -0.008639379795751335, -0.0007853981632501215, 0.009424777959001457, -0.006283185306000972, 0.0011780972448751821, 0.0035342917346255468, 0.0070685834692510935, 0.003141592653000486, 0.009032078877376396, 0.012566370612001944, -0.00039269908162506076, -0.009817477040626518, 0.0)","(0.0, 0.0, -14.62, 10.948, 0.248, 5.004, 0.084, -2.628, 0.24, 7.08, -16.012, 0.06, -28.732, -0.024, 0.18, -0.112, -20.48)",2711995,1522677032,599572225,robotiq_force_torque_frame_id,0.733999872208,-0.567000055313,0.477998352051,-0.0489999987185,-0.211999997497,-0.10000000149,0.0,0.0,0.0,0.0,0.0,0.0,0.0,0.0,0.0,0.0,3,"(0.5282605997723452, -0.8173976392976043, 0.13420757995327057, 0.9999377972961768, -0.004352227397899916, -0.009388168303921954, 0.004161964805750852)",0.469999790192,0.219999790192,0.02999877929700001,-0.007999997586,-0.002000004053999971,-0.0010000020263999931
1522705832.64,26320,1522677032,613931894,,2730665,1522677029,686831597,,0.794982999005,-0.44975593893,0.128700522845,0.030625393836300002,0.999446492674,-0.0103888668458,0.00780160103319,0.0042914881386,0.013228216531899999,0.00216544251337,0.0135392393432,-0.000688299106344,0.0200735553138,1.4368014335600001,-0.377803057432,6.69919633865,0.504311919212,0.5954180955889999,0.268238455057,2731015,1522677029,684925584,,"['head_nod', 'head_pan', 'left_e0', 'left_e1', 'left_s0', 'left_s1', 'left_w0', 'left_w1', 'left_w2', 'right_e0', 'right_e1', 'right_s0', 'right_s1', 'right_w0', 'right_w1', 'right_w2', 'torso_t0']","(0.0, -0.1012427320004373, -0.9069661408372509, 1.50176719133982, 0.2784175130012026, 0.6450389213058165, 2.3408546823131413, -0.4881893857445329, -0.03298058693953639, 0.46594666432019444, 0.9238399295039904, 0.3133155759255958, -0.7075486384121471, -0.3723738362591842, 1.405126401703039, -0.03298058693953639, -12.565987119160338)","(0.0, -0.008246680714126275, 0.003926990816250607, -0.00510508806112579, 0.008639379795751335, -0.001570796326500243, 0.0007853981632501215, 0.014137166938502187, 0.0035342917346255468, -0.00039269908162506076, -0.015707963265002428, 0.014137166938502187, 0.0047123889795007284, 0.013351768775252066, 0.01060287520387664, -0.013744467856877126, 0.0)","(0.0, 0.0, -14.62, 10.916, 0.152, 5.068, 0.084, -2.636, 0.26, 7.208, -16.012, 0.06, -28.704, 0.0, 0.18, -0.12, -20.48)",2711996,1522677032,611778574,robotiq_force_torque_frame_id,0.733999872208,-0.396999979019,0.42799911499,-0.0460000000894,-0.216000005603,-0.11400000006,0.0,0.0,0.0,0.0,0.0,0.0,0.0,0.0,0.0,0.0,3,"(0.5282605997723452, -0.8173976392976043, 0.13420757995327057, 0.9999377972961768, -0.004352227397899916, -0.009388168303921954, 0.004161964805750852)",0.0,0.170000076294,-0.04999923706100001,0.002999998629099998,-0.004000008106000014,-0.013999998569999991
1522705832.64,26321,1522677032,623915910,,2730666,1522677029,696837140,,0.794979837766,-0.448913266785,0.128429774322,0.030327865057099997,0.999459016727,-0.0101637570674,0.007654575481989999,-0.00150032739732,-1.16324804883e-05,0.006096485940760001,0.0072787508328999995,0.00146624472717,-0.0071535198121599995,0.995572447777,-0.31927770376200004,6.654391288759999,0.483358263969,0.40901479125,0.255294144154,2731016,1522677029,694932887,,"['head_nod', 'head_pan', 'left_e0', 'left_e1', 'left_s0', 'left_s1', 'left_w0', 'left_w1', 'left_w2', 'right_e0', 'right_e1', 'right_s0', 'right_s1', 'right_w0', 'right_w1', 'right_w2', 'torso_t0']","(0.0, -0.10162622719740866, -0.9069661408372509, 1.5010002009458774, 0.27880100819817394, 0.6442719309118737, 2.341621672707084, -0.48703890015361884, -0.033364082136507746, 0.46594666432019444, 0.9246069198979331, 0.31408256631953846, -0.7075486384121471, -0.37199034106221285, 1.4047429065060677, -0.03259709174256504, -12.565987119160338)","(0.0, 0.0070685834692510935, 0.0007853981632501215, 0.00039269908162506076, -0.012959069693627005, 0.007853981632501214, -0.008246680714126275, 0.01688606050987761, 0.00039269908162506076, 0.014137166938502187, -0.007461282550876154, -0.009424777959001457, -0.0027488935713754254, -0.001570796326500243, 0.015707963265002428, 0.004319689897875668, 0.0)","(0.0, 0.0, -14.492, 10.948, 0.184, 5.004, 0.096, -2.656, 0.24, 7.208, -15.984, 0.0, -28.732, 0.0, 0.168, -0.1, -20.48)",2711997,1522677032,619930093,robotiq_force_torque_frame_id,0.344000005722,-0.766999864578,0.308000183105,-0.046999998390699994,-0.212999999523,-0.11400000006,0.0,0.0,0.0,0.0,0.0,0.0,0.0,0.0,0.0,0.0,3,"(0.5282605997723452, -0.8173976392976043, 0.13420757995327057, 0.9999377972961768, -0.004352227397899916, -0.009388168303921954, 0.004161964805750852)",-0.389999866486,-0.36999988555899993,-0.119998931885,-0.0009999983012999938,0.003000006080000006,0.0
1522705832.64,26322,1522677032,633939981,,2730667,1522677029,706830250,,0.794700569013,-0.450224354524,0.128546852173,0.031081861792500002,0.9994309849169999,-0.010645333485,0.00763551774997,-0.016353046965600002,-0.011724678450799999,-0.0057165229007,-0.0206951935522,0.031425240798499995,0.00122574787455,1.57131278515,-0.40279084443999996,6.67007303238,0.488427728415,0.657703995705,0.25399723649,1080125,1522677029,704999936,,['l_gripper_l_finger_joint'],"(0.0032494800670444966,)","(0.0,)","(0.0,)",2711998,1522677032,628062071,robotiq_force_torque_frame_id,0.454000139236,-1.35700001717,0.447999572754,-0.0480000004172,-0.206000000238,-0.103000000119,0.0,0.0,0.0,0.0,0.0,0.0,0.0,0.0,0.0,0.0,3,"(0.5282605997723452, -0.8173976392976043, 0.13420757995327057, 0.9999377972961768, -0.004352227397899916, -0.009388168303921954, 0.004161964805750852)",0.11000013351400001,-0.5900001525920001,0.139999389649,-0.0010000020265000034,0.006999999285000003,0.010999999940999997
1522705832.68,26323,1522677032,643944025,,2730668,1522677029,717087868,,0.795086052668,-0.449122596809,0.128998313009,0.030152064179599997,0.9994630232449999,-0.0101366314125,0.00785919178386,-0.0039649850841399995,-0.00464685211805,-0.010097681068700001,-0.00652051380722,0.00787621514147,-0.015248534400799998,1.35036432743,-0.39180725812899997,6.764575004580001,0.546116888523,0.541803717613,0.284991562366,1080125,1522677029,704999936,,['l_gripper_l_finger_joint'],"(0.0032494800670444966,)","(0.0,)","(0.0,)",2711999,1522677032,640269775,robotiq_force_torque_frame_id,0.844000005722,-1.2669998645799998,0.537999725342,-0.052000001072899996,-0.201000005007,-0.09499999880789999,0.0,0.0,0.0,0.0,0.0,0.0,0.0,0.0,0.0,0.0,3,"(0.5282605997723452, -0.8173976392976043, 0.13420757995327057, 0.9999377972961768, -0.004352227397899916, -0.009388168303921954, 0.004161964805750852)",0.38999986648599994,0.09000015259000027,0.09000015258800004,-0.004000000655699998,0.004999995231000004,0.008000001311100013
1522705832.68,26324,1522677032,653914928,,2730669,1522677029,727081242,,0.795013106045,-0.449402702812,0.12899828300799998,0.030343711289,0.99945722619,-0.0101377984116,0.007857305212840001,0.007940018461670001,0.0051605558324899995,0.00293888007303,0.0069697235229,-0.011026359409600001,0.0013514184923800003,0.752494633198,-0.396532714367,6.641638755800001,0.537113547325,0.30229228734999997,0.281666964293,2731019,1522677029,725131518,,"['head_nod', 'head_pan', 'left_e0', 'left_e1', 'left_s0', 'left_s1', 'left_w0', 'left_w1', 'left_w2', 'right_e0', 'right_e1', 'right_s0', 'right_s1', 'right_w0', 'right_w1', 'right_w2', 'torso_t0']","(0.0, -0.1012427320004373, -0.9069661408372509, 1.5013836961428486, 0.27803401780423126, 0.6446554261088451, 2.3412381775101125, -0.4881893857445329, -0.033364082136507746, 0.4663301595171658, 0.9238399295039904, 0.3133155759255958, -0.7079321336091184, -0.37199034106221285, 1.4055098969000104, -0.033364082136507746, -12.565987119160338)","(0.0, -0.0023561944897503642, 0.01649336142825255, 0.014137166938502187, 0.011780972448751823, 0.0, 0.006283185306000972, -0.012566370612001944, 0.003141592653000486, -0.00039269908162506076, -0.024347343060753767, 0.008639379795751335, 0.008246680714126275, 0.006675884387626033, 0.0047123889795007284, -0.0023561944897503642, 0.0)","(0.0, 0.0, -14.652, 10.948, 0.248, 5.004, 0.084, -2.628, 0.252, 7.24, -15.984, -0.092, -28.732, -0.008, 0.16, -0.112, -20.48)",2712000,1522677032,648411548,robotiq_force_torque_frame_id,0.8740002155299998,-0.987000131607,0.42799911499,-0.0410000011325,-0.204999998212,-0.097999997437,0.0,0.0,0.0,0.0,0.0,0.0,0.0,0.0,0.0,0.0,3,"(0.5282605997723452, -0.8173976392976043, 0.13420757995327057, 0.9999377972961768, -0.004352227397899916, -0.009388168303921954, 0.004161964805750852)",0.03000020980799989,0.27999973297299985,-0.11000061035200004,0.010999999940399997,-0.0039999932049999964,-0.002999998629100012
1522705832.68,26325,1522677032,663918018,,2730670,1522677029,737080895,,0.795068702061,-0.44974789073700006,0.128405217688,0.031323592969900005,0.9994287887790001,-0.010022857775,0.00777631051371,0.00789415310624,0.0031026204690900003,0.00507315855316,0.018293247955900004,-0.0208080306268,0.00556590104099,1.52851760387,-0.362972021103,6.69074821472,0.457243740559,0.638193547726,0.256310224533,2731020,1522677029,735143397,,"['head_nod', 'head_pan', 'left_e0', 'left_e1', 'left_s0', 'left_s1', 'left_w0', 'left_w1', 'left_w2', 'right_e0', 'right_e1', 'right_s0', 'right_s1', 'right_w0', 'right_w1', 'right_w2', 'torso_t0']","(0.0, -0.1012427320004373, -0.9061991504433081, 1.50176719133982, 0.2784175130012026, 0.6446554261088451, 2.3420051679040554, -0.48742239535059023, -0.03298058693953639, 0.4655631691232231, 0.9230729391100477, 0.3133155759255958, -0.7067816480182044, -0.37160684586524145, 1.405126401703039, -0.032213596545593685, -12.565987119160338)","(0.0, 0.012959069693627005, 0.005890486224375911, -0.0011780972448751821, -0.0035342917346255468, 0.0011780972448751821, 0.0035342917346255468, 0.006675884387626033, 0.01060287520387664, -0.0011780972448751821, -0.012173671530376884, -0.003141592653000486, -0.001570796326500243, 0.022776546734253524, -0.006675884387626033, -0.01688606050987761, 0.0)","(0.0, 0.0, -14.588, 10.916, 0.216, 5.036, 0.104, -2.636, 0.26, 7.144, -16.012, 0.092, -28.732, -0.008, 0.18, -0.12, -20.48)",2712001,1522677032,660599349,robotiq_force_torque_frame_id,0.633999967575,-1.06700005531,0.457997894287,-0.035999998450300004,-0.21099999547000003,-0.10400000214600001,0.0,0.0,0.0,0.0,0.0,0.0,0.0,0.0,0.0,0.0,3,"(0.5282605997723452, -0.8173976392976043, 0.13420757995327057, 0.9999377972961768, -0.004352227397899916, -0.009388168303921954, 0.004161964805750852)",-0.24000024795499986,-0.07999992370300013,0.02999877929700001,0.005000002682199994,-0.005999997258000045,-0.006000004709000015
1522705832.68,26326,1522677032,673969030,,2730671,1522677029,747093660,,0.7949656516779999,-0.449529283795,0.128186843495,0.0306512566807,0.9994502800630001,-0.0100495473756,0.00765798562588,0.0102278958056,-0.0036025586077600004,0.00792705923275,0.00457276443353,-0.025221766388,-0.005041775073609999,1.46715605259,-0.334279716015,6.67885875702,0.453979223967,0.598870754242,0.252753049135,2731021,1522677029,745140841,,"['head_nod', 'head_pan', 'left_e0', 'left_e1', 'left_s0', 'left_s1', 'left_w0', 'left_w1', 'left_w2', 'right_e0', 'right_e1', 'right_s0', 'right_s1', 'right_w0', 'right_w1', 'right_w2', 'torso_t0']","(0.0, -0.1012427320004373, -0.9065826456402796, 1.5021506865367915, 0.2784175130012026, 0.6446554261088451, 2.3420051679040554, -0.48742239535059023, -0.03298058693953639, 0.46594666432019444, 0.9238399295039904, 0.3133155759255958, -0.7067816480182044, -0.37199034106221285, 1.4047429065060677, -0.03298058693953639, -12.565987119160338)","(0.0, 0.004319689897875668, -0.01688606050987761, 0.010995574285501701, -0.01021017612225158, 0.006283185306000972, -0.0011780972448751821, -0.0007853981632501215, 0.0023561944897503642, 0.012959069693627005, -0.023169245815878585, -0.009032078877376396, 0.0027488935713754254, -0.0019634954081253035, -0.0019634954081253035, -0.003141592653000486, 0.0)","(0.0, 0.0, -14.72, 10.916, 0.248, 5.004, 0.084, -2.648, 0.232, 7.176, -16.012, 0.092, -28.732, -0.008, 0.168, -0.112, -20.48)",2712002,1522677032,668729815,robotiq_force_torque_frame_id,0.8340002536769999,-1.39699997902,0.527997589111,-0.04500000178809999,-0.20999999344300002,-0.109999999404,0.0,0.0,0.0,0.0,0.0,0.0,0.0,0.0,0.0,0.0,3,"(0.5282605997723452, -0.8173976392976043, 0.13420757995327057, 0.9999377972961768, -0.004352227397899916, -0.009388168303921954, 0.004161964805750852)",0.20000028610199994,-0.32999992371,0.06999969482400004,-0.009000003337799989,0.0010000020270000132,-0.005999997257999989
1522705832.72,26327,1522677032,683923006,,2730672,1522677029,757073774,,0.7951444850120001,-0.449476288828,0.12891075543299998,0.0301748017673,0.999457075105,-0.0106020050523,0.00791415506112,-0.0013501677676500002,0.00182186354667,-1.4094930894299999e-08,-0.0131864410618,0.00132284486367,0.0126141068131,1.25984501839,-0.344149172306,6.6659283638,0.456518888474,0.5233914852139999,0.22943311929699997,1080127,1522677029,756000000,,['l_gripper_l_finger_joint'],"(0.0032494800670444966,)","(0.0,)","(0.0,)",2712003,1522677032,680942178,robotiq_force_torque_frame_id,1.4439999103499999,-1.27700009346,0.457997894287,-0.04500000178809999,-0.20999999344300002,-0.119000002742,0.0,0.0,0.0,0.0,0.0,0.0,0.0,0.0,0.0,0.0,3,"(0.5282605997723452, -0.8173976392976043, 0.13420757995327057, 0.9999377972961768, -0.004352227397899916, -0.009388168303921954, 0.004161964805750852)",0.6099996566729999,0.11999988555999996,-0.06999969482400004,0.0,0.0,-0.009000003337999996
1522705832.72,26328,1522677032,693902969,,2730673,1522677029,767082325,,0.795025537216,-0.44930713129100003,0.128691877541,0.0307155830171,0.999449167166,-0.00982195380327,0.00783864999524,0.00271986956253,-0.00444586554888,0.000881519200836,-0.023090275479599996,-0.00748291952997,0.00928533730732,1.41339313984,-0.24947497248599998,6.75147771835,0.425374299288,0.592461645603,0.259740263224,1080127,1522677029,756000000,,['l_gripper_l_finger_joint'],"(0.0032494800670444966,)","(0.0,)","(0.0,)",2712004,1522677032,689073292,robotiq_force_torque_frame_id,1.53400006294,-0.677000188828,0.37799987793000006,-0.0540000014007,-0.215000003576,-0.119999997318,0.0,0.0,0.0,0.0,0.0,0.0,0.0,0.0,0.0,0.0,3,"(0.5282605997723452, -0.8173976392976043, 0.13420757995327057, 0.9999377972961768, -0.004352227397899916, -0.009388168303921954, 0.004161964805750852)",0.09000015259000005,0.5999999046320001,-0.07999801635699993,-0.008999999612600007,-0.005000010132999971,-0.0009999945760000017
1522705832.72,26329,1522677032,703927040,,2730674,1522677029,777080225,,0.795031417505,-0.449420680967,0.12852104412999998,0.031126260896700002,0.999437946088,-0.009705306106620001,0.00779453883214,-0.00418934004596,0.006408805405069999,-0.00950264249222,0.0005825938370160001,0.0152075722363,0.012484616991399999,1.29093420506,-0.322713524103,6.73013448715,0.513854205608,0.529588401318,0.277155935764,2731024,1522677029,775162333,,"['head_nod', 'head_pan', 'left_e0', 'left_e1', 'left_s0', 'left_s1', 'left_w0', 'left_w1', 'left_w2', 'right_e0', 'right_e1', 'right_s0', 'right_s1', 'right_w0', 'right_w1', 'right_w2', 'torso_t0']","(0.0, -0.10085923680346595, -0.9073496360342223, 1.50176719133982, 0.2784175130012026, 0.6450389213058165, 2.3423886631010267, -0.48780589054756157, -0.0337475773334791, 0.4655631691232231, 0.9234564343070191, 0.3133155759255958, -0.7071651432151758, -0.3708398554712988, 1.405126401703039, -0.03259709174256504, -12.565987119160338)","(0.0, -0.014137166938502187, -0.007853981632501214, 0.00510508806112579, 0.00510508806112579, -0.01610066234662749, 0.0, -0.009817477040626518, 0.0019634954081253035, -0.0011780972448751821, 0.011780972448751823, 0.007461282550876154, 0.007853981632501214, -0.0035342917346255468, -0.0035342917346255468, -0.0011780972448751821, 0.0)","(0.0, 0.0, -14.62, 10.916, 0.216, 5.004, 0.096, -2.636, 0.26, 7.3, -16.012, 0.06, -28.732, 0.0, 0.18, -0.112, -20.48)",2712005,1522677032,701276516,robotiq_force_torque_frame_id,1.3240000248000001,-0.757000112534,0.447999572754,-0.05099999904630001,-0.21099999547000003,-0.118000000715,0.0,0.0,0.0,0.0,0.0,0.0,0.0,0.0,0.0,0.0,3,"(0.5282605997723452, -0.8173976392976043, 0.13420757995327057, 0.9999377972961768, -0.004352227397899916, -0.009388168303921954, 0.004161964805750852)",-0.2100000381399998,-0.07999992370600006,0.06999969482399993,0.00300000235439999,0.004000008105999958,0.001999996603000001
1522705832.72,26330,1522677032,713929891,,2730675,1522677029,787074306,,0.794920481477,-0.449366341367,0.12839154382200002,0.0306158591883,0.9994517537809999,-0.0100612939975,0.0075915343284499994,-0.00621119946911,0.004769606517020001,-0.00128701630078,0.0102364389837,0.017996399347099998,-0.0047765500960500005,1.30059170723,-0.331255108118,6.66887569427,0.48476418852799996,0.547671437263,0.262293428183,2731025,1522677029,785184756,,"['head_nod', 'head_pan', 'left_e0', 'left_e1', 'left_s0', 'left_s1', 'left_w0', 'left_w1', 'left_w2', 'right_e0', 'right_e1', 'right_s0', 'right_s1', 'right_w0', 'right_w1', 'right_w2', 'torso_t0']","(0.0, -0.10162622719740866, -0.9073496360342223, 1.5025341817337627, 0.27880100819817394, 0.6442719309118737, 2.3423886631010267, -0.48780589054756157, -0.03298058693953639, 0.4655631691232231, 0.9238399295039904, 0.3136990711225671, -0.7071651432151758, -0.37160684586524145, 1.405126401703039, -0.03298058693953639, -12.565987119160338)","(0.0, -0.0007853981632501215, 0.011780972448751823, 0.0007853981632501215, -0.006675884387626033, -0.004319689897875668, 0.01688606050987761, 0.01649336142825255, 0.009032078877376396, 0.02081305132612822, -0.0035342917346255468, -0.007461282550876154, 0.007461282550876154, -0.009032078877376396, 0.02120575040775328, 0.01060287520387664, 0.0)","(0.0, 0.0, -14.652, 10.884, 0.184, 5.004, 0.084, -2.648, 0.26, 7.208, -15.984, 0.06, -28.704, 0.0, 0.188, -0.112, -20.48)",2712006,1522677032,709427841,robotiq_force_torque_frame_id,1.4239999294299999,-1.09699978828,0.49799880981399997,-0.05099999904630001,-0.211999997497,-0.11400000006,0.0,0.0,0.0,0.0,0.0,0.0,0.0,0.0,0.0,0.0,3,"(0.5282605997723452, -0.8173976392976043, 0.13420757995327057, 0.9999377972961768, -0.004352227397899916, -0.009388168303921954, 0.004161964805750852)",0.09999990462999975,-0.339999675746,0.04999923705999998,0.0,-0.0010000020269999577,0.004000000655000002
1522705832.72,26331,1522677032,723901987,,2730676,1522677029,797078020,,0.7950101417859999,-0.44941179842600004,0.128648143138,0.0308086574308,0.999443674059,-0.010141016042899999,0.0077671618776400005,0.0025168703437199996,-0.007955914291289999,0.008921267631459999,0.00632320583166,-0.0152880950788,-0.026886562568799996,1.18309175968,-0.324016332626,6.698974132540001,0.475606024265,0.505425274372,0.278448820114,2731026,1522677029,795191908,,"['head_nod', 'head_pan', 'left_e0', 'left_e1', 'left_s0', 'left_s1', 'left_w0', 'left_w1', 'left_w2', 'right_e0', 'right_e1', 'right_s0', 'right_s1', 'right_w0', 'right_w1', 'right_w2', 'torso_t0']","(0.0, -0.1012427320004373, -0.9069661408372509, 1.5013836961428486, 0.27880100819817394, 0.6446554261088451, 2.3420051679040554, -0.48742239535059023, -0.033364082136507746, 0.4655631691232231, 0.9238399295039904, 0.3136990711225671, -0.7075486384121471, -0.37160684586524145, 1.405126401703039, -0.03259709174256504, -12.565987119160338)","(0.0, 0.010995574285501701, 0.01060287520387664, 0.009424777959001457, -0.007853981632501214, 0.00039269908162506076, 0.00039269908162506076, 0.010995574285501701, -0.01060287520387664, -0.008639379795751335, -0.0070685834692510935, -0.009817477040626518, -0.011388273367126762, 0.018456856836377853, 0.00039269908162506076, 0.006283185306000972, 0.0)","(0.0, 0.0, -14.684, 10.916, 0.28, 5.004, 0.104, -2.656, 0.252, 7.208, -15.984, 0.06, -28.732, -0.008, 0.188, -0.128, -20.48)",2712007,1522677032,721630962,robotiq_force_torque_frame_id,2.0439998149900003,-0.7069999217990001,0.547998046875,-0.0500000007451,-0.212999999523,-0.11500000208599999,0.0,0.0,0.0,0.0,0.0,0.0,0.0,0.0,0.0,0.0,3,"(0.5282605997723452, -0.8173976392976043, 0.13420757995327057, 0.9999377972961768, -0.004352227397899916, -0.009388168303921954, 0.004161964805750852)",0.6199998855600004,0.38999986648099993,0.04999923706100001,0.0009999983012000113,-0.0010000020260000075,-0.0010000020259999937
1522705832.73,26332,1522677032,733938932,,2730677,1522677029,807074366,,0.794832007536,-0.44936572259499996,0.128181572869,0.030683263486700002,0.999452655845,-0.00984839288414,0.007478985422669999,-0.008816144760450001,-0.00251445996795,-0.0067311860063,-0.0025104606369400003,0.0202074869211,0.00802113466048,1.3399761915200001,-0.390236616135,6.64915657043,0.482736438513,0.566971838474,0.25355181098,1080129,1522677029,807000064,,['l_gripper_l_finger_joint'],"(0.0032494800670444966,)","(0.0,)","(0.0,)",2712008,1522677032,729781158,robotiq_force_torque_frame_id,2.0439998149900003,-0.007000112533569999,0.747998809814,-0.0579999983311,-0.21099999547000003,-0.118000000715,0.0,0.0,0.0,0.0,0.0,0.0,0.0,0.0,0.0,0.0,3,"(0.5282605997723452, -0.8173976392976043, 0.13420757995327057, 0.9999377972961768, -0.004352227397899916, -0.009388168303921954, 0.004161964805750852)",0.0,0.69999980926543,0.20000076293900004,-0.007999997586,0.002000004052999965,-0.0029999986290000086
1522705832.74,26333,1522677032,743947029,,2730678,1522677029,817084582,,0.794615829348,-0.44923418391099995,0.128207590303,0.0304822768658,0.9994580318449999,-0.0101585074377,0.00716087311229,0.0039775983207300004,0.015138287535399999,0.00515341265362,0.00916397125649,-0.0109225240204,0.016893012452400002,1.14834094048,-0.22181592881700002,6.7100272178600004,0.43279141187700004,0.486216038465,0.239844113588,1080129,1522677029,807000064,,['l_gripper_l_finger_joint'],"(0.0032494800670444966,)","(0.0,)","(0.0,)",2712009,1522677032,742026459,robotiq_force_torque_frame_id,0.983999872208,-0.786999845505,0.817998504639,-0.054999999702,-0.20999999344300002,-0.115999996662,0.0,0.0,0.0,0.0,0.0,0.0,0.0,0.0,0.0,0.0,3,"(0.5282605997723452, -0.8173976392976043, 0.13420757995327057, 0.9999377972961768, -0.004352227397899916, -0.009388168303921954, 0.004161964805750852)",-1.0599999427820004,-0.77999973297143,0.06999969482500001,0.002999998629099998,0.0010000020270000132,0.002000004052999993
1522705832.75,26334,1522677032,753922939,,2730679,1522677029,827075641,,0.7953567940780001,-0.44908792505199996,0.128578749582,0.030336143270400004,0.999456083281,-0.010150742970799998,0.00801363971364,-0.00293242628492,-0.0166538833198,0.0015942939971700003,-0.020404012250999998,0.0013190956447000001,-0.01817996512,0.850719094276,-0.234147146344,6.61138439178,0.42281606793399995,0.35531702637699997,0.265104949474,2731029,1522677029,825182748,,"['head_nod', 'head_pan', 'left_e0', 'left_e1', 'left_s0', 'left_s1', 'left_w0', 'left_w1', 'left_w2', 'right_e0', 'right_e1', 'right_s0', 'right_s1', 'right_w0', 'right_w1', 'right_w2', 'torso_t0']","(0.0, -0.1012427320004373, -0.9065826456402796, 1.5013836961428486, 0.27880100819817394, 0.6454224165027879, 2.341621672707084, -0.48742239535059023, -0.033364082136507746, 0.46594666432019444, 0.9234564343070191, 0.31408256631953846, -0.7071651432151758, -0.37199034106221285, 1.4047429065060677, -0.03298058693953639, -12.565987119160338)","(0.0, 0.01021017612225158, -0.00510508806112579, -0.007853981632501214, -0.0007853981632501215, -0.009424777959001457, -0.012959069693627005, -0.009032078877376396, -0.004319689897875668, -0.003141592653000486, -0.0007853981632501215, -0.01021017612225158, -0.0023561944897503642, -0.01767145867312773, 0.001570796326500243, 0.008246680714126275, 0.0)","(0.0, 0.0, -14.652, 10.884, 0.248, 5.068, 0.084, -2.636, 0.252, 7.176, -15.952, 0.06, -28.76, 0.0, 0.16, -0.12, -20.48)",2712010,1522677032,750172871,robotiq_force_torque_frame_id,0.5239998340609999,-1.35700001717,0.668000793457,-0.046999998390699994,-0.216000005603,-0.11699999868899999,0.0,0.0,0.0,0.0,0.0,0.0,0.0,0.0,0.0,0.0,3,"(0.5282605997723452, -0.8173976392976043, 0.13420757995327057, 0.9999377972961768, -0.004352227397899916, -0.009388168303921954, 0.004161964805750852)",-0.4600000381470001,-0.570000171665,-0.149997711182,0.008000001311300006,-0.0060000121599999845,-0.0010000020269999854
1522705832.76,26335,1522677032,763910055,,2730680,1522677029,837076022,,0.7953721310259999,-0.448983329743,0.128622548408,0.030626468129599998,0.999449842378,-0.00982860904771,0.008088909943000001,-0.0025152020870799997,0.00271442289047,-0.00715415265257,0.010571979831999999,0.0025747599310100002,0.0029001580503499997,1.4310142993900001,-0.409045994282,6.709132671360001,0.527008533478,0.602616727352,0.26158514618900003,1080130,1522677029,836000000,,['r_gripper_l_finger_joint'],"(0.019983251598477365,)","(0.0,)","(0.0,)",2712011,1522677032,758321650,robotiq_force_torque_frame_id,0.284000062943,-1.7069999218,0.67799911499,-0.0430000014603,-0.21799999475499998,-0.109999999404,0.0,0.0,0.0,0.0,0.0,0.0,0.0,0.0,0.0,0.0,3,"(0.5282605997723452, -0.8173976392976043, 0.13420757995327057, 0.9999377972961768, -0.004352227397899916, -0.009388168303921954, 0.004161964805750852)",-0.23999977111799992,-0.34999990462999997,0.009998321532999954,0.003999996930399992,-0.0019999891519999757,0.006999999284999989
1522705832.77,26336,1522677032,773978948,,2730681,1522677029,847099730,,0.7948377599359999,-0.450393840657,0.12813303817399999,0.031240550883499998,0.999428768803,-0.0104142005974,0.007596610844060001,0.00430371899317,0.009937296144549999,0.00392886583249,0.0192524410874,-0.008137019766600001,-0.0066694620623400005,1.19217169285,-0.365748971701,6.6235332489,0.5029758811,0.492853969336,0.26140448451,2731031,1522677029,845176791,,"['head_nod', 'head_pan', 'left_e0', 'left_e1', 'left_s0', 'left_s1', 'left_w0', 'left_w1', 'left_w2', 'right_e0', 'right_e1', 'right_s0', 'right_s1', 'right_w0', 'right_w1', 'right_w2', 'torso_t0']","(0.0, -0.1012427320004373, -0.9065826456402796, 1.5010002009458774, 0.27880100819817394, 0.6454224165027879, 2.341621672707084, -0.48742239535059023, -0.03298058693953639, 0.464412683532309, 0.9234564343070191, 0.3133155759255958, -0.7067816480182044, -0.37160684586524145, 1.4047429065060677, -0.03298058693953639, -12.565987119160338)","(0.0, -0.00039269908162506076, -0.01060287520387664, -0.005497787142750851, 0.007461282550876154, -0.010995574285501701, 0.014529866020127248, -0.0011780972448751821, 0.0019634954081253035, -0.00510508806112579, -0.009032078877376396, 0.0070685834692510935, -0.0023561944897503642, 0.02513274122400389, 0.003141592653000486, 0.0035342917346255468, 0.0)","(0.0, 0.0, -14.62, 10.916, 0.308, 4.968, 0.084, -2.636, 0.252, 7.208, -15.984, 0.0, -28.704, -0.024, 0.18, -0.1, -20.48)",2712012,1522677032,770539175,robotiq_force_torque_frame_id,-0.07600007057189999,-1.6570002079,0.657998657227,-0.0439999997616,-0.215000003576,-0.0930000022054,0.0,0.0,0.0,0.0,0.0,0.0,0.0,0.0,0.0,0.0,3,"(0.5282605997723452, -0.8173976392976043, 0.13420757995327057, 0.9999377972961768, -0.004352227397899916, -0.009388168303921954, 0.004161964805750852)",-0.3600001335149,0.04999971390000013,-0.020000457762999968,-0.0009999983013000008,0.002999991178999989,0.0169999971986
1522705832.78,26337,1522677032,783930063,,2730682,1522677029,857079055,,0.7949139882940001,-0.44957541841399995,0.12852715248,0.0304630361161,0.99945459266,-0.010261811368200001,0.0075641171308500005,-0.004902533914170001,0.0024446850168200005,-0.0012580833654200001,0.00559950042621,0.0161494017704,0.0161797161617,1.1787889003799998,-0.335460245609,6.7115554809599995,0.512764394283,0.495965957642,0.298646897078,1080131,1522677029,856999936,,['l_gripper_l_finger_joint'],"(0.0032494800670444966,)","(0.0,)","(0.0,)",2712013,1522677032,778686508,robotiq_force_torque_frame_id,0.25399985313400003,-0.797000074387,0.598001098633,-0.05099999904630001,-0.21099999547000003,-0.09000000357629999,0.0,0.0,0.0,0.0,0.0,0.0,0.0,0.0,0.0,0.0,3,"(0.5282605997723452, -0.8173976392976043, 0.13420757995327057, 0.9999377972961768, -0.004352227397899916, -0.009388168303921954, 0.004161964805750852)",0.32999992370590003,0.8600001335129999,-0.05999755859400002,-0.006999999284700006,0.004000008105999958,0.002999998629100012
1522705832.79,26338,1522677032,793931961,,2730683,1522677029,867079671,,0.7946305626819999,-0.44961362031900004,0.128160517966,0.0312085980878,0.999435047112,-0.0101127203103,0.0073036222730399995,-0.0106807153535,-0.007127478807859999,0.00135154423749,-0.00338213750153,0.019886385671299998,-0.0128539168056,1.14880740643,-0.22514805197700002,6.690736293790001,0.47021457552900003,0.4699216187,0.26519158482599997,1080131,1522677029,856999936,,['l_gripper_l_finger_joint'],"(0.0032494800670444966,)","(0.0,)","(0.0,)",2712014,1522677032,790898991,robotiq_force_torque_frame_id,1.0540000438700001,-0.786999845505,0.567998504639,-0.0419999994338,-0.20999999344300002,-0.09399999678130001,0.0,0.0,0.0,0.0,0.0,0.0,0.0,0.0,0.0,0.0,3,"(0.5282605997723452, -0.8173976392976043, 0.13420757995327057, 0.9999377972961768, -0.004352227397899916, -0.009388168303921954, 0.004161964805750852)",0.8000001907360001,0.010000228882000028,-0.03000259399399996,0.00899999961250001,0.0010000020270000132,-0.003999993205000024
1522705832.8,26339,1522677032,803945064,,2730684,1522677029,877087873,,0.795125596141,-0.448819476276,0.128184063782,0.030298129977000002,0.9994628289399999,-0.00985832968188,0.00767399649799,-0.000624760070795,-0.00037450076948499997,-0.004627662595010001,-0.00022169882352700003,0.00223484758551,0.017307063826599998,0.626127302647,-0.133222654462,6.57910251617,0.40430736541699996,0.257822483778,0.249465584755,2731034,1522677029,875128383,,"['head_nod', 'head_pan', 'left_e0', 'left_e1', 'left_s0', 'left_s1', 'left_w0', 'left_w1', 'left_w2', 'right_e0', 'right_e1', 'right_s0', 'right_s1', 'right_w0', 'right_w1', 'right_w2', 'torso_t0']","(0.0, -0.1012427320004373, -0.9065826456402796, 1.50176719133982, 0.27803401780423126, 0.6446554261088451, 2.341621672707084, -0.4881893857445329, -0.03259709174256504, 0.46594666432019444, 0.9238399295039904, 0.31408256631953846, -0.7067816480182044, -0.37160684586524145, 1.4047429065060677, -0.03298058693953639, -12.565987119160338)","(0.0, -0.008246680714126275, -0.009817477040626518, -0.00510508806112579, 0.01727875959150267, -0.003141592653000486, -0.022776546734253524, -0.008246680714126275, 0.009424777959001457, -0.003141592653000486, 0.0047123889795007284, 0.00039269908162506076, 0.003926990816250607, 0.00039269908162506076, -0.0070685834692510935, -0.01727875959150267, 0.0)","(0.0, 0.0, -14.588, 10.916, 0.152, 5.036, 0.096, -2.648, 0.26, 7.24, -15.924, 0.06, -28.76, 0.0, 0.16, -0.092, -20.48)",2712015,1522677032,799053727,robotiq_force_torque_frame_id,1.55400004387,-1.1570002079000001,0.587998962402,-0.0430000014603,-0.209000006318,-0.09399999678130001,0.0,0.0,0.0,0.0,0.0,0.0,0.0,0.0,0.0,0.0,3,"(0.5282605997723452, -0.8173976392976043, 0.13420757995327057, 0.9999377972961768, -0.004352227397899916, -0.009388168303921954, 0.004161964805750852)",0.4999999999999998,-0.3700003623950001,0.020000457762999968,-0.0010000020265000034,0.000999987125000018,0.0
1522705832.81,26340,1522677032,813930034,,2730685,1522677029,887077691,,0.7945448335199999,-0.449460170342,0.128511122844,0.0305237983802,0.9994552493350001,-0.0102848530051,0.0071919474213100005,-0.00500486689044,-0.00340080132244,-0.0057240456216800005,0.011539763655700001,0.00682319143425,-0.0018630356107600002,1.2384649515200001,-0.33367270231199997,6.6885471344,0.45244234800300004,0.499910563231,0.257637500763,2731035,1522677029,885182065,,"['head_nod', 'head_pan', 'left_e0', 'left_e1', 'left_s0', 'left_s1', 'left_w0', 'left_w1', 'left_w2', 'right_e0', 'right_e1', 'right_s0', 'right_s1', 'right_w0', 'right_w1', 'right_w2', 'torso_t0']","(0.0, -0.1012427320004373, -0.9061991504433081, 1.5021506865367915, 0.27880100819817394, 0.6446554261088451, 2.3427721582979983, -0.48780589054756157, -0.033364082136507746, 0.4655631691232231, 0.9242234247009617, 0.3136990711225671, -0.7075486384121471, -0.37199034106221285, 1.4058933920969816, -0.03298058693953639, -12.565987119160338)","(0.0, 0.01727875959150267, -0.01060287520387664, -0.012566370612001944, -0.00039269908162506076, -0.0047123889795007284, 0.009424777959001457, -0.01060287520387664, -0.0070685834692510935, -0.00510508806112579, 0.009817477040626518, -0.01021017612225158, 0.0023561944897503642, 0.013351768775252066, -0.00510508806112579, -0.01021017612225158, 0.0)","(0.0, 0.0, -14.556, 10.916, 0.372, 5.036, 0.096, -2.648, 0.232, 7.144, -16.012, 0.06, -28.76, 0.0, 0.16, -0.12, -20.48)",2712016,1522677032,811276121,robotiq_force_torque_frame_id,1.5439998149899998,-1.07699980736,0.6979995727539999,-0.04500000178809999,-0.21099999547000003,-0.101999998093,0.0,0.0,0.0,0.0,0.0,0.0,0.0,0.0,0.0,0.0,3,"(0.5282605997723452, -0.8173976392976043, 0.13420757995327057, 0.9999377972961768, -0.004352227397899916, -0.009388168303921954, 0.004161964805750852)",-0.010000228880000073,0.08000040054000013,0.11000061035199993,-0.0020000003277999903,-0.0019999891520000312,-0.008000001311699992
1522705832.85,26341,1522677032,823909997,,2730686,1522677029,897080191,,0.794862319797,-0.449397851467,0.12864567874900001,0.0306189100239,0.9994510970799999,-0.0101303181364,0.007573872826510001,0.0076659994212,0.0106742348294,0.010349451233700001,-0.0062736132623300005,-0.012711762209399999,0.0243318868652,1.0702149868000002,-0.393728673458,6.7415189743,0.581584453583,0.435261160135,0.296792507172,2731036,1522677029,895180703,,"['head_nod', 'head_pan', 'left_e0', 'left_e1', 'left_s0', 'left_s1', 'left_w0', 'left_w1', 'left_w2', 'right_e0', 'right_e1', 'right_s0', 'right_s1', 'right_w0', 'right_w1', 'right_w2', 'torso_t0']","(0.0, -0.10085923680346595, -0.9065826456402796, 1.50176719133982, 0.27880100819817394, 0.6446554261088451, 2.341621672707084, -0.4881893857445329, -0.033364082136507746, 0.4655631691232231, 0.9238399295039904, 0.3136990711225671, -0.7075486384121471, -0.37160684586524145, 1.4055098969000104, -0.03298058693953639, -12.565987119160338)","(0.0, -0.012959069693627005, 0.015707963265002428, -0.0027488935713754254, -0.011780972448751823, -0.012566370612001944, 0.0, -0.0035342917346255468, -0.014529866020127248, 0.01531526418337737, -0.009032078877376396, 0.011780972448751823, -0.007853981632501214, -0.012566370612001944, 0.006675884387626033, -0.003926990816250607, 0.0)","(0.0, 0.0, -14.556, 10.884, 0.248, 5.036, 0.112, -2.636, 0.252, 7.332, -16.012, -0.028, -28.732, 0.008, 0.18, -0.12, -20.48)",2712017,1522677032,819437023,robotiq_force_torque_frame_id,1.56400027275,-0.896999979019,0.707997894287,-0.0489999987185,-0.20800000429200002,-0.10599999874800001,0.0,0.0,0.0,0.0,0.0,0.0,0.0,0.0,0.0,0.0,3,"(0.5282605997723452, -0.8173976392976043, 0.13420757995327057, 0.9999377972961768, -0.004352227397899916, -0.009388168303921954, 0.004161964805750852)",0.020000457760000145,0.17999982834100003,0.009998321533000065,-0.003999996930400006,0.002999991178000011,-0.004000000655000002
1522705832.85,26342,1522677032,833925962,,2730687,1522677029,907079526,,0.794840973809,-0.449631762379,0.128305408272,0.030807186719599998,0.999446727921,-0.00992067606159,0.00766390772866,0.0072149252786,0.00117881517272,0.0008851055188480001,-0.017802563307000002,-0.012182124696200001,0.007718131057629999,1.4710392952000002,-0.190081462264,6.6721067428600005,0.412934362888,0.609124660492,0.24399673938799998,1080133,1522677029,908000000,,['l_gripper_l_finger_joint'],"(0.0032494800670444966,)","(0.0,)","(0.0,)",2712018,1522677032,831628394,robotiq_force_torque_frame_id,0.983999872208,-0.226999902725,0.6480003356930001,-0.0480000004172,-0.209000006318,-0.11299999803300001,0.0,0.0,0.0,0.0,0.0,0.0,0.0,0.0,0.0,0.0,3,"(0.5282605997723452, -0.8173976392976043, 0.13420757995327057, 0.9999377972961768, -0.004352227397899916, -0.009388168303921954, 0.004161964805750852)",-0.580000400542,0.6700000762939999,-0.05999755859399991,0.0009999983013000008,-0.0010000020259999798,-0.006999999285000003
1522705832.85,26343,1522677032,843938112,,2730688,1522677029,917088229,,0.794773901632,-0.449397282788,0.128435691109,0.0306862468525,0.999452013492,-0.00991745924942,0.00746129902161,-0.006745502896989999,-0.012644347096200001,-0.008995046541180001,0.0088434716243,0.0105440519575,-0.0309869867498,1.1608916521100001,-0.299515664577,6.62635087967,0.437350809574,0.468979299068,0.25804775953299997,1080133,1522677029,908000000,,['l_gripper_l_finger_joint'],"(0.0032494800670444966,)","(0.0,)","(0.0,)",2712019,1522677032,839772756,robotiq_force_torque_frame_id,-0.0860000610352,-0.226999902725,0.747998809814,-0.04500000178809999,-0.206000000238,-0.12099999934399999,0.0,0.0,0.0,0.0,0.0,0.0,0.0,0.0,0.0,0.0,3,"(0.5282605997723452, -0.8173976392976043, 0.13420757995327057, 0.9999377972961768, -0.004352227397899916, -0.009388168303921954, 0.004161964805750852)",-1.0699999332432,0.0,0.09999847412099994,0.002999998629100005,0.003000006080000006,-0.008000001310999982
1522705832.89,26344,1522677032,853909015,,2730689,1522677029,927081558,,0.7950919547930001,-0.449236104105,0.12882743465399998,0.0307543761281,0.999446194612,-0.0100183426802,0.00781698369814,0.00833723489533,-0.0117157593952,0.00443703615505,-0.0033817184111400002,-0.023656366919200002,-0.0245473998289,0.9374684095379999,-0.20661956071899998,6.53810358047,0.387883365154,0.400478065014,0.244841635227,2731039,1522677029,925135100,,"['head_nod', 'head_pan', 'left_e0', 'left_e1', 'left_s0', 'left_s1', 'left_w0', 'left_w1', 'left_w2', 'right_e0', 'right_e1', 'right_s0', 'right_s1', 'right_w0', 'right_w1', 'right_w2', 'torso_t0']","(0.0, -0.1004757416064946, -0.9065826456402796, 1.50176719133982, 0.2784175130012026, 0.6446554261088451, 2.3408546823131413, -0.4881893857445329, -0.03259709174256504, 0.46594666432019444, 0.9234564343070191, 0.3136990711225671, -0.7075486384121471, -0.37160684586524145, 1.4055098969000104, -0.03259709174256504, -12.565987119160338)","(0.0, -0.003926990816250607, -0.01531526418337737, -0.007853981632501214, -0.008639379795751335, 0.004319689897875668, 0.0019634954081253035, 0.0019634954081253035, 0.003141592653000486, -0.013744467856877126, -0.018064157754752792, -0.004319689897875668, 0.00039269908162506076, 0.009424777959001457, -0.010995574285501701, 0.003926990816250607, 0.0)","(0.0, 0.0, -14.588, 10.916, 0.216, 4.968, 0.096, -2.656, 0.24, 7.112, -15.924, 0.092, -28.704, 0.008, 0.168, -0.112, -20.48)",2712020,1522677032,851975843,robotiq_force_torque_frame_id,-0.18599996566799998,-0.9769999027249999,0.857999420166,-0.046999998390699994,-0.202000007033,-0.11500000208599999,0.0,0.0,0.0,0.0,0.0,0.0,0.0,0.0,0.0,0.0,3,"(0.5282605997723452, -0.8173976392976043, 0.13420757995327057, 0.9999377972961768, -0.004352227397899916, -0.009388168303921954, 0.004161964805750852)",-0.09999990463279998,-0.7499999999999999,0.11000061035199993,-0.0019999966026000016,0.0039999932049999964,0.005999997258000003
1522705832.89,26345,1522677032,863924026,,2730690,1522677029,937077833,,0.795084316506,-0.449176628988,0.128694732354,0.0303022322,0.9994600038070001,-0.0100112650036,0.0078262434968,0.0005051315900530001,0.012959274368200002,0.0007594726564269999,0.00520452074975,0.004371154670149999,0.0129107084973,0.9403067827220001,-0.193984627724,6.65751218796,0.442510306835,0.39960408210799997,0.269907742739,2731040,1522677029,935155154,,"['head_nod', 'head_pan', 'left_e0', 'left_e1', 'left_s0', 'left_s1', 'left_w0', 'left_w1', 'left_w2', 'right_e0', 'right_e1', 'right_s0', 'right_s1', 'right_w0', 'right_w1', 'right_w2', 'torso_t0']","(0.0, -0.10085923680346595, -0.9065826456402796, 1.5013836961428486, 0.27880100819817394, 0.6450389213058165, 2.3427721582979983, -0.48780589054756157, -0.03298058693953639, 0.46594666432019444, 0.9238399295039904, 0.3136990711225671, -0.7075486384121471, -0.37160684586524145, 1.405126401703039, -0.033364082136507746, -12.565987119160338)","(0.0, -0.00039269908162506076, -0.013744467856877126, -0.0007853981632501215, -0.01649336142825255, 0.0047123889795007284, 0.0070685834692510935, -0.008639379795751335, -0.006675884387626033, 0.0007853981632501215, 0.003141592653000486, 0.013744467856877126, -0.0027488935713754254, 0.00510508806112579, 0.0047123889795007284, 0.001570796326500243, 0.0)","(0.0, 0.0, -14.62, 10.916, 0.216, 5.036, 0.084, -2.648, 0.268, 7.268, -15.952, 0.092, -28.732, 0.0, 0.18, -0.112, -20.48)",2712021,1522677032,860115510,robotiq_force_torque_frame_id,0.49400010108900005,-0.786999845505,0.8280006408689999,-0.05099999904630001,-0.203999996185,-0.119999997318,0.0,0.0,0.0,0.0,0.0,0.0,0.0,0.0,0.0,0.0,3,"(0.5282605997723452, -0.8173976392976043, 0.13420757995327057, 0.9999377972961768, -0.004352227397899916, -0.009388168303921954, 0.004161964805750852)",0.6800000667570001,0.1900000572199999,-0.02999877929700001,-0.004000000655600015,-0.0019999891520000035,-0.00499999523200001
1522705832.89,26346,1522677032,873931884,,2730691,1522677029,947099526,,0.7948485011990001,-0.45007660346600004,0.128604557542,0.031093353001700002,0.9994321264079999,-0.010463872122,0.00768995984175,-0.000376224575459,-0.00416767329841,0.00451905927129,-0.010757832719600001,-0.0047976673943700004,0.009294853904700001,1.4799726009399998,-0.331578850746,6.78595495224,0.48923641443300003,0.6095138192180001,0.263592123985,2731041,1522677029,945164406,,"['head_nod', 'head_pan', 'left_e0', 'left_e1', 'left_s0', 'left_s1', 'left_w0', 'left_w1', 'left_w2', 'right_e0', 'right_e1', 'right_s0', 'right_s1', 'right_w0', 'right_w1', 'right_w2', 'torso_t0']","(0.0, -0.10162622719740866, -0.9065826456402796, 1.5013836961428486, 0.2784175130012026, 0.6446554261088451, 2.3412381775101125, -0.48780589054756157, -0.033364082136507746, 0.4651796739262517, 0.9238399295039904, 0.3133155759255958, -0.7075486384121471, -0.37199034106221285, 1.405126401703039, -0.03259709174256504, -12.565987119160338)","(0.0, 0.011780972448751823, 0.0200276531628781, -0.001570796326500243, 0.0200276531628781, 0.0007853981632501215, 0.009032078877376396, -0.009424777959001457, -0.0011780972448751821, -0.0070685834692510935, 0.01021017612225158, 0.00039269908162506076, -0.013351768775252066, -0.0007853981632501215, -0.00510508806112579, -0.009817477040626518, 0.0)","(0.0, 0.0, -14.46, 10.98, 0.184, 5.036, 0.096, -2.648, 0.252, 7.24, -16.044, 0.092, -28.76, -0.008, 0.18, -0.112, -20.48)",2712022,1522677032,868391486,robotiq_force_torque_frame_id,1.0039998531299998,-0.396999979019,0.727998352051,-0.0500000007451,-0.201000005007,-0.12800000607999998,0.0,0.0,0.0,0.0,0.0,0.0,0.0,0.0,0.0,0.0,3,"(0.5282605997723452, -0.8173976392976043, 0.13420757995327057, 0.9999377972961768, -0.004352227397899916, -0.009388168303921954, 0.004161964805750852)",0.5099997520409998,0.389999866486,-0.10000228881799988,0.0009999983012000113,0.002999991178000011,-0.00800000876199998
1522705832.89,26347,1522677032,883917093,,2730692,1522677029,957073387,,0.7951756088330001,-0.449796307374,0.128953884736,0.0308764077606,0.999438571026,-0.0101056214454,0.00818942022345,0.0050919277033,-0.00963925105973,0.00838717889739,0.0034490061017300004,-0.0204322691794,-0.0295911763011,1.55343961716,-0.270388662815,6.73270130157,0.456009119749,0.653275251389,0.25821545720100003,1080135,1522677029,958000128,,['l_gripper_l_finger_joint'],"(0.0032494800670444966,)","(0.0,)","(0.0,)",2712023,1522677032,880623731,robotiq_force_torque_frame_id,0.844000005722,-0.616999769211,0.607999420166,-0.0439999997616,-0.202999994159,-0.119000002742,0.0,0.0,0.0,0.0,0.0,0.0,0.0,0.0,0.0,0.0,3,"(0.5282605997723452, -0.8173976392976043, 0.13420757995327057, 0.9999377972961768, -0.004352227397899916, -0.009388168303921954, 0.004161964805750852)",-0.15999984740799988,-0.21999979019199994,-0.1199989318850001,0.006000000983499995,-0.0019999891520000035,0.009000003337999982
1522705832.93,26348,1522677032,893915891,,2730693,1522677029,967081098,,0.794830733344,-0.449320839938,0.128134983075,0.030997984822100002,0.9994420935580001,-0.00997723698994,0.00742167792651,-0.00605293318978,0.00587199107113,-0.006494478829020001,0.00945448157115,0.016523982107799998,-0.0046017952042899995,1.3334813118000002,-0.283545404673,6.678803443910001,0.431331574917,0.53656321764,0.241900980473,1080135,1522677029,958000128,,['l_gripper_l_finger_joint'],"(0.0032494800670444966,)","(0.0,)","(0.0,)",2712024,1522677032,888755810,robotiq_force_torque_frame_id,0.233999872208,-0.347000026703,0.527997589111,-0.0439999997616,-0.19900000095400003,-0.125,0.0,0.0,0.0,0.0,0.0,0.0,0.0,0.0,0.0,0.0,3,"(0.5282605997723452, -0.8173976392976043, 0.13420757995327057, 0.9999377972961768, -0.004352227397899916, -0.009388168303921954, 0.004161964805750852)",-0.610000133514,0.26999974250799996,-0.08000183105499992,0.0,0.003999993204999969,-0.005999997258000003
1522705832.93,26349,1522677032,903923034,,2730694,1522677029,977083865,,0.795002919718,-0.44971987525300006,0.128526682249,0.0312577560145,0.999430292958,-0.0100817555947,0.00777177012254,-0.0019604584384000003,0.0038726300608099996,-0.000766243135835,-0.0077636919825,0.0058426442447,0.0138881224929,1.49811553955,-0.333053231239,6.7175927162199995,0.5007795095440001,0.621430516243,0.269528836012,2731044,1522677029,975171103,,"['head_nod', 'head_pan', 'left_e0', 'left_e1', 'left_s0', 'left_s1', 'left_w0', 'left_w1', 'left_w2', 'right_e0', 'right_e1', 'right_s0', 'right_s1', 'right_w0', 'right_w1', 'right_w2', 'torso_t0']","(0.0, -0.1012427320004373, -0.9073496360342223, 1.5021506865367915, 0.2784175130012026, 0.6450389213058165, 2.3427721582979983, -0.48780589054756157, -0.033364082136507746, 0.4655631691232231, 0.9234564343070191, 0.3133155759255958, -0.7071651432151758, -0.37160684586524145, 1.405126401703039, -0.032213596545593685, -12.565987119160338)","(0.0, -0.003926990816250607, 0.0, -0.009424777959001457, 0.0011780972448751821, 0.001570796326500243, 0.003141592653000486, 0.014529866020127248, -0.00039269908162506076, -0.009032078877376396, 0.011780972448751823, 0.010995574285501701, -0.006675884387626033, 0.0, -0.0023561944897503642, -0.0047123889795007284, 0.0)","(0.0, 0.0, -14.524, 10.916, 0.216, 5.036, 0.104, -2.656, 0.252, 7.268, -16.012, 0.092, -28.704, -0.008, 0.188, -0.112, -20.48)",2712025,1522677032,900969045,robotiq_force_torque_frame_id,-0.29599986076400003,-0.09700002670289999,0.447999572754,-0.046999998390699994,-0.20000000298,-0.14499999582800002,0.0,0.0,0.0,0.0,0.0,0.0,0.0,0.0,0.0,0.0,3,"(0.5282605997723452, -0.8173976392976043, 0.13420757995327057, 0.9999377972961768, -0.004352227397899916, -0.009388168303921954, 0.004161964805750852)",-0.5299997329720001,0.25000000000010003,-0.07999801635700005,-0.002999998629099991,-0.0010000020259999798,-0.019999995828000022
1522705832.93,26350,1522677032,913949012,,2730695,1522677029,987074283,,0.794304307842,-0.449553219114,0.127691814225,0.031276607013,0.999439349306,-0.009806535894509999,0.006825889392510001,-0.00234822132624,-0.012160569771,-0.0109230087676,-0.0031945107565,0.00887548344044,-0.0268865475173,1.53888058662,-0.302968382835,6.71246242523,0.465006113052,0.624207019806,0.261216163635,2731045,1522677029,985174850,,"['head_nod', 'head_pan', 'left_e0', 'left_e1', 'left_s0', 'left_s1', 'left_w0', 'left_w1', 'left_w2', 'right_e0', 'right_e1', 'right_s0', 'right_s1', 'right_w0', 'right_w1', 'right_w2', 'torso_t0']","(0.0, -0.10085923680346595, -0.9073496360342223, 1.5013836961428486, 0.2784175130012026, 0.6446554261088451, 2.341621672707084, -0.4881893857445329, -0.033364082136507746, 0.4651796739262517, 0.9242234247009617, 0.3133155759255958, -0.7063981528212331, -0.3712233506682701, 1.4055098969000104, -0.032213596545593685, -12.565987119160338)","(0.0, 0.01021017612225158, 0.01060287520387664, 0.024740042142378828, 0.0019634954081253035, -0.004319689897875668, -0.01727875959150267, 0.009032078877376396, -0.0007853981632501215, -0.019242254999627974, -0.012173671530376884, -0.0019634954081253035, 0.019242254999627974, 0.003141592653000486, -0.003141592653000486, 0.007853981632501214, 0.0)","(0.0, 0.0, -14.72, 10.948, 0.248, 5.004, 0.084, -2.628, 0.252, 7.24, -16.012, 0.124, -28.732, -0.008, 0.18, -0.112, -20.48)",2712026,1522677032,909120583,robotiq_force_torque_frame_id,-0.2859998703,-0.267000102997,0.12799987793,-0.0439999997616,-0.215000003576,-0.143999993801,0.0,0.0,0.0,0.0,0.0,0.0,0.0,0.0,0.0,0.0,3,"(0.5282605997723452, -0.8173976392976043, 0.13420757995327057, 0.9999377972961768, -0.004352227397899916, -0.009388168303921954, 0.004161964805750852)",0.00999999046400002,-0.17000007629410002,-0.319999694824,0.002999998629099991,-0.015000000595999985,0.0010000020270000132
1522705832.93,26351,1522677032,923913002,,2730696,1522677029,997080786,,0.7942342452779999,-0.449680575332,0.12825240022700002,0.0309077662627,0.999446968799,-0.0101911165829,0.00682698223151,-0.0034347559894299996,0.00638201446689,-0.0013492360583299999,0.0098944610484,0.012484234325299999,0.0038290282492399997,1.1234241724,-0.332088440657,6.63951301575,0.46186810731899997,0.45402216911300003,0.260798513889,2731046,1522677029,995151124,,"['head_nod', 'head_pan', 'left_e0', 'left_e1', 'left_s0', 'left_s1', 'left_w0', 'left_w1', 'left_w2', 'right_e0', 'right_e1', 'right_s0', 'right_s1', 'right_w0', 'right_w1', 'right_w2', 'torso_t0']","(0.0, -0.10085923680346595, -0.9069661408372509, 1.5021506865367915, 0.2791845033951453, 0.6446554261088451, 2.341621672707084, -0.48780589054756157, -0.033364082136507746, 0.4655631691232231, 0.9242234247009617, 0.3133155759255958, -0.7071651432151758, -0.37199034106221285, 1.406276887293953, -0.03259709174256504, -12.565987119160338)","(0.0, 0.007853981632501214, 0.003141592653000486, -0.009817477040626518, -0.0070685834692510935, 0.0, 0.009424777959001457, -0.003141592653000486, -0.001570796326500243, 0.01060287520387664, -0.003926990816250607, -0.00039269908162506076, 0.005890486224375911, -0.0007853981632501215, 0.014529866020127248, 0.0011780972448751821, 0.0)","(0.0, 0.0, -14.556, 10.884, 0.152, 5.068, 0.104, -2.656, 0.252, 7.176, -15.984, 0.028, -28.732, -0.016, 0.168, -0.112, -20.48)",2712027,1522677032,921338412,robotiq_force_torque_frame_id,-0.195999956131,-0.496999883652,-0.191999816895,-0.0309999994934,-0.219999998808,-0.12099999934399999,0.0,0.0,0.0,0.0,0.0,0.0,0.0,0.0,0.0,0.0,3,"(0.5282605997723452, -0.8173976392976043, 0.13420757995327057, 0.9999377972961768, -0.004352227397899916, -0.009388168303921954, 0.004161964805750852)",0.08999991416900002,-0.22999978065499999,-0.319999694825,0.013000000268200002,-0.00499999523200001,0.022999994457000017
1522705832.97,26352,1522677032,933923959,,2730697,1522677030,7074734,,0.795037377923,-0.449204295108,0.128140308771,0.0305826551632,0.999451512364,-0.0101786482413,0.007600707674050001,0.00883735505271,-0.00031911247615099995,0.015780953957,-0.013410289629899999,-0.021660959039699997,0.00303406543886,1.30636835098,-0.349236726761,6.67446756363,0.464263558388,0.5573069453239999,0.258481174707,1080137,1522677030,8999936,,['l_gripper_l_finger_joint'],"(0.0032494800670444966,)","(0.0,)","(0.0,)",2712028,1522677032,929475397,robotiq_force_torque_frame_id,0.233999872208,-1.0169998645799998,-0.32200088500999996,-0.0270000007004,-0.21899999678100002,-0.09499999880789999,0.0,0.0,0.0,0.0,0.0,0.0,0.0,0.0,0.0,0.0,3,"(0.5282605997723452, -0.8173976392976043, 0.13420757995327057, 0.9999377972961768, -0.004352227397899916, -0.009388168303921954, 0.004161964805750852)",0.42999982833899997,-0.5199999809279998,-0.13000106811499995,0.003999998793,0.0010000020269999854,0.026000000536100007
