time,.header.seq,.header.stamp.secs,.header.stamp.nsecs,.header.frame_id,.endpoint_state.header.seq,.endpoint_state.header.stamp.secs,.endpoint_state.header.stamp.nsecs,.endpoint_state.header.frame_id,.endpoint_state.pose.position.x,.endpoint_state.pose.position.y,.endpoint_state.pose.position.z,.endpoint_state.pose.orientation.x,.endpoint_state.pose.orientation.y,.endpoint_state.pose.orientation.z,.endpoint_state.pose.orientation.w,.endpoint_state.twist.linear.x,.endpoint_state.twist.linear.y,.endpoint_state.twist.linear.z,.endpoint_state.twist.angular.x,.endpoint_state.twist.angular.y,.endpoint_state.twist.angular.z,.endpoint_state.wrench.force.x,.endpoint_state.wrench.force.y,.endpoint_state.wrench.force.z,.endpoint_state.wrench.torque.x,.endpoint_state.wrench.torque.y,.endpoint_state.wrench.torque.z,.joint_state.header.seq,.joint_state.header.stamp.secs,.joint_state.header.stamp.nsecs,.joint_state.header.frame_id,.joint_state.name,.joint_state.position,.joint_state.velocity,.joint_state.effort,.wrench_stamped.header.seq,.wrench_stamped.header.stamp.secs,.wrench_stamped.header.stamp.nsecs,.wrench_stamped.header.frame_id,.wrench_stamped.wrench.force.x,.wrench_stamped.wrench.force.y,.wrench_stamped.wrench.force.z,.wrench_stamped.wrench.torque.x,.wrench_stamped.wrench.torque.y,.wrench_stamped.wrench.torque.z,.tactile_values.tactile_values_0,.tactile_values.tactile_values_1,.tactile_values.tactile_values_2,.tactile_values.tactile_values_3,.tactile_values.tactile_values_4,.tactile_values.tactile_values_5,.tactile_values.tactile_values_6,.tactile_values.tactile_values_7,.tactile_values.tactile_values_8,.tactile_values.tactile_values_9,.tag,.goal_vector,.delta_wrench.force.x,.delta_wrench.force.y,.delta_wrench.force.z,.delta_wrench.torque.x,.delta_wrench.torque.y,.delta_wrench.torque.z
1522690922.74,21725,1522662122,718702077,,1239716,1522662120,196540570,,0.794240105917,-0.448186565373,0.129498865494,0.030144201291099997,0.999474953678,-0.009946130308610001,0.006497583504649999,-0.00540784261595,-0.0025536973255799998,-0.00249806770437,0.0036988041113200005,0.006814275930390001,0.0032048451784699996,0.325812876225,-0.30291548371300003,6.998406410219999,0.483108818531,0.20003980398200003,0.277658253908,1240066,1522662120,194616593,,"['head_nod', 'head_pan', 'left_e0', 'left_e1', 'left_s0', 'left_s1', 'left_w0', 'left_w1', 'left_w2', 'right_e0', 'right_e1', 'right_s0', 'right_s1', 'right_w0', 'right_w1', 'right_w2', 'torso_t0']","(0.0, -0.10085923680346595, -0.9065826456402796, 1.5013836961428486, 0.2784175130012026, 0.6446554261088451, 2.341621672707084, -0.4881893857445329, -0.03298058693953639, 0.4663301595171658, 0.9230729391100477, 0.3148495567134812, -0.7083156288060898, -0.37160684586524145, 1.4093448488697238, -0.03259709174256504, -12.565987119160338)","(0.0, 0.006675884387626033, -0.011780972448751823, -0.01767145867312773, -0.0023561944897503642, 0.0027488935713754254, -0.011388273367126762, -0.009032078877376396, 0.009817477040626518, -0.0019634954081253035, 0.01531526418337737, -0.007853981632501214, -0.0047123889795007284, 0.005497787142750851, -0.0035342917346255468, -0.007853981632501214, 0.0)","(0.0, 0.0, -14.684, 10.948, 0.28, 5.068, 0.076, -2.648, 0.268, 7.208, -16.012, -0.092, -28.968, 0.0, 0.228, -0.12, -20.48)",1222584,1522662122,712920318,robotiq_force_torque_frame_id,-0.208000087738,-0.104999923706,0.63999786377,-0.0270000007004,-0.224000006914,-0.10400000214600001,2.0,3.0,7.0,12.0,18.0,14.0,14.0,15.0,21.0,38.0,3,"(0.694092982562896, -0.14931115423188265, 0.0667849366470713, 0.9985515752749625, 0.033443160274226905, 0.040606742123791735, 0.01128711835921407)",0.0,0.0,0.0,0.0,0.0,0.0
1522690922.74,21726,1522662122,728683948,,1239716,1522662120,196540570,,0.794240105917,-0.448186565373,0.129498865494,0.030144201291099997,0.999474953678,-0.009946130308610001,0.006497583504649999,-0.00540784261595,-0.0025536973255799998,-0.00249806770437,0.0036988041113200005,0.006814275930390001,0.0032048451784699996,0.325812876225,-0.30291548371300003,6.998406410219999,0.483108818531,0.20003980398200003,0.277658253908,1240066,1522662120,194616593,,"['head_nod', 'head_pan', 'left_e0', 'left_e1', 'left_s0', 'left_s1', 'left_w0', 'left_w1', 'left_w2', 'right_e0', 'right_e1', 'right_s0', 'right_s1', 'right_w0', 'right_w1', 'right_w2', 'torso_t0']","(0.0, -0.10085923680346595, -0.9065826456402796, 1.5013836961428486, 0.2784175130012026, 0.6446554261088451, 2.341621672707084, -0.4881893857445329, -0.03298058693953639, 0.4663301595171658, 0.9230729391100477, 0.3148495567134812, -0.7083156288060898, -0.37160684586524145, 1.4093448488697238, -0.03259709174256504, -12.565987119160338)","(0.0, 0.006675884387626033, -0.011780972448751823, -0.01767145867312773, -0.0023561944897503642, 0.0027488935713754254, -0.011388273367126762, -0.009032078877376396, 0.009817477040626518, -0.0019634954081253035, 0.01531526418337737, -0.007853981632501214, -0.0047123889795007284, 0.005497787142750851, -0.0035342917346255468, -0.007853981632501214, 0.0)","(0.0, 0.0, -14.684, 10.948, 0.28, 5.068, 0.076, -2.648, 0.268, 7.208, -16.012, -0.092, -28.968, 0.0, 0.228, -0.12, -20.48)",1222585,1522662122,725129996,robotiq_force_torque_frame_id,-0.407999897003,0.105000114441,0.879999542236,-0.0250000003725,-0.231000006199,-0.097000002861,3.0,3.0,7.0,12.0,18.0,14.0,21.0,22.0,24.0,35.0,3,"(0.694092982562896, -0.14931115423188265, 0.0667849366470713, 0.9985515752749625, 0.033443160274226905, 0.040606742123791735, 0.01128711835921407)",-0.199999809265,0.21000003814700002,0.24000167846599996,0.0020000003279000006,-0.006999999285000003,0.0069999992850000164
1522690922.78,21727,1522662122,738722085,,1239719,1522662120,226543399,,0.7935265968170001,-0.449687674181,0.128752325591,0.0311135115531,0.999444817895,-0.0102793905281,0.00602822632751,-0.00312511498072,-0.026036699550700003,0.00313330209406,-0.028110175052400002,-0.00135953083398,-0.0159142915629,0.765992164612,-0.511050820351,6.99175310135,0.557386517525,0.347534239292,0.278792142868,1240069,1522662120,224630890,,"['head_nod', 'head_pan', 'left_e0', 'left_e1', 'left_s0', 'left_s1', 'left_w0', 'left_w1', 'left_w2', 'right_e0', 'right_e1', 'right_s0', 'right_s1', 'right_w0', 'right_w1', 'right_w2', 'torso_t0']","(0.0, -0.1012427320004373, -0.9065826456402796, 1.50176719133982, 0.2784175130012026, 0.6446554261088451, 2.341621672707084, -0.4881893857445329, -0.033364082136507746, 0.4655631691232231, 0.9242234247009617, 0.3133155759255958, -0.7079321336091184, -0.37199034106221285, 1.408577858475781, -0.032213596545593685, -12.565987119160338)","(0.0, 0.0007853981632501215, -0.0027488935713754254, 0.01021017612225158, -0.021991148571003403, -0.001570796326500243, 0.01727875959150267, -0.005890486224375911, -0.009424777959001457, -0.021991148571003403, -0.004319689897875668, -0.009817477040626518, -0.006283185306000972, -0.009817477040626518, -0.00039269908162506076, -0.008246680714126275, 0.0)","(0.0, 0.0, -14.556, 10.884, 0.28, 5.1, 0.096, -2.656, 0.296, 7.144, -16.072, -0.152, -28.936, 0.0, 0.208, -0.128, -20.48)",1222586,1522662122,733193851,robotiq_force_torque_frame_id,-0.9480000972750001,-0.344999933243,0.850000762939,-0.0230000000447,-0.229000002146,-0.08900000154969999,2.0,3.0,3.0,4.0,18.0,14.0,15.0,21.0,24.0,35.0,3,"(0.694092982562896, -0.14931115423188265, 0.0667849366470713, 0.9985515752749625, 0.033443160274226905, 0.040606742123791735, 0.01128711835921407)",-0.5400002002720001,-0.450000047684,-0.02999877929700001,0.0020000003278000007,0.002000004052999993,0.008000001311300006
1522690922.78,21728,1522662122,748719930,,1239719,1522662120,226543399,,0.7935265968170001,-0.449687674181,0.128752325591,0.0311135115531,0.999444817895,-0.0102793905281,0.00602822632751,-0.00312511498072,-0.026036699550700003,0.00313330209406,-0.028110175052400002,-0.00135953083398,-0.0159142915629,0.765992164612,-0.511050820351,6.99175310135,0.557386517525,0.347534239292,0.278792142868,1240069,1522662120,224630890,,"['head_nod', 'head_pan', 'left_e0', 'left_e1', 'left_s0', 'left_s1', 'left_w0', 'left_w1', 'left_w2', 'right_e0', 'right_e1', 'right_s0', 'right_s1', 'right_w0', 'right_w1', 'right_w2', 'torso_t0']","(0.0, -0.1012427320004373, -0.9065826456402796, 1.50176719133982, 0.2784175130012026, 0.6446554261088451, 2.341621672707084, -0.4881893857445329, -0.033364082136507746, 0.4655631691232231, 0.9242234247009617, 0.3133155759255958, -0.7079321336091184, -0.37199034106221285, 1.408577858475781, -0.032213596545593685, -12.565987119160338)","(0.0, 0.0007853981632501215, -0.0027488935713754254, 0.01021017612225158, -0.021991148571003403, -0.001570796326500243, 0.01727875959150267, -0.005890486224375911, -0.009424777959001457, -0.021991148571003403, -0.004319689897875668, -0.009817477040626518, -0.006283185306000972, -0.009817477040626518, -0.00039269908162506076, -0.008246680714126275, 0.0)","(0.0, 0.0, -14.556, 10.884, 0.28, 5.1, 0.096, -2.656, 0.296, 7.144, -16.072, -0.152, -28.936, 0.0, 0.208, -0.128, -20.48)",1222587,1522662122,745395176,robotiq_force_torque_frame_id,-1.31799998283,-0.405000114441,0.420000457764,-0.0379999987781,-0.216999992728,-0.0930000022054,0.0,0.0,4.0,8.0,18.0,14.0,15.0,15.0,24.0,32.0,3,"(0.694092982562896, -0.14931115423188265, 0.0667849366470713, 0.9985515752749625, 0.033443160274226905, 0.040606742123791735, 0.01128711835921407)",-0.36999988555499985,-0.06000018119799999,-0.43000030517499993,-0.014999998733400001,0.012000009418000002,-0.004000000655700012
1522690922.78,21729,1522662122,758697986,,1239721,1522662120,246542376,,0.7934517033600001,-0.44923251524999996,0.128806209352,0.0307452965277,0.999460232476,-0.010073831677200001,0.00569985568943,-0.00888812813124,-0.0121785868995,0.0035269893897800003,-0.0018784491235,0.0137132184336,-0.0129068055865,0.379410237074,-0.391941010952,6.98181056976,0.5483509302139999,0.175370171666,0.292534202337,1240071,1522662120,244645569,,"['head_nod', 'head_pan', 'left_e0', 'left_e1', 'left_s0', 'left_s1', 'left_w0', 'left_w1', 'left_w2', 'right_e0', 'right_e1', 'right_s0', 'right_s1', 'right_w0', 'right_w1', 'right_w2', 'torso_t0']","(0.0, -0.1012427320004373, -0.9061991504433081, 1.50176719133982, 0.2791845033951453, 0.6454224165027879, 2.3423886631010267, -0.48780589054756157, -0.03298058693953639, 0.46594666432019444, 0.9234564343070191, 0.3136990711225671, -0.7075486384121471, -0.37199034106221285, 1.4097283440666952, -0.03259709174256504, -12.565987119160338)","(0.0, -0.013744467856877126, -0.0007853981632501215, -0.01688606050987761, 0.003926990816250607, -0.0035342917346255468, -0.011388273367126762, -0.0027488935713754254, 0.0035342917346255468, -0.001570796326500243, -0.00039269908162506076, -0.01531526418337737, -0.005497787142750851, 0.0, 0.018456856836377853, -0.003926990816250607, 0.0)","(0.0, 0.0, -14.588, 10.916, 0.28, 5.036, 0.104, -2.664, 0.28, 7.268, -16.044, -0.152, -28.968, -0.008, 0.2, -0.12, -20.48)",1222588,1522662122,753557319,robotiq_force_torque_frame_id,-0.518000030518,0.395000076294,0.059999847412099995,-0.0340000018477,-0.201000005007,-0.11699999868899999,-3.0,0.0,4.0,4.0,11.0,13.0,15.0,24.0,24.0,33.0,3,"(0.694092982562896, -0.14931115423188265, 0.0667849366470713, 0.9985515752749625, 0.033443160274226905, 0.040606742123791735, 0.01128711835921407)",0.7999999523119999,0.8000001907350001,-0.3600006103519,0.003999996930399999,0.015999987721000003,-0.02399999648359999
1522690922.78,21730,1522662122,768733978,,1239721,1522662120,246542376,,0.7934517033600001,-0.44923251524999996,0.128806209352,0.0307452965277,0.999460232476,-0.010073831677200001,0.00569985568943,-0.00888812813124,-0.0121785868995,0.0035269893897800003,-0.0018784491235,0.0137132184336,-0.0129068055865,0.379410237074,-0.391941010952,6.98181056976,0.5483509302139999,0.175370171666,0.292534202337,1240071,1522662120,244645569,,"['head_nod', 'head_pan', 'left_e0', 'left_e1', 'left_s0', 'left_s1', 'left_w0', 'left_w1', 'left_w2', 'right_e0', 'right_e1', 'right_s0', 'right_s1', 'right_w0', 'right_w1', 'right_w2', 'torso_t0']","(0.0, -0.1012427320004373, -0.9061991504433081, 1.50176719133982, 0.2791845033951453, 0.6454224165027879, 2.3423886631010267, -0.48780589054756157, -0.03298058693953639, 0.46594666432019444, 0.9234564343070191, 0.3136990711225671, -0.7075486384121471, -0.37199034106221285, 1.4097283440666952, -0.03259709174256504, -12.565987119160338)","(0.0, -0.013744467856877126, -0.0007853981632501215, -0.01688606050987761, 0.003926990816250607, -0.0035342917346255468, -0.011388273367126762, -0.0027488935713754254, 0.0035342917346255468, -0.001570796326500243, -0.00039269908162506076, -0.01531526418337737, -0.005497787142750851, 0.0, 0.018456856836377853, -0.003926990816250607, 0.0)","(0.0, 0.0, -14.588, 10.916, 0.28, 5.036, 0.104, -2.664, 0.28, 7.268, -16.044, -0.152, -28.968, -0.008, 0.2, -0.12, -20.48)",1222589,1522662122,765752930,robotiq_force_torque_frame_id,-0.478000068665,0.7949999332430001,0.17999877929699998,-0.0410000011325,-0.207000002265,-0.123000003397,-3.0,-2.0,-2.0,4.0,4.0,16.0,20.0,20.0,24.0,33.0,3,"(0.694092982562896, -0.14931115423188265, 0.0667849366470713, 0.9985515752749625, 0.033443160274226905, 0.040606742123791735, 0.01128711835921407)",0.03999996185300003,0.3999998569490001,0.11999893188489999,-0.006999999284799996,-0.005999997258000017,-0.006000004708000009
1522690922.82,21731,1522662122,778692007,,1239721,1522662120,246542376,,0.7934517033600001,-0.44923251524999996,0.128806209352,0.0307452965277,0.999460232476,-0.010073831677200001,0.00569985568943,-0.00888812813124,-0.0121785868995,0.0035269893897800003,-0.0018784491235,0.0137132184336,-0.0129068055865,0.379410237074,-0.391941010952,6.98181056976,0.5483509302139999,0.175370171666,0.292534202337,1240071,1522662120,244645569,,"['head_nod', 'head_pan', 'left_e0', 'left_e1', 'left_s0', 'left_s1', 'left_w0', 'left_w1', 'left_w2', 'right_e0', 'right_e1', 'right_s0', 'right_s1', 'right_w0', 'right_w1', 'right_w2', 'torso_t0']","(0.0, -0.1012427320004373, -0.9061991504433081, 1.50176719133982, 0.2791845033951453, 0.6454224165027879, 2.3423886631010267, -0.48780589054756157, -0.03298058693953639, 0.46594666432019444, 0.9234564343070191, 0.3136990711225671, -0.7075486384121471, -0.37199034106221285, 1.4097283440666952, -0.03259709174256504, -12.565987119160338)","(0.0, -0.013744467856877126, -0.0007853981632501215, -0.01688606050987761, 0.003926990816250607, -0.0035342917346255468, -0.011388273367126762, -0.0027488935713754254, 0.0035342917346255468, -0.001570796326500243, -0.00039269908162506076, -0.01531526418337737, -0.005497787142750851, 0.0, 0.018456856836377853, -0.003926990816250607, 0.0)","(0.0, 0.0, -14.588, 10.916, 0.28, 5.036, 0.104, -2.664, 0.28, 7.268, -16.044, -0.152, -28.968, -0.008, 0.2, -0.12, -20.48)",1222590,1522662122,773901594,robotiq_force_torque_frame_id,-1.2280000686599999,0.0649999141693,0.17999877929699998,-0.0419999994338,-0.206000000238,-0.10800000280099999,-2.0,-2.0,3.0,4.0,8.0,16.0,20.0,20.0,23.0,24.0,3,"(0.694092982562896, -0.14931115423188265, 0.0667849366470713, 0.9985515752749625, 0.033443160274226905, 0.040606742123791735, 0.01128711835921407)",-0.7499999999949999,-0.7300000190737002,0.0,-0.0009999983013000008,0.0010000020270000132,0.015000000596000013
1522690922.82,21732,1522662122,788691997,,1239724,1522662120,276538602,,0.7939242188590001,-0.448777880629,0.129320467947,0.030171076493099996,0.9994727334469999,-0.010247832160200001,0.00624044667585,-0.004890549662649999,0.005797733502979999,-0.006222379452100001,-0.00960515997605,0.0168995608586,0.0051623763648699994,0.48849022388499996,-0.62880396843,6.849858284,0.592700362206,0.219874292612,0.30231344699900004,1240074,1522662120,274669122,,"['head_nod', 'head_pan', 'left_e0', 'left_e1', 'left_s0', 'left_s1', 'left_w0', 'left_w1', 'left_w2', 'right_e0', 'right_e1', 'right_s0', 'right_s1', 'right_w0', 'right_w1', 'right_w2', 'torso_t0']","(0.0, -0.1012427320004373, -0.9065826456402796, 1.5013836961428486, 0.27880100819817394, 0.6450389213058165, 2.3412381775101125, -0.48780589054756157, -0.033364082136507746, 0.46594666432019444, 0.9234564343070191, 0.3144660615165098, -0.7083156288060898, -0.37199034106221285, 1.4093448488697238, -0.03298058693953639, -12.565987119160338)","(0.0, 0.0019634954081253035, -0.003926990816250607, 0.003141592653000486, -0.01021017612225158, 0.012566370612001944, -0.01021017612225158, 0.013351768775252066, -0.001570796326500243, -0.01688606050987761, 0.014137166938502187, 0.018456856836377853, -0.0011780972448751821, 0.00039269908162506076, -0.0007853981632501215, 0.0070685834692510935, 0.0)","(0.0, 0.0, -14.684, 10.98, 0.184, 5.036, 0.084, -2.656, 0.288, 7.112, -16.044, -0.28, -28.88, -0.032, 0.188, -0.14, -20.48)",1222591,1522662122,786079645,robotiq_force_torque_frame_id,-0.9480000972750001,-0.634999895096,-0.120000457764,-0.0379999987781,-0.19900000095400003,-0.107000000775,-3.0,0.0,3.0,7.0,8.0,17.0,19.0,19.0,20.0,23.0,3,"(0.694092982562896, -0.14931115423188265, 0.0667849366470713, 0.9985515752749625, 0.033443160274226905, 0.040606742123791735, 0.01128711835921407)",0.27999997138499977,-0.6999998092652999,-0.29999923706099996,0.004000000655699998,0.006999999283999969,0.0010000020259999798
1522690922.82,21733,1522662122,798702955,,1239724,1522662120,276538602,,0.7939242188590001,-0.448777880629,0.129320467947,0.030171076493099996,0.9994727334469999,-0.010247832160200001,0.00624044667585,-0.004890549662649999,0.005797733502979999,-0.006222379452100001,-0.00960515997605,0.0168995608586,0.0051623763648699994,0.48849022388499996,-0.62880396843,6.849858284,0.592700362206,0.219874292612,0.30231344699900004,1240074,1522662120,274669122,,"['head_nod', 'head_pan', 'left_e0', 'left_e1', 'left_s0', 'left_s1', 'left_w0', 'left_w1', 'left_w2', 'right_e0', 'right_e1', 'right_s0', 'right_s1', 'right_w0', 'right_w1', 'right_w2', 'torso_t0']","(0.0, -0.1012427320004373, -0.9065826456402796, 1.5013836961428486, 0.27880100819817394, 0.6450389213058165, 2.3412381775101125, -0.48780589054756157, -0.033364082136507746, 0.46594666432019444, 0.9234564343070191, 0.3144660615165098, -0.7083156288060898, -0.37199034106221285, 1.4093448488697238, -0.03298058693953639, -12.565987119160338)","(0.0, 0.0019634954081253035, -0.003926990816250607, 0.003141592653000486, -0.01021017612225158, 0.012566370612001944, -0.01021017612225158, 0.013351768775252066, -0.001570796326500243, -0.01688606050987761, 0.014137166938502187, 0.018456856836377853, -0.0011780972448751821, 0.00039269908162506076, -0.0007853981632501215, 0.0070685834692510935, 0.0)","(0.0, 0.0, -14.684, 10.98, 0.184, 5.036, 0.084, -2.656, 0.288, 7.112, -16.044, -0.28, -28.88, -0.032, 0.188, -0.14, -20.48)",1222592,1522662122,794208739,robotiq_force_torque_frame_id,-0.447999858856,-0.255000019073,-1.52587890767e-06,-0.0370000004768,-0.201000005007,-0.11500000208599999,-3.0,-2.0,3.0,7.0,8.0,16.0,17.0,17.0,20.0,20.0,3,"(0.694092982562896, -0.14931115423188265, 0.0667849366470713, 0.9985515752749625, 0.033443160274226905, 0.040606742123791735, 0.01128711835921407)",0.5000002384190001,0.37999987602299995,0.11999893188509232,0.0009999983013000008,-0.002000004052999965,-0.008000001310999982
1522690922.82,21734,1522662122,808721065,,1239726,1522662120,296547857,,0.794264167872,-0.44915313268299994,0.129540100382,0.0312522326465,0.999438126072,-0.0100555296803,0.00675399371773,0.0010289113204700001,0.00335469967183,-0.00019916512948800003,0.0062171355654599995,-0.00221507923721,0.00316302642359,0.745960474014,-0.487547397614,6.92259740829,0.557831764221,0.341565907001,0.312320560217,1240076,1522662120,294620283,,"['head_nod', 'head_pan', 'left_e0', 'left_e1', 'left_s0', 'left_s1', 'left_w0', 'left_w1', 'left_w2', 'right_e0', 'right_e1', 'right_s0', 'right_s1', 'right_w0', 'right_w1', 'right_w2', 'torso_t0']","(0.0, -0.1012427320004373, -0.9065826456402796, 1.50176719133982, 0.2791845033951453, 0.6446554261088451, 2.3420051679040554, -0.48780589054756157, -0.03298058693953639, 0.4655631691232231, 0.9226894439130764, 0.31408256631953846, -0.7083156288060898, -0.3712233506682701, 1.4089613536727525, -0.03183010134862233, -12.565987119160338)","(0.0, -0.005497787142750851, 0.01531526418337737, 0.024740042142378828, 0.00510508806112579, 0.01767145867312773, 0.00039269908162506076, -0.021991148571003403, -0.0007853981632501215, -0.0011780972448751821, 0.0007853981632501215, 0.001570796326500243, -0.00039269908162506076, 0.007461282550876154, -0.0023561944897503642, -0.003141592653000486, 0.0)","(0.0, 0.0, -14.652, 10.916, 0.28, 5.036, 0.084, -2.648, 0.296, 7.208, -16.044, -0.124, -28.88, -0.024, 0.208, -0.148, -20.48)",1222593,1522662122,802349264,robotiq_force_torque_frame_id,-0.197999858856,-0.17500009536699998,0.339998626709,-0.029999999329400003,-0.20999999344300002,-0.11400000006,-2.0,-2.0,3.0,8.0,10.0,15.0,17.0,20.0,20.0,21.0,3,"(0.694092982562896, -0.14931115423188265, 0.0667849366470713, 0.9985515752749625, 0.033443160274226905, 0.040606742123791735, 0.01128711835921407)",0.25,0.07999992370600004,0.34000015258790767,0.007000001147399997,-0.008999988436000028,0.0010000020259999937
1522690922.86,21735,1522662122,818691015,,1239726,1522662120,296547857,,0.794264167872,-0.44915313268299994,0.129540100382,0.0312522326465,0.999438126072,-0.0100555296803,0.00675399371773,0.0010289113204700001,0.00335469967183,-0.00019916512948800003,0.0062171355654599995,-0.00221507923721,0.00316302642359,0.745960474014,-0.487547397614,6.92259740829,0.557831764221,0.341565907001,0.312320560217,490273,1522662120,300999936,,['r_gripper_l_finger_joint'],"(0.019983251598477365,)","(0.0,)","(0.0,)",1222594,1522662122,814554414,robotiq_force_torque_frame_id,-0.27800025939899997,-0.22500004768399998,0.309999847412,-0.0340000018477,-0.219999998808,-0.115999996662,-1.0,0.0,1.0,8.0,12.0,13.0,14.0,18.0,21.0,24.0,3,"(0.694092982562896, -0.14931115423188265, 0.0667849366470713, 0.9985515752749625, 0.033443160274226905, 0.040606742123791735, 0.01128711835921407)",-0.08000040054299998,-0.049999952316999996,-0.02999877929700001,-0.004000002518299999,-0.010000005364999981,-0.0019999966020000093
1522690922.86,21736,1522662122,828691005,,1239727,1522662120,306570301,,0.793878710657,-0.449334412443,0.128722443022,0.030764904468,0.999451977016,-0.010561543492399999,0.006141668411430001,0.000452659817148,0.011241102986999998,0.00160463434896,0.0113714544686,0.000685848329071,0.0175838106759,0.395649582148,-0.536392629147,6.801966190340001,0.594173908234,0.19771389663199998,0.3237413764,1240077,1522662120,304713040,,"['head_nod', 'head_pan', 'left_e0', 'left_e1', 'left_s0', 'left_s1', 'left_w0', 'left_w1', 'left_w2', 'right_e0', 'right_e1', 'right_s0', 'right_s1', 'right_w0', 'right_w1', 'right_w2', 'torso_t0']","(0.0, -0.10009224640952324, -0.9073496360342223, 1.50176719133982, 0.27803401780423126, 0.6450389213058165, 2.3420051679040554, -0.48742239535059023, -0.033364082136507746, 0.4651796739262517, 0.9234564343070191, 0.3144660615165098, -0.7075486384121471, -0.3723738362591842, 1.408577858475781, -0.032213596545593685, -12.565987119160338)","(0.0, -0.003926990816250607, 0.0019634954081253035, -0.006283185306000972, -0.01060287520387664, -0.029845130203504617, -0.0035342917346255468, -0.01021017612225158, 0.003926990816250607, 0.012173671530376884, 0.0047123889795007284, 0.0023561944897503642, -0.0027488935713754254, 0.0035342917346255468, 0.003141592653000486, -0.006283185306000972, 0.0)","(0.0, 0.0, -14.588, 10.884, 0.152, 5.068, 0.084, -2.676, 0.268, 7.176, -15.984, -0.216, -28.848, -0.016, 0.208, -0.156, -20.48)",1222595,1522662122,822688873,robotiq_force_torque_frame_id,-0.22800006866500003,-0.21500005721999998,0.37000122070299996,-0.032999999821200006,-0.21899999678100002,-0.112000003457,0.0,0.0,1.0,4.0,12.0,14.0,16.0,18.0,20.0,23.0,3,"(0.694092982562896, -0.14931115423188265, 0.0667849366470713, 0.9985515752749625, 0.033443160274226905, 0.040606742123791735, 0.01128711835921407)",0.050000190733999944,0.009999990463999991,0.06000137329099997,0.0010000020264999965,0.0010000020269999854,0.00399999320500001
1522690922.86,21737,1522662122,838715076,,1239729,1522662120,326575555,,0.793867825318,-0.44938247025600003,0.12957661124199998,0.030747321728699997,0.9994532432179999,-0.010329538032399999,0.006412290668189999,0.00385326112808,-0.00953159939681,0.00619269705648,-0.00724194209837,-0.0104058287623,-0.0063531655275399996,-0.146273747087,-0.35673588514300003,6.71121454239,0.5187511444089999,-0.029798053204999998,0.328468382359,1240079,1522662120,324656757,,"['head_nod', 'head_pan', 'left_e0', 'left_e1', 'left_s0', 'left_s1', 'left_w0', 'left_w1', 'left_w2', 'right_e0', 'right_e1', 'right_s0', 'right_s1', 'right_w0', 'right_w1', 'right_w2', 'torso_t0']","(0.0, -0.10085923680346595, -0.9073496360342223, 1.5025341817337627, 0.27880100819817394, 0.6450389213058165, 2.3412381775101125, -0.48780589054756157, -0.03259709174256504, 0.46594666432019444, 0.9234564343070191, 0.3136990711225671, -0.7086991240030611, -0.37199034106221285, 1.4093448488697238, -0.03259709174256504, -12.565987119160338)","(0.0, 0.003141592653000486, -0.011388273367126762, 0.0070685834692510935, 0.009817477040626518, -0.0019634954081253035, -0.0070685834692510935, 0.006675884387626033, 0.0047123889795007284, 0.010995574285501701, -0.018849555918002914, -0.01060287520387664, 0.0027488935713754254, -0.014137166938502187, 0.0070685834692510935, -0.001570796326500243, 0.0)","(0.0, 0.0, -14.62, 10.884, 0.216, 5.036, 0.084, -2.676, 0.288, 7.208, -15.924, -0.184, -28.848, -0.016, 0.188, -0.156, -20.48)",1222596,1522662122,834887038,robotiq_force_torque_frame_id,-0.478000068665,-0.475000047684,0.44999923706100003,-0.0309999994934,-0.21400000155,-0.0909999981523,-1.0,0.0,0.0,0.0,10.0,19.0,20.0,23.0,23.0,26.0,3,"(0.694092982562896, -0.14931115423188265, 0.0667849366470713, 0.9985515752749625, 0.033443160274226905, 0.040606742123791735, 0.01128711835921407)",-0.24999999999999997,-0.259999990464,0.07999801635800008,0.002000000327800004,0.004999995231000004,0.02100000530469999
1522690922.86,21738,1522662122,848721027,,1239729,1522662120,326575555,,0.793867825318,-0.44938247025600003,0.12957661124199998,0.030747321728699997,0.9994532432179999,-0.010329538032399999,0.006412290668189999,0.00385326112808,-0.00953159939681,0.00619269705648,-0.00724194209837,-0.0104058287623,-0.0063531655275399996,-0.146273747087,-0.35673588514300003,6.71121454239,0.5187511444089999,-0.029798053204999998,0.328468382359,1240079,1522662120,324656757,,"['head_nod', 'head_pan', 'left_e0', 'left_e1', 'left_s0', 'left_s1', 'left_w0', 'left_w1', 'left_w2', 'right_e0', 'right_e1', 'right_s0', 'right_s1', 'right_w0', 'right_w1', 'right_w2', 'torso_t0']","(0.0, -0.10085923680346595, -0.9073496360342223, 1.5025341817337627, 0.27880100819817394, 0.6450389213058165, 2.3412381775101125, -0.48780589054756157, -0.03259709174256504, 0.46594666432019444, 0.9234564343070191, 0.3136990711225671, -0.7086991240030611, -0.37199034106221285, 1.4093448488697238, -0.03259709174256504, -12.565987119160338)","(0.0, 0.003141592653000486, -0.011388273367126762, 0.0070685834692510935, 0.009817477040626518, -0.0019634954081253035, -0.0070685834692510935, 0.006675884387626033, 0.0047123889795007284, 0.010995574285501701, -0.018849555918002914, -0.01060287520387664, 0.0027488935713754254, -0.014137166938502187, 0.0070685834692510935, -0.001570796326500243, 0.0)","(0.0, 0.0, -14.62, 10.884, 0.216, 5.036, 0.084, -2.676, 0.288, 7.208, -15.924, -0.184, -28.848, -0.016, 0.188, -0.156, -20.48)",1222597,1522662122,843054197,robotiq_force_torque_frame_id,0.581999874115,-1.7649997711200003,-0.0900016784668,-0.0040000001899899995,-0.23000000417199998,-0.08500000089410001,0.0,0.0,5.0,10.0,14.0,18.0,22.0,23.0,25.0,37.0,3,"(0.694092982562896, -0.14931115423188265, 0.0667849366470713, 0.9985515752749625, 0.033443160274226905, 0.040606742123791735, 0.01128711835921407)",1.05999994278,-1.2899997234360003,-0.5400009155278,0.026999999303410002,-0.016000002621999965,0.005999997258199996
1522690922.86,21739,1522662122,858705997,,1239731,1522662120,346580722,,0.794319548833,-0.448157265805,0.128872883312,0.0299548336623,0.9994800782050001,-0.010114072998999999,0.006323506785170001,0.00738089930387,0.008913864663579999,0.00103232929725,-0.00102649237431,-0.00892292212842,0.00781907554165,-0.2003518641,-0.30236995220199997,6.66294670105,0.500193953514,-0.013108048588,0.301798760891,490274,1522662120,348999936,,['l_gripper_l_finger_joint'],"(0.0032494800670444966,)","(0.0,)","(0.0,)",1222598,1522662122,855257072,robotiq_force_torque_frame_id,0.45199975967399997,-2.5950001716599997,-0.0799995422363,-0.007000000216069999,-0.239999994636,-0.0810000002384,0.0,5.0,5.0,5.0,14.0,18.0,22.0,23.0,25.0,37.0,3,"(0.694092982562896, -0.14931115423188265, 0.0667849366470713, 0.9985515752749625, 0.033443160274226905, 0.040606742123791735, 0.01128711835921407)",-0.13000011444100001,-0.8300004005399995,0.010002136230500003,-0.0030000000260799993,-0.00999999046400002,0.004000000655700012
1522690922.87,21740,1522662122,868710041,,1239732,1522662120,356570034,,0.794336809709,-0.44897214540200003,0.129283102575,0.0307038149336,0.999457484798,-0.0098014336846,0.00677818027793,0.00980802590525,0.007624700423020001,0.0081385374065,-0.00209523186877,-0.022468396194099998,0.0127929714379,-0.42811292409900004,-0.25758996605900003,6.70734882355,0.51232367754,-0.102898538113,0.324745297432,490274,1522662120,348999936,,['l_gripper_l_finger_joint'],"(0.0032494800670444966,)","(0.0,)","(0.0,)",1222599,1522662122,863388701,robotiq_force_torque_frame_id,-0.307999992371,-2.12499990463,-0.039998626709,-0.00600000005215,-0.24600000679499998,-0.0769999995828,-1.0,5.0,5.0,11.0,41.0,21.0,23.0,24.0,39.0,41.0,3,"(0.694092982562896, -0.14931115423188265, 0.0667849366470713, 0.9985515752749625, 0.033443160274226905, 0.040606742123791735, 0.01128711835921407)",-0.7599997520449999,0.47000026702999964,0.0400009155273,0.0010000001639199991,-0.006000012158999979,0.0040000006555999945
1522690922.88,21741,1522662122,878741979,,1239732,1522662120,356570034,,0.794336809709,-0.44897214540200003,0.129283102575,0.0307038149336,0.999457484798,-0.0098014336846,0.00677818027793,0.00980802590525,0.007624700423020001,0.0081385374065,-0.00209523186877,-0.022468396194099998,0.0127929714379,-0.42811292409900004,-0.25758996605900003,6.70734882355,0.51232367754,-0.102898538113,0.324745297432,490275,1522662120,352000000,,['r_gripper_l_finger_joint'],"(0.019983251598477365,)","(0.0,)","(0.0,)",1222600,1522662122,875601380,robotiq_force_torque_frame_id,-0.137999916077,-1.4450000762900002,-0.039998626709,-0.00499999988824,-0.250999987125,-0.082000002265,-2.0,0.0,5.0,11.0,41.0,21.0,24.0,32.0,32.0,35.0,3,"(0.694092982562896, -0.14931115423188265, 0.0667849366470713, 0.9985515752749625, 0.033443160274226905, 0.040606742123791735, 0.01128711835921407)",0.17000007629400002,0.67999982834,0.0,0.0010000001639099993,-0.0049999803300000145,-0.005000002682199994
1522690922.89,21742,1522662122,888689994,,1239734,1522662120,376575720,,0.794697635847,-0.447979275122,0.129759569638,0.029758375691,0.9994816884819999,-0.010051609853799999,0.00705397788207,-0.0107448608421,0.00427380819053,-0.0105616578071,0.0012883700222700001,0.029110326901500002,0.0101560545015,-0.359858781099,-0.0944431573153,6.74605703354,0.39671134948700004,-0.0628379583359,0.297580480576,1240083,1522662120,364672195,,"['head_nod', 'head_pan', 'left_e0', 'left_e1', 'left_s0', 'left_s1', 'left_w0', 'left_w1', 'left_w2', 'right_e0', 'right_e1', 'right_s0', 'right_s1', 'right_w0', 'right_w1', 'right_w2', 'torso_t0']","(0.0, -0.10085923680346595, -0.9073496360342223, 1.50176719133982, 0.2784175130012026, 0.6446554261088451, 2.3420051679040554, -0.48857288094150425, -0.0337475773334791, 0.46594666432019444, 0.9226894439130764, 0.3144660615165098, -0.7083156288060898, -0.37199034106221285, 1.4089613536727525, -0.03298058693953639, -12.565987119160338)","(0.0, -0.0035342917346255468, -0.012959069693627005, -0.0047123889795007284, -0.004319689897875668, -0.0023561944897503642, -0.02631083846887907, -0.0019634954081253035, -0.013744467856877126, -0.009032078877376396, 0.007853981632501214, -0.014922565101752308, 0.009424777959001457, -0.012173671530376884, -0.005497787142750851, -0.003926990816250607, 0.0)","(0.0, 0.0, -14.62, 10.884, 0.216, 5.1, 0.112, -2.676, 0.28, 7.176, -15.864, -0.06, -28.82, -0.032, 0.228, -0.12, -20.48)",1222601,1522662122,883744380,robotiq_force_torque_frame_id,-0.09799995422360001,-1.21500005722,-0.05999908447269999,-0.00999999977648,-0.24199999868900002,-0.082999996841,1.0,3.0,5.0,13.0,26.0,16.0,21.0,32.0,32.0,35.0,3,"(0.694092982562896, -0.14931115423188265, 0.0667849366470713, 0.9985515752749625, 0.033443160274226905, 0.040606742123791735, 0.01128711835921407)",0.039999961853399976,0.23000001907000023,-0.02000045776369999,-0.00499999988824,0.008999988435999973,-0.0009999945760000017
1522690922.9,21743,1522662122,898715972,,1239735,1522662120,386575874,,0.794313815252,-0.447951674127,0.129545394007,0.0302124140927,0.999473794021,-0.00981233236485,0.00656225820739,-0.0015165579824,0.00451899164731,0.00169383750322,0.007623036100239999,0.004318514530189999,-0.0040152970769,-0.3319465518,-0.11945475637900001,6.73389482498,0.40593731403399996,-0.0643615201116,0.306740641594,1240085,1522662120,384690974,,"['head_nod', 'head_pan', 'left_e0', 'left_e1', 'left_s0', 'left_s1', 'left_w0', 'left_w1', 'left_w2', 'right_e0', 'right_e1', 'right_s0', 'right_s1', 'right_w0', 'right_w1', 'right_w2', 'torso_t0']","(0.0, -0.1012427320004373, -0.9065826456402796, 1.5021506865367915, 0.2784175130012026, 0.6450389213058165, 2.341621672707084, -0.48742239535059023, -0.03298058693953639, 0.4667136547141371, 0.9230729391100477, 0.3148495567134812, -0.7083156288060898, -0.37160684586524145, 1.4093448488697238, -0.032213596545593685, -12.565987119160338)","(0.0, -0.0019634954081253035, 0.0007853981632501215, 0.005497787142750851, 0.0011780972448751821, 0.0, -0.01688606050987761, 0.009032078877376396, 0.004319689897875668, 0.0047123889795007284, -0.0011780972448751821, 0.0, -0.0011780972448751821, 0.004319689897875668, 0.008639379795751335, 0.005890486224375911, 0.0)","(0.0, 0.0, -14.72, 10.916, 0.28, 5.068, 0.068, -2.664, 0.288, 7.24, -15.864, -0.06, -28.88, -0.016, 0.22, -0.14, -20.48)",1222602,1522662122,895951040,robotiq_force_torque_frame_id,-0.398000144958,-1.525,-0.230001068115,-0.00300000002608,-0.238000005484,-0.0879999995232,0.0,3.0,13.0,13.0,26.0,17.0,18.0,21.0,26.0,36.0,3,"(0.694092982562896, -0.14931115423188265, 0.0667849366470713, 0.9985515752749625, 0.033443160274226905, 0.040606742123791735, 0.01128711835921407)",-0.3000001907344,-0.30999994278,-0.17000198364230001,0.006999999750400001,0.003999993205000024,-0.005000002682200008
1522690922.94,21744,1522662122,908721923,,1239735,1522662120,386575874,,0.794313815252,-0.447951674127,0.129545394007,0.0302124140927,0.999473794021,-0.00981233236485,0.00656225820739,-0.0015165579824,0.00451899164731,0.00169383750322,0.007623036100239999,0.004318514530189999,-0.0040152970769,-0.3319465518,-0.11945475637900001,6.73389482498,0.40593731403399996,-0.0643615201116,0.306740641594,490276,1522662120,399000064,,['l_gripper_l_finger_joint'],"(0.0032494800670444966,)","(0.0,)","(0.0,)",1222603,1522662122,904200721,robotiq_force_torque_frame_id,-0.498000049591,-1.42500009537,-0.37999877929700004,-0.00899999961257,-0.233999997377,-0.09600000083450001,3.0,3.0,11.0,15.0,17.0,18.0,21.0,23.0,26.0,36.0,3,"(0.694092982562896, -0.14931115423188265, 0.0667849366470713, 0.9985515752749625, 0.033443160274226905, 0.040606742123791735, 0.01128711835921407)",-0.09999990463300001,0.09999990462999997,-0.14999771118200003,-0.00599999958649,0.0040000081069999915,-0.008000001311300006
1522690922.94,21745,1522662122,918693065,,1239737,1522662120,406597432,,0.7939851518209999,-0.44922111880000004,0.129325494155,0.0307144873155,0.9994529678399999,-0.0104474120559,0.006421598478500001,-0.0011583550882799999,0.015263741087200002,-0.0016446826504900001,0.00791513830695,0.0103372212958,0.017381399252500002,-0.044237472116900003,-0.28497132659,6.70439052582,0.433293253183,0.0533312484622,0.29388949275,490277,1522662120,403000064,,['r_gripper_l_finger_joint'],"(0.019983251598477365,)","(0.0,)","(0.0,)",1222604,1522662122,912342186,robotiq_force_torque_frame_id,-0.568000221252,-1.3149999618500001,-0.36000213623000005,-0.014999999664700002,-0.238000005484,-0.09600000083450001,3.0,3.0,15.0,15.0,17.0,21.0,21.0,23.0,29.0,44.0,3,"(0.694092982562896, -0.14931115423188265, 0.0667849366470713, 0.9985515752749625, 0.033443160274226905, 0.040606742123791735, 0.01128711835921407)",-0.07000017166099998,0.11000013351999982,0.019996643066999997,-0.006000000052130002,-0.0040000081069999915,0.0
1522690922.94,21746,1522662122,928709983,,1239738,1522662120,416572676,,0.7940135961120001,-0.44882310793799995,0.129576671327,0.030364028849900002,0.999464955039,-0.0103277578545,0.00641613743197,-0.0032546885226199997,-0.014657916567799998,-0.0035080144396399996,-0.0128870954871,-0.00472842117025,-0.011891077237299999,-0.175510421395,-0.42273142933799995,6.7674279213,0.561888277531,-0.012261822819700001,0.326034188271,1240088,1522662120,414684494,,"['head_nod', 'head_pan', 'left_e0', 'left_e1', 'left_s0', 'left_s1', 'left_w0', 'left_w1', 'left_w2', 'right_e0', 'right_e1', 'right_s0', 'right_s1', 'right_w0', 'right_w1', 'right_w2', 'torso_t0']","(0.0, -0.1012427320004373, -0.9069661408372509, 1.50176719133982, 0.2791845033951453, 0.6450389213058165, 2.3408546823131413, -0.4881893857445329, -0.03298058693953639, 0.46594666432019444, 0.9234564343070191, 0.3144660615165098, -0.7086991240030611, -0.37199034106221285, 1.4093448488697238, -0.03259709174256504, -12.565987119160338)","(0.0, -0.003926990816250607, 0.0023561944897503642, -0.007461282550876154, -0.00039269908162506076, 0.0007853981632501215, -0.001570796326500243, -0.004319689897875668, 0.011780972448751823, 0.014137166938502187, 0.021598449489378342, -0.023954643979128706, -0.003141592653000486, -0.022776546734253524, -0.019242254999627974, 0.008246680714126275, 0.0)","(0.0, 0.0, -14.752, 10.884, 0.28, 5.068, 0.096, -2.636, 0.288, 7.208, -15.924, -0.248, -28.848, -0.016, 0.22, -0.148, -20.48)",1222605,1522662122,924536656,robotiq_force_torque_frame_id,-0.8980001449580001,-1.05500020981,-0.230001068115,-0.00999999977648,-0.245000004768,-0.097999997437,4.0,5.0,13.0,15.0,23.0,21.0,26.0,29.0,29.0,39.0,3,"(0.694092982562896, -0.14931115423188265, 0.0667849366470713, 0.9985515752749625, 0.033443160274226905, 0.040606742123791735, 0.01128711835921407)",-0.32999992370600006,0.25999975204000014,0.13000106811500003,0.004999999888220001,-0.006999999283999997,-0.0019999966024999843
1522690922.98,21747,1522662122,938745021,,1239738,1522662120,416572676,,0.7940135961120001,-0.44882310793799995,0.129576671327,0.030364028849900002,0.999464955039,-0.0103277578545,0.00641613743197,-0.0032546885226199997,-0.014657916567799998,-0.0035080144396399996,-0.0128870954871,-0.00472842117025,-0.011891077237299999,-0.175510421395,-0.42273142933799995,6.7674279213,0.561888277531,-0.012261822819700001,0.326034188271,1240088,1522662120,414684494,,"['head_nod', 'head_pan', 'left_e0', 'left_e1', 'left_s0', 'left_s1', 'left_w0', 'left_w1', 'left_w2', 'right_e0', 'right_e1', 'right_s0', 'right_s1', 'right_w0', 'right_w1', 'right_w2', 'torso_t0']","(0.0, -0.1012427320004373, -0.9069661408372509, 1.50176719133982, 0.2791845033951453, 0.6450389213058165, 2.3408546823131413, -0.4881893857445329, -0.03298058693953639, 0.46594666432019444, 0.9234564343070191, 0.3144660615165098, -0.7086991240030611, -0.37199034106221285, 1.4093448488697238, -0.03259709174256504, -12.565987119160338)","(0.0, -0.003926990816250607, 0.0023561944897503642, -0.007461282550876154, -0.00039269908162506076, 0.0007853981632501215, -0.001570796326500243, -0.004319689897875668, 0.011780972448751823, 0.014137166938502187, 0.021598449489378342, -0.023954643979128706, -0.003141592653000486, -0.022776546734253524, -0.019242254999627974, 0.008246680714126275, 0.0)","(0.0, 0.0, -14.752, 10.884, 0.28, 5.068, 0.096, -2.636, 0.288, 7.208, -15.924, -0.248, -28.848, -0.016, 0.22, -0.148, -20.48)",1222606,1522662122,932675048,robotiq_force_torque_frame_id,-0.9180001258849999,-0.96500005722,-0.289998626709,-0.0109999999404,-0.24699999391999997,-0.103000000119,12.0,15.0,15.0,19.0,21.0,17.0,28.0,29.0,30.0,39.0,3,"(0.694092982562896, -0.14931115423188265, 0.0667849366470713, 0.9985515752749625, 0.033443160274226905, 0.040606742123791735, 0.01128711835921407)",-0.01999998092699984,0.09000015258999994,-0.059997558593999994,-0.00100000016392,-0.0019999891519999757,-0.0050000026820000015
1522690922.98,21748,1522662122,948832035,,1239740,1522662120,436573087,,0.7937479684350001,-0.44955265499700003,0.12947801524,0.031053365641799998,0.999445588081,-0.010216338472899999,0.00631121036078,-0.000686367349024,0.0179218471489,-0.006683946471739999,0.0245970850727,0.010669339879700002,0.0211517602383,0.379182815552,-0.43751305341700003,6.76398420334,0.534536600113,0.184690847993,0.290116488934,1240090,1522662120,434655258,,"['head_nod', 'head_pan', 'left_e0', 'left_e1', 'left_s0', 'left_s1', 'left_w0', 'left_w1', 'left_w2', 'right_e0', 'right_e1', 'right_s0', 'right_s1', 'right_w0', 'right_w1', 'right_w2', 'torso_t0']","(0.0, -0.10085923680346595, -0.9069661408372509, 1.5013836961428486, 0.2791845033951453, 0.6450389213058165, 2.3420051679040554, -0.48742239535059023, -0.033364082136507746, 0.4651796739262517, 0.9234564343070191, 0.3136990711225671, -0.7086991240030611, -0.3712233506682701, 1.4093448488697238, -0.03259709174256504, -12.565987119160338)","(0.0, -0.001570796326500243, 0.010995574285501701, 0.0011780972448751821, -0.006283185306000972, 0.0019634954081253035, -0.003926990816250607, 0.009817477040626518, 0.0011780972448751821, 0.011780972448751823, -0.00039269908162506076, 0.006675884387626033, 0.012173671530376884, 0.010995574285501701, 0.00510508806112579, -0.008639379795751335, 0.0)","(0.0, 0.0, -14.684, 10.916, 0.184, 5.1, 0.084, -2.664, 0.288, 7.176, -15.984, -0.184, -28.82, -0.032, 0.2, -0.12, -20.48)",1222607,1522662122,944900423,robotiq_force_torque_frame_id,-1.01800003052,-1.0649999618500001,0.0300010681152,-0.035999998450300004,-0.228000000119,-0.10000000149,12.0,15.0,15.0,19.0,21.0,17.0,28.0,31.0,31.0,43.0,3,"(0.694092982562896, -0.14931115423188265, 0.0667849366470713, 0.9985515752749625, 0.033443160274226905, 0.040606742123791735, 0.01128711835921407)",-0.09999990463500019,-0.09999990463000008,0.3199996948242,-0.024999998509900003,0.018999993800999954,0.0029999986289999947
1522690922.98,21749,1522662122,958688974,,1239741,1522662120,446568026,,0.793741739668,-0.449153270708,0.129225528359,0.0310257742619,0.999452892463,-0.00954055834617,0.00634782043606,-0.0162503973886,0.00498175592514,-0.0189415849727,0.00705622248655,0.045586803508,-0.00663256683751,0.37323781848000004,-0.544514000416,6.86604356766,0.612977147102,0.181888818741,0.32578894496,1240091,1522662120,444665572,,"['head_nod', 'head_pan', 'left_e0', 'left_e1', 'left_s0', 'left_s1', 'left_w0', 'left_w1', 'left_w2', 'right_e0', 'right_e1', 'right_s0', 'right_s1', 'right_w0', 'right_w1', 'right_w2', 'torso_t0']","(0.0, -0.10085923680346595, -0.9069661408372509, 1.5021506865367915, 0.27880100819817394, 0.6446554261088451, 2.3408546823131413, -0.48780589054756157, -0.03298058693953639, 0.4663301595171658, 0.9238399295039904, 0.3129320807286244, -0.7083156288060898, -0.3708398554712988, 1.4089613536727525, -0.03259709174256504, -12.565987119160338)","(0.0, 0.003141592653000486, -0.00510508806112579, 0.0007853981632501215, 0.0007853981632501215, 0.008246680714126275, 0.01649336142825255, 0.01060287520387664, 0.0027488935713754254, -0.012173671530376884, 0.018849555918002914, 0.006675884387626033, 0.01610066234662749, 0.004319689897875668, 0.01021017612225158, 0.010995574285501701, 0.0)","(0.0, 0.0, -14.556, 10.916, 0.184, 5.036, 0.096, -2.648, 0.28, 7.268, -16.012, -0.248, -28.848, -0.032, 0.208, -0.14, -20.48)",1222608,1522662122,953040382,robotiq_force_torque_frame_id,-1.16800012589,-1.12499990463,0.219999694824,-0.0500000007451,-0.222000002861,-0.0909999981523,4.0,12.0,13.0,18.0,19.0,25.0,28.0,31.0,31.0,43.0,3,"(0.694092982562896, -0.14931115423188265, 0.0667849366470713, 0.9985515752749625, 0.033443160274226905, 0.040606742123791735, 0.01128711835921407)",-0.1500000953699998,-0.05999994277999998,0.1899986267088,-0.014000002294799994,0.005999997258000017,0.0090000033377
1522690922.98,21750,1522662122,968723058,,1239741,1522662120,446568026,,0.793741739668,-0.449153270708,0.129225528359,0.0310257742619,0.999452892463,-0.00954055834617,0.00634782043606,-0.0162503973886,0.00498175592514,-0.0189415849727,0.00705622248655,0.045586803508,-0.00663256683751,0.37323781848000004,-0.544514000416,6.86604356766,0.612977147102,0.181888818741,0.32578894496,1240091,1522662120,444665572,,"['head_nod', 'head_pan', 'left_e0', 'left_e1', 'left_s0', 'left_s1', 'left_w0', 'left_w1', 'left_w2', 'right_e0', 'right_e1', 'right_s0', 'right_s1', 'right_w0', 'right_w1', 'right_w2', 'torso_t0']","(0.0, -0.10085923680346595, -0.9069661408372509, 1.5021506865367915, 0.27880100819817394, 0.6446554261088451, 2.3408546823131413, -0.48780589054756157, -0.03298058693953639, 0.4663301595171658, 0.9238399295039904, 0.3129320807286244, -0.7083156288060898, -0.3708398554712988, 1.4089613536727525, -0.03259709174256504, -12.565987119160338)","(0.0, 0.003141592653000486, -0.00510508806112579, 0.0007853981632501215, 0.0007853981632501215, 0.008246680714126275, 0.01649336142825255, 0.01060287520387664, 0.0027488935713754254, -0.012173671530376884, 0.018849555918002914, 0.006675884387626033, 0.01610066234662749, 0.004319689897875668, 0.01021017612225158, 0.010995574285501701, 0.0)","(0.0, 0.0, -14.556, 10.916, 0.184, 5.036, 0.096, -2.648, 0.28, 7.268, -16.012, -0.248, -28.848, -0.032, 0.208, -0.14, -20.48)",1222609,1522662122,965449614,robotiq_force_torque_frame_id,-1.17800011635,-1.2550000190700001,0.08000030517580001,-0.05099999904630001,-0.216000005603,-0.09399999678130001,3.0,12.0,13.0,18.0,19.0,23.0,27.0,28.0,36.0,58.0,3,"(0.694092982562896, -0.14931115423188265, 0.0667849366470713, 0.9985515752749625, 0.033443160274226905, 0.040606742123791735, 0.01128711835921407)",-0.009999990460000108,-0.13000011444000004,-0.1399993896482,-0.0009999983012000113,0.005999997257999989,-0.0029999986290000086
1522690923.02,21751,1522662122,978694915,,1239743,1522662120,466569860,,0.793532860109,-0.448852142068,0.128918176948,0.030351354070900005,0.999469915928,-0.0101934787512,0.00589707141342,0.013159165908999999,0.0143202493976,0.011358005347799998,0.010146071252299998,-0.029039737787500002,0.015485512866,0.57278585434,-0.465903222561,6.8885178566,0.565542042255,0.23208224773400002,0.315759241581,1240093,1522662120,464626682,,"['head_nod', 'head_pan', 'left_e0', 'left_e1', 'left_s0', 'left_s1', 'left_w0', 'left_w1', 'left_w2', 'right_e0', 'right_e1', 'right_s0', 'right_s1', 'right_w0', 'right_w1', 'right_w2', 'torso_t0']","(0.0, -0.10009224640952324, -0.9069661408372509, 1.5021506865367915, 0.27880100819817394, 0.6446554261088451, 2.3423886631010267, -0.48742239535059023, -0.0337475773334791, 0.46594666432019444, 0.9246069198979331, 0.31408256631953846, -0.7083156288060898, -0.37199034106221285, 1.4089613536727525, -0.03259709174256504, -12.565987119160338)","(0.0, -0.012566370612001944, -0.003141592653000486, -0.003141592653000486, -0.009817477040626518, -0.005890486224375911, -0.012173671530376884, 0.00510508806112579, -0.001570796326500243, 0.009424777959001457, -0.009817477040626518, 0.01060287520387664, -0.01021017612225158, 0.01060287520387664, -0.006675884387626033, -0.0035342917346255468, 0.0)","(0.0, 0.0, -14.588, 10.884, 0.28, 5.036, 0.096, -2.664, 0.288, 7.268, -16.044, -0.152, -28.88, -0.032, 0.18, -0.14, -20.48)",1222610,1522662122,973594872,robotiq_force_torque_frame_id,-1.01800003052,-1.025,-0.0700012207031,-0.054999999702,-0.211999997497,-0.097999997437,3.0,7.0,12.0,15.0,18.0,21.0,26.0,27.0,36.0,50.0,3,"(0.694092982562896, -0.14931115423188265, 0.0667849366470713, 0.9985515752749625, 0.033443160274226905, 0.040606742123791735, 0.01128711835921407)",0.16000008582999992,0.23000001907000023,-0.1500015258789,-0.004000000655699991,0.004000008106000014,-0.004000000655699984
1522690923.02,21752,1522662122,988698959,,1239744,1522662120,476567764,,0.79394065978,-0.44871786930299995,0.129410463428,0.030337020896600002,0.999471397519,-0.00979556380763,0.00637476539425,0.00597330888915,0.0139001717087,0.0015252794667599998,-0.00449888981692,-0.00544312747765,0.0348104147156,0.55291312933,-0.569216012955,6.88515853882,0.5962421298030001,0.243665620685,0.309744358063,1240094,1522662120,474641813,,"['head_nod', 'head_pan', 'left_e0', 'left_e1', 'left_s0', 'left_s1', 'left_w0', 'left_w1', 'left_w2', 'right_e0', 'right_e1', 'right_s0', 'right_s1', 'right_w0', 'right_w1', 'right_w2', 'torso_t0']","(0.0, -0.10085923680346595, -0.9069661408372509, 1.5021506865367915, 0.27880100819817394, 0.6454224165027879, 2.3423886631010267, -0.48742239535059023, -0.03259709174256504, 0.4667136547141371, 0.9234564343070191, 0.3136990711225671, -0.7083156288060898, -0.37160684586524145, 1.4093448488697238, -0.03298058693953639, -12.565987119160338)","(0.0, -0.007461282550876154, -0.008639379795751335, -0.0023561944897503642, 0.008639379795751335, 0.0035342917346255468, -0.02081305132612822, 0.01060287520387664, 0.0, 0.01060287520387664, -0.00039269908162506076, 0.01649336142825255, 0.0, -0.011388273367126762, -0.0027488935713754254, -0.009817477040626518, 0.0)","(0.0, 0.0, -14.588, 10.916, 0.216, 5.1, 0.076, -2.648, 0.28, 7.176, -16.044, -0.216, -28.88, 0.0, 0.188, -0.148, -20.48)",1222611,1522662122,985841289,robotiq_force_torque_frame_id,-1.09799995422,-0.854999923706,0.359999084473,-0.039000000804699994,-0.221000000834,-0.109999999404,3.0,3.0,3.0,5.0,16.0,21.0,21.0,22.0,33.0,50.0,3,"(0.694092982562896, -0.14931115423188265, 0.0667849366470713, 0.9985515752749625, 0.033443160274226905, 0.040606742123791735, 0.01128711835921407)",-0.07999992369999998,0.17000007629399994,0.4300003051761,0.015999998897300007,-0.009000003337000018,-0.012000001967000004
1522690923.02,21753,1522662122,998724937,,1239744,1522662120,476567764,,0.79394065978,-0.44871786930299995,0.129410463428,0.030337020896600002,0.999471397519,-0.00979556380763,0.00637476539425,0.00597330888915,0.0139001717087,0.0015252794667599998,-0.00449888981692,-0.00544312747765,0.0348104147156,0.55291312933,-0.569216012955,6.88515853882,0.5962421298030001,0.243665620685,0.309744358063,1240094,1522662120,474641813,,"['head_nod', 'head_pan', 'left_e0', 'left_e1', 'left_s0', 'left_s1', 'left_w0', 'left_w1', 'left_w2', 'right_e0', 'right_e1', 'right_s0', 'right_s1', 'right_w0', 'right_w1', 'right_w2', 'torso_t0']","(0.0, -0.10085923680346595, -0.9069661408372509, 1.5021506865367915, 0.27880100819817394, 0.6454224165027879, 2.3423886631010267, -0.48742239535059023, -0.03259709174256504, 0.4667136547141371, 0.9234564343070191, 0.3136990711225671, -0.7083156288060898, -0.37160684586524145, 1.4093448488697238, -0.03298058693953639, -12.565987119160338)","(0.0, -0.007461282550876154, -0.008639379795751335, -0.0023561944897503642, 0.008639379795751335, 0.0035342917346255468, -0.02081305132612822, 0.01060287520387664, 0.0, 0.01060287520387664, -0.00039269908162506076, 0.01649336142825255, 0.0, -0.011388273367126762, -0.0027488935713754254, -0.009817477040626518, 0.0)","(0.0, 0.0, -14.588, 10.916, 0.216, 5.1, 0.076, -2.648, 0.28, 7.176, -16.044, -0.216, -28.88, 0.0, 0.188, -0.148, -20.48)",1222612,1522662122,993986019,robotiq_force_torque_frame_id,-1.10799994469,-0.7050000667569999,0.710001373291,-0.0370000004768,-0.216999992728,-0.11100000143100001,3.0,3.0,3.0,5.0,16.0,18.0,20.0,21.0,22.0,40.0,3,"(0.694092982562896, -0.14931115423188265, 0.0667849366470713, 0.9985515752749625, 0.033443160274226905, 0.040606742123791735, 0.01128711835921407)",-0.009999990469999886,0.1499998569490001,0.350002288818,0.0020000003278999937,0.004000008106000014,-0.0010000020270000132
1522690923.02,21754,1522662123,8721113,,1239746,1522662120,496572445,,0.794172570711,-0.44831114572999997,0.129059841754,0.030254948519200003,0.999474837314,-0.009623759264059999,0.0064862102948000004,-0.00953224661835,-0.00234461435594,-0.012439154596500001,0.00376760071407,0.025723204499,-0.00747069431038,0.628000378609,-0.422331303358,6.80394172668,0.513624966145,0.275533854961,0.27976968884500003,490280,1522662120,500000000,,['l_gripper_l_finger_joint'],"(0.0032494800670444966,)","(0.0,)","(0.0,)",1222613,1522662123,6227409,robotiq_force_torque_frame_id,-0.978000068665,-0.844999933243,0.729998016357,-0.0370000004768,-0.219999998808,-0.10800000280099999,-1.0,2.0,3.0,7.0,9.0,18.0,18.0,19.0,22.0,40.0,3,"(0.694092982562896, -0.14931115423188265, 0.0667849366470713, 0.9985515752749625, 0.033443160274226905, 0.040606742123791735, 0.01128711835921407)",0.12999987602499996,-0.13999986648600016,0.01999664306600002,0.0,-0.003000006080000006,0.002999998630000028
1522690923.02,21755,1522662123,18713951,,1239747,1522662120,506580319,,0.79354654759,-0.44902421838100004,0.128880250987,0.030447456214400002,0.999468413073,-0.0100888565035,0.00583597921015,-0.000937440567094,-0.011923815079700001,-0.0041549864455700004,0.0058948185707600005,-0.00886384806253,-0.0188636815979,0.62527179718,-0.42756479978600004,6.934895038600001,0.5469934344290001,0.27465748786899996,0.295685172081,1240097,1522662120,504659677,,"['head_nod', 'head_pan', 'left_e0', 'left_e1', 'left_s0', 'left_s1', 'left_w0', 'left_w1', 'left_w2', 'right_e0', 'right_e1', 'right_s0', 'right_s1', 'right_w0', 'right_w1', 'right_w2', 'torso_t0']","(0.0, -0.10162622719740866, -0.9069661408372509, 1.5013836961428486, 0.27880100819817394, 0.6450389213058165, 2.3420051679040554, -0.48780589054756157, -0.033364082136507746, 0.4655631691232231, 0.9238399295039904, 0.31408256631953846, -0.7079321336091184, -0.37160684586524145, 1.4093448488697238, -0.03298058693953639, -12.565987119160338)","(0.0, 0.010995574285501701, -0.007853981632501214, -0.012173671530376884, -0.013351768775252066, -0.019634954081253035, 0.008639379795751335, 0.009424777959001457, -0.012173671530376884, -0.009032078877376396, 0.01021017612225158, -0.01727875959150267, -0.0007853981632501215, 0.012959069693627005, -0.019634954081253035, -0.0023561944897503642, 0.0)","(0.0, 0.0, -14.556, 10.948, 0.248, 5.036, 0.084, -2.664, 0.268, 7.24, -16.044, -0.124, -28.908, -0.016, 0.2, -0.128, -20.48)",1222614,1522662123,14364697,robotiq_force_torque_frame_id,-1.10799994469,-1.275,0.769998931885,-0.0410000011325,-0.23000000417199998,-0.103000000119,1.0,2.0,3.0,7.0,9.0,18.0,19.0,30.0,40.0,41.0,3,"(0.694092982562896, -0.14931115423188265, 0.0667849366470713, 0.9985515752749625, 0.033443160274226905, 0.040606742123791735, 0.01128711835921407)",-0.12999987602499996,-0.43000006675699987,0.040000915528,-0.004000000655699998,-0.010000005363999975,0.005000002681999988
1522690923.03,21756,1522662123,28702974,,1239747,1522662120,506580319,,0.79354654759,-0.44902421838100004,0.128880250987,0.030447456214400002,0.999468413073,-0.0100888565035,0.00583597921015,-0.000937440567094,-0.011923815079700001,-0.0041549864455700004,0.0058948185707600005,-0.00886384806253,-0.0188636815979,0.62527179718,-0.42756479978600004,6.934895038600001,0.5469934344290001,0.27465748786899996,0.295685172081,490281,1522662120,504000000,,['r_gripper_l_finger_joint'],"(0.019983251598477365,)","(0.0,)","(0.0,)",1222615,1522662123,22495307,robotiq_force_torque_frame_id,-1.3579999446899997,-1.07500019073,0.799997711182,-0.05099999904630001,-0.221000000834,-0.10000000149,1.0,1.0,11.0,11.0,12.0,23.0,25.0,30.0,40.0,41.0,3,"(0.694092982562896, -0.14931115423188265, 0.0667849366470713, 0.9985515752749625, 0.033443160274226905, 0.040606742123791735, 0.01128711835921407)",-0.24999999999999978,0.19999980926999994,0.02999877929700001,-0.009999997913800011,0.009000003337999968,0.0029999986289999947
1522690923.04,21757,1522662123,38712978,,1239748,1522662120,516567883,,0.7939166288089999,-0.448718654185,0.129187701612,0.0304854128473,0.9994632151170001,-0.010235496622500001,0.00625746272141,-0.0053166903002200006,-0.00202850356216,-0.0108962450615,0.0114137331092,0.0161402383918,-0.0115105991025,0.7009357810019999,-0.47827568650200003,6.91814231873,0.553980469704,0.320822536945,0.278961956501,1240098,1522662120,514671746,,"['head_nod', 'head_pan', 'left_e0', 'left_e1', 'left_s0', 'left_s1', 'left_w0', 'left_w1', 'left_w2', 'right_e0', 'right_e1', 'right_s0', 'right_s1', 'right_w0', 'right_w1', 'right_w2', 'torso_t0']","(0.0, -0.1012427320004373, -0.9061991504433081, 1.50176719133982, 0.2791845033951453, 0.6446554261088451, 2.3420051679040554, -0.48780589054756157, -0.033364082136507746, 0.46594666432019444, 0.9238399295039904, 0.3144660615165098, -0.7083156288060898, -0.37199034106221285, 1.4089613536727525, -0.032213596545593685, -12.565987119160338)","(0.0, -0.001570796326500243, 0.011780972448751823, -0.018064157754752792, 0.003141592653000486, 0.01531526418337737, 0.001570796326500243, -0.007853981632501214, 0.0070685834692510935, 0.0007853981632501215, -0.003926990816250607, -0.0070685834692510935, 0.018456856836377853, 0.0027488935713754254, 0.003926990816250607, 0.003141592653000486, 0.0)","(0.0, 0.0, -14.588, 10.916, 0.216, 5.036, 0.112, -2.664, 0.296, 7.176, -16.044, -0.152, -28.88, -0.008, 0.208, -0.12, -20.48)",1222616,1522662123,34698691,robotiq_force_torque_frame_id,-1.17800011635,-0.574999952316,0.870001220703,-0.046999998390699994,-0.215000003576,-0.10800000280099999,1.0,4.0,6.0,9.0,12.0,22.0,23.0,27.0,40.0,48.0,3,"(0.694092982562896, -0.14931115423188265, 0.0667849366470713, 0.9985515752749625, 0.033443160274226905, 0.040606742123791735, 0.01128711835921407)",0.17999982833999972,0.500000238414,0.07000350952099998,0.004000000655600015,0.005999997258000017,-0.008000001310999982
1522690923.05,21758,1522662123,48696041,,1239750,1522662120,536565954,,0.794411177323,-0.44831640756700003,0.129621645291,0.0304875511313,0.999462976181,-0.00983993286861,0.00688797433494,-0.00550121363758,-0.012611532748200002,0.008736372936629998,-0.026016511310200004,0.00324698992392,-0.0058702854261300005,0.46314159035700003,-0.448778808117,6.9381370544399985,0.512983262539,0.260393559933,0.295435726643,1240098,1522662120,514671746,,"['head_nod', 'head_pan', 'left_e0', 'left_e1', 'left_s0', 'left_s1', 'left_w0', 'left_w1', 'left_w2', 'right_e0', 'right_e1', 'right_s0', 'right_s1', 'right_w0', 'right_w1', 'right_w2', 'torso_t0']","(0.0, -0.1012427320004373, -0.9061991504433081, 1.50176719133982, 0.2791845033951453, 0.6446554261088451, 2.3420051679040554, -0.48780589054756157, -0.033364082136507746, 0.46594666432019444, 0.9238399295039904, 0.3144660615165098, -0.7083156288060898, -0.37199034106221285, 1.4089613536727525, -0.032213596545593685, -12.565987119160338)","(0.0, -0.001570796326500243, 0.011780972448751823, -0.018064157754752792, 0.003141592653000486, 0.01531526418337737, 0.001570796326500243, -0.007853981632501214, 0.0070685834692510935, 0.0007853981632501215, -0.003926990816250607, -0.0070685834692510935, 0.018456856836377853, 0.0027488935713754254, 0.003926990816250607, 0.003141592653000486, 0.0)","(0.0, 0.0, -14.588, 10.916, 0.216, 5.036, 0.112, -2.664, 0.296, 7.176, -16.044, -0.152, -28.88, -0.008, 0.208, -0.12, -20.48)",1222617,1522662123,42838102,robotiq_force_torque_frame_id,-1.05799999237,-0.55499997139,0.909998321533,-0.0489999987185,-0.211999997497,-0.104999996722,4.0,6.0,7.0,9.0,16.0,24.0,25.0,27.0,29.0,42.0,3,"(0.694092982562896, -0.14931115423188265, 0.0667849366470713, 0.9985515752749625, 0.033443160274226905, 0.040606742123791735, 0.01128711835921407)",0.12000012397999993,0.01999998092599997,0.039997100829999965,-0.002000000327800004,0.0030000060790000005,0.0030000060789999866
