time,.header.seq,.header.stamp.secs,.header.stamp.nsecs,.header.frame_id,.endpoint_state.header.seq,.endpoint_state.header.stamp.secs,.endpoint_state.header.stamp.nsecs,.endpoint_state.header.frame_id,.endpoint_state.pose.position.x,.endpoint_state.pose.position.y,.endpoint_state.pose.position.z,.endpoint_state.pose.orientation.x,.endpoint_state.pose.orientation.y,.endpoint_state.pose.orientation.z,.endpoint_state.pose.orientation.w,.endpoint_state.twist.linear.x,.endpoint_state.twist.linear.y,.endpoint_state.twist.linear.z,.endpoint_state.twist.angular.x,.endpoint_state.twist.angular.y,.endpoint_state.twist.angular.z,.endpoint_state.wrench.force.x,.endpoint_state.wrench.force.y,.endpoint_state.wrench.force.z,.endpoint_state.wrench.torque.x,.endpoint_state.wrench.torque.y,.endpoint_state.wrench.torque.z,.joint_state.header.seq,.joint_state.header.stamp.secs,.joint_state.header.stamp.nsecs,.joint_state.header.frame_id,.joint_state.name,.joint_state.position,.joint_state.velocity,.joint_state.effort,.wrench_stamped.header.seq,.wrench_stamped.header.stamp.secs,.wrench_stamped.header.stamp.nsecs,.wrench_stamped.header.frame_id,.wrench_stamped.wrench.force.x,.wrench_stamped.wrench.force.y,.wrench_stamped.wrench.force.z,.wrench_stamped.wrench.torque.x,.wrench_stamped.wrench.torque.y,.wrench_stamped.wrench.torque.z,.tactile_values.tactile_values_0,.tactile_values.tactile_values_1,.tactile_values.tactile_values_2,.tactile_values.tactile_values_3,.tactile_values.tactile_values_4,.tactile_values.tactile_values_5,.tactile_values.tactile_values_6,.tactile_values.tactile_values_7,.tactile_values.tactile_values_8,.tactile_values.tactile_values_9,.tag,.goal_vector,.delta_wrench.force.x,.delta_wrench.force.y,.delta_wrench.force.z,.delta_wrench.torque.x,.delta_wrench.torque.y,.delta_wrench.torque.z
1522692235.45,22862,1522663435,445589065,,1370986,1522663432,897422810,,0.7936581818,-0.448669256268,0.128367468484,0.030250751202400002,0.999477816119,-0.009593948721149999,0.00607809890547,0.00688176014191,-0.00798511807457,0.00873783949934,-0.01428030054,-0.0234038147249,0.000395653744298,-0.140243560076,-0.10798993706700001,6.85135507584,0.32710275054,0.04071685299280001,0.260043442249,1371336,1522663432,895496778,,"['head_nod', 'head_pan', 'left_e0', 'left_e1', 'left_s0', 'left_s1', 'left_w0', 'left_w1', 'left_w2', 'right_e0', 'right_e1', 'right_s0', 'right_s1', 'right_w0', 'right_w1', 'right_w2', 'torso_t0']","(0.0, -0.10162622719740866, -0.9065826456402796, 1.5021506865367915, 0.27880100819817394, 0.6454224165027879, 2.3420051679040554, -0.4881893857445329, -0.03259709174256504, 0.4667136547141371, 0.9249904150949045, 0.3133155759255958, -0.7075486384121471, -0.37160684586524145, 1.4078108680818384, -0.03298058693953639, -12.565987119160338)","(0.0, 0.01021017612225158, 0.01649336142825255, 0.0035342917346255468, 0.0070685834692510935, -0.012959069693627005, -0.009424777959001457, 0.007461282550876154, 0.007461282550876154, -0.015707963265002428, 0.00039269908162506076, 0.0027488935713754254, -0.01610066234662749, 0.00510508806112579, -0.014529866020127248, -0.008246680714126275, 0.0)","(0.0, 0.0, -14.556, 10.884, 0.308, 5.068, 0.06, -2.656, 0.336, 7.112, -15.892, -0.028, -28.968, -0.024, 0.24, -0.12, -20.48)",1353715,1522663435,433512433,robotiq_force_torque_frame_id,-0.375999939442,-0.516999864578,-0.471001815796,-0.0370000004768,-0.180999994278,-0.151999995112,-1.0,3.0,4.0,21.0,36.0,13.0,15.0,18.0,19.0,32.0,3,"(0.318305573199064, -0.815553406738067, 0.13814275757049982, 0.9999377972961766, -0.004352227397898343, -0.00938816830392429, 0.00416196480574432)",0.0,0.0,0.0,0.0,0.0,0.0
1522692235.46,22863,1522663435,455609083,,1370986,1522663432,897422810,,0.7936581818,-0.448669256268,0.128367468484,0.030250751202400002,0.999477816119,-0.009593948721149999,0.00607809890547,0.00688176014191,-0.00798511807457,0.00873783949934,-0.01428030054,-0.0234038147249,0.000395653744298,-0.140243560076,-0.10798993706700001,6.85135507584,0.32710275054,0.04071685299280001,0.260043442249,542200,1522663432,911000064,,['r_gripper_l_finger_joint'],"(0.019983251598477365,)","(0.0,)","(0.0,)",1353717,1522663435,453999734,robotiq_force_torque_frame_id,1.0940000891700001,-0.146999979019,-0.411000442505,-0.0410000011325,-0.194000005722,-0.142000004649,0.0,3.0,4.0,21.0,36.0,13.0,13.0,22.0,24.0,32.0,3,"(0.318305573199064, -0.815553406738067, 0.13814275757049982, 0.9999377972961766, -0.004352227397898343, -0.00938816830392429, 0.00416196480574432)",1.470000028612,0.369999885559,0.06000137329099997,-0.004000000655699998,-0.013000011443999981,0.009999990462999986
1522692235.47,22864,1522663435,465588092,,1370986,1522663432,897422810,,0.7936581818,-0.448669256268,0.128367468484,0.030250751202400002,0.999477816119,-0.009593948721149999,0.00607809890547,0.00688176014191,-0.00798511807457,0.00873783949934,-0.01428030054,-0.0234038147249,0.000395653744298,-0.140243560076,-0.10798993706700001,6.85135507584,0.32710275054,0.04071685299280001,0.260043442249,542200,1522663432,911000064,,['r_gripper_l_finger_joint'],"(0.019983251598477365,)","(0.0,)","(0.0,)",1353717,1522663435,453999734,robotiq_force_torque_frame_id,1.0940000891700001,-0.146999979019,-0.411000442505,-0.0410000011325,-0.194000005722,-0.142000004649,-3.0,-1.0,7.0,7.0,21.0,13.0,22.0,22.0,24.0,24.0,3,"(0.318305573199064, -0.815553406738067, 0.13814275757049982, 0.9999377972961766, -0.004352227397898343, -0.00938816830392429, 0.00416196480574432)",0.0,0.0,0.0,0.0,0.0,0.0
1522692235.48,22865,1522663435,475594043,,1370989,1522663432,927431189,,0.793464869466,-0.44849270478000003,0.128570199962,0.0302172055516,0.999480368981,-0.009593679140819999,0.00582012291776,-0.00432384348713,0.00367846089199,-0.0015818418191500003,0.00672339593831,0.015002263382700002,0.00689116884873,-0.294198721647,-0.143121629953,6.8415288925199995,0.314588755369,0.00348286703229,0.27493387460700003,542201,1522663432,919000064,,['l_gripper_l_finger_joint'],"(0.0032494800670444966,)","(0.0,)","(0.0,)",1353719,1522663435,474701587,robotiq_force_torque_frame_id,-0.625999939442,-1.44700016975,-0.400998306274,-0.0340000018477,-0.17499999702,-0.108999997377,-1.0,4.0,6.0,7.0,13.0,11.0,17.0,20.0,22.0,24.0,3,"(0.318305573199064, -0.815553406738067, 0.13814275757049982, 0.9999377972961766, -0.004352227397898343, -0.00938816830392429, 0.00416196480574432)",-1.720000028612,-1.300000190731,0.010002136230999992,0.006999999284799996,0.019000008702,0.033000007272000004
1522692235.49,22866,1522663435,485579013,,1370989,1522663432,927431189,,0.793464869466,-0.44849270478000003,0.128570199962,0.0302172055516,0.999480368981,-0.009593679140819999,0.00582012291776,-0.00432384348713,0.00367846089199,-0.0015818418191500003,0.00672339593831,0.015002263382700002,0.00689116884873,-0.294198721647,-0.143121629953,6.8415288925199995,0.314588755369,0.00348286703229,0.27493387460700003,542201,1522663432,919000064,,['l_gripper_l_finger_joint'],"(0.0032494800670444966,)","(0.0,)","(0.0,)",1353720,1522663435,482846589,robotiq_force_torque_frame_id,0.223999965191,-0.396999979019,-0.361001205444,-0.0410000011325,-0.18299999833099997,-0.119000002742,4.0,6.0,8.0,13.0,35.0,19.0,21.0,24.0,26.0,30.0,3,"(0.318305573199064, -0.815553406738067, 0.13814275757049982, 0.9999377972961766, -0.004352227397898343, -0.00938816830392429, 0.00416196480574432)",0.849999904633,1.050000190731,0.03999710083000002,-0.006999999284799996,-0.008000001310999982,-0.010000005364999995
1522692235.5,22867,1522663435,495560884,,1370993,1522663432,966659644,,0.7936234274789999,-0.44855704078599995,0.129054815096,0.030393834717000003,0.9994732337279999,-0.00960879734181,0.0060943322283900005,-0.00400264160056,0.012723315148,0.004676841884229999,0.00031882630019300004,0.0092109071019,0.0139194014527,-0.397961676121,-0.08413113653660001,6.886152744289999,0.33338576555300004,-0.062354210764199995,0.267806708813,1371343,1522663432,964753756,,"['head_nod', 'head_pan', 'left_e0', 'left_e1', 'left_s0', 'left_s1', 'left_w0', 'left_w1', 'left_w2', 'right_e0', 'right_e1', 'right_s0', 'right_s1', 'right_w0', 'right_w1', 'right_w2', 'torso_t0']","(0.0, -0.1012427320004373, -0.9061991504433081, 1.5021506865367915, 0.27880100819817394, 0.6446554261088451, 2.3412381775101125, -0.4881893857445329, -0.03298058693953639, 0.4670971499111085, 0.9246069198979331, 0.3133155759255958, -0.7083156288060898, -0.37160684586524145, 1.4089613536727525, -0.03259709174256504, -12.565987119160338)","(0.0, 0.0007853981632501215, 0.021598449489378342, -0.009032078877376396, 0.018849555918002914, 0.003141592653000486, -0.012566370612001944, 0.024740042142378828, 0.0070685834692510935, 0.005890486224375911, 0.018456856836377853, 0.009817477040626518, -0.015707963265002428, 0.0, 0.008246680714126275, 0.005890486224375911, 0.0)","(0.0, 0.0, -14.784, 10.916, 0.152, 5.004, 0.076, -2.664, 0.324, 7.144, -15.892, -0.06, -28.996, -0.024, 0.24, -0.12, -20.48)",1353721,1522663435,495045068,robotiq_force_torque_frame_id,0.634000051022,-0.357000017166,-0.240998458862,-0.046999998390699994,-0.17700000107299999,-0.11500000208599999,-2.0,2.0,8.0,11.0,35.0,17.0,19.0,20.0,21.0,26.0,3,"(0.318305573199064, -0.815553406738067, 0.13814275757049982, 0.9999377972961766, -0.004352227397898343, -0.00938816830392429, 0.00416196480574432)",0.410000085831,0.03999996185300003,0.120002746582,-0.005999997258199996,0.005999997257999989,0.004000000656000008
1522692235.51,22868,1522663435,505583047,,1370993,1522663432,966659644,,0.7936234274789999,-0.44855704078599995,0.129054815096,0.030393834717000003,0.9994732337279999,-0.00960879734181,0.0060943322283900005,-0.00400264160056,0.012723315148,0.004676841884229999,0.00031882630019300004,0.0092109071019,0.0139194014527,-0.397961676121,-0.08413113653660001,6.886152744289999,0.33338576555300004,-0.062354210764199995,0.267806708813,542203,1522663432,968999936,,['l_gripper_l_finger_joint'],"(0.0032494800670444966,)","(0.0,)","(0.0,)",1353722,1522663435,503204922,robotiq_force_torque_frame_id,1.34400008917,0.402999973297,-0.390999984741,-0.04500000178809999,-0.180999994278,-0.112000003457,-1.0,2.0,14.0,21.0,25.0,17.0,18.0,18.0,20.0,42.0,3,"(0.318305573199064, -0.815553406738067, 0.13814275757049982, 0.9999377972961766, -0.004352227397898343, -0.00938816830392429, 0.00416196480574432)",0.710000038148,0.7599999904629999,-0.150001525879,0.0019999966026000016,-0.003999993205000024,0.0029999986289999947
1522692235.52,22869,1522663435,515577077,,1370995,1522663432,986664627,,0.7931359007109999,-0.450029543412,0.128618689316,0.0308270406281,0.999454324618,-0.0104370758646,0.00564039144462,0.00026118386609200005,-0.00325488811265,0.00415511899716,0.007058265083419999,-0.0038948187210199998,-0.0200153302035,-0.32304695248599996,-0.17275491356800002,6.818294048309999,0.369080156088,-0.05047653988,0.289883613586,542203,1522663432,968999936,,['l_gripper_l_finger_joint'],"(0.0032494800670444966,)","(0.0,)","(0.0,)",1353723,1522663435,515413439,robotiq_force_torque_frame_id,1.1340000510200001,0.873000001907,-0.6409999847410001,-0.0480000004172,-0.17800000309900002,-0.123000003397,-1.0,4.0,17.0,21.0,27.0,17.0,18.0,19.0,32.0,35.0,3,"(0.318305573199064, -0.815553406738067, 0.13814275757049982, 0.9999377972961766, -0.004352227397898343, -0.00938816830392429, 0.00416196480574432)",-0.2100000381499998,0.47000002861,-0.25000000000000006,-0.002999998629100005,0.002999991178999989,-0.010999999940000005
1522692235.53,22870,1522663435,525556087,,1370996,1522663432,996657077,,0.7925213496819999,-0.449795815756,0.128213405112,0.0308194807893,0.9994592116959999,-0.010357288655200001,0.004916333104819999,-0.0072907442013300005,-0.00150440609065,-0.00531002511504,0.00933210960722,0.0135793455955,0.000119113917339,-0.36959427595100003,-0.145317524672,6.88931035995,0.366693407297,-0.0556901544333,0.27486634254500003,1371345,1522663432,984762030,,"['head_nod', 'head_pan', 'left_e0', 'left_e1', 'left_s0', 'left_s1', 'left_w0', 'left_w1', 'left_w2', 'right_e0', 'right_e1', 'right_s0', 'right_s1', 'right_w0', 'right_w1', 'right_w2', 'torso_t0']","(0.0, -0.10085923680346595, -0.9073496360342223, 1.5013836961428486, 0.2791845033951453, 0.6450389213058165, 2.3420051679040554, -0.48742239535059023, -0.03298058693953639, 0.4655631691232231, 0.9246069198979331, 0.3129320807286244, -0.7079321336091184, -0.3723738362591842, 1.4089613536727525, -0.03298058693953639, -12.565987119160338)","(0.0, 0.014922565101752308, -0.00039269908162506076, -0.018064157754752792, -0.005890486224375911, -0.00510508806112579, 0.003141592653000486, 0.0, -0.013744467856877126, 0.00039269908162506076, -0.008246680714126275, -0.0070685834692510935, -0.0019634954081253035, 0.008246680714126275, 0.006675884387626033, 0.009032078877376396, 0.0)","(0.0, 0.0, -14.72, 10.884, 0.308, 5.068, 0.096, -2.664, 0.324, 7.112, -15.892, -0.092, -28.968, -0.04, 0.228, -0.14, -20.48)",1353724,1522663435,523556909,robotiq_force_torque_frame_id,1.42400025129,1.2930000782,-0.661000442505,-0.04500000178809999,-0.171000003815,-0.136999994516,4.0,17.0,21.0,27.0,27.0,11.0,17.0,26.0,32.0,35.0,3,"(0.318305573199064, -0.815553406738067, 0.13814275757049982, 0.9999377972961766, -0.004352227397898343, -0.00938816830392429, 0.00416196480574432)",0.29000020026999995,0.42000007629299996,-0.020000457763999946,0.002999998629100005,0.006999999284000025,-0.013999991119000008
1522692235.54,22871,1522663435,535624980,,1370997,1522663433,6671731,,0.793246929929,-0.449232890254,0.128826979145,0.0307654708953,0.9994613110100001,-0.00985231175626,0.005788397607399999,0.007876427222760001,-0.009036746380129999,-0.0003998840991530001,-0.0133416171211,-0.0221967569551,-0.00773650673652,-0.29140815138799997,-0.0991487801075,6.76795387268,0.310329020023,-0.0302234254777,0.27770987153099996,1371346,1522663432,994768533,,"['head_nod', 'head_pan', 'left_e0', 'left_e1', 'left_s0', 'left_s1', 'left_w0', 'left_w1', 'left_w2', 'right_e0', 'right_e1', 'right_s0', 'right_s1', 'right_w0', 'right_w1', 'right_w2', 'torso_t0']","(0.0, -0.1012427320004373, -0.9069661408372509, 1.50176719133982, 0.2791845033951453, 0.6450389213058165, 2.341621672707084, -0.48742239535059023, -0.033364082136507746, 0.4655631691232231, 0.9257574054888472, 0.3129320807286244, -0.7079321336091184, -0.3723738362591842, 1.4093448488697238, -0.03259709174256504, -12.565987119160338)","(0.0, 0.006283185306000972, -0.012959069693627005, 0.0023561944897503642, 0.009424777959001457, 0.0011780972448751821, -0.003141592653000486, -0.0019634954081253035, 0.0035342917346255468, -0.0047123889795007284, 0.011780972448751823, -0.0070685834692510935, 0.0007853981632501215, 0.01060287520387664, 0.0011780972448751821, -0.007853981632501214, 0.0)","(0.0, 0.0, -14.588, 10.948, 0.308, 5.036, 0.068, -2.676, 0.336, 7.112, -15.892, -0.092, -28.996, -0.024, 0.248, -0.128, -20.48)",1353725,1522663435,535716175,robotiq_force_torque_frame_id,1.34400008917,1.6230000019100002,-1.0410015106200001,-0.0270000007004,-0.188999995589,-0.149000003934,4.0,19.0,21.0,33.0,35.0,9.0,9.0,21.0,26.0,35.0,3,"(0.318305573199064, -0.815553406738067, 0.13814275757049982, 0.9999377972961766, -0.004352227397898343, -0.00938816830392429, 0.00416196480574432)",-0.08000016212000016,0.3299999237100002,-0.3800010681150001,0.01800000108769999,-0.017999991773999996,-0.012000009418000002
1522692235.57,22872,1522663435,545598983,,1370997,1522663433,6671731,,0.793246929929,-0.449232890254,0.128826979145,0.0307654708953,0.9994613110100001,-0.00985231175626,0.005788397607399999,0.007876427222760001,-0.009036746380129999,-0.0003998840991530001,-0.0133416171211,-0.0221967569551,-0.00773650673652,-0.29140815138799997,-0.0991487801075,6.76795387268,0.310329020023,-0.0302234254777,0.27770987153099996,542204,1522663433,12000000,,['r_gripper_l_finger_joint'],"(0.019983251598477365,)","(0.0,)","(0.0,)",1353726,1522663435,543858684,robotiq_force_torque_frame_id,0.614000070095,0.882999992371,-0.9409992218019999,-0.029999999329400003,-0.195999994874,-0.146999999881,9.0,19.0,33.0,35.0,53.0,12.0,15.0,21.0,35.0,40.0,3,"(0.318305573199064, -0.815553406738067, 0.13814275757049982, 0.9999377972961766, -0.004352227397898343, -0.00938816830392429, 0.00416196480574432)",-0.7300000190749999,-0.7400000095390001,0.10000228881800022,-0.0029999986290000016,-0.006999999285000003,0.0020000040530000207
1522692235.57,22873,1522663435,555598974,,1370999,1522663433,26671220,,0.7932496677259999,-0.448158266329,0.128022712506,0.0300327095347,0.999488993372,-0.00952108561511,0.00539790840935,-0.0010848446679400001,0.011589391324400001,-0.00599528827994,0.026623763363099996,0.00627724746157,0.00486001491908,0.037736207246800005,-0.165075778961,6.87949514389,0.30744934081999997,0.0959613621235,0.262960463762,1371348,1522663433,14743448,,"['head_nod', 'head_pan', 'left_e0', 'left_e1', 'left_s0', 'left_s1', 'left_w0', 'left_w1', 'left_w2', 'right_e0', 'right_e1', 'right_s0', 'right_s1', 'right_w0', 'right_w1', 'right_w2', 'torso_t0']","(0.0, -0.1012427320004373, -0.9073496360342223, 1.50176719133982, 0.27880100819817394, 0.6454224165027879, 2.341621672707084, -0.48742239535059023, -0.03298058693953639, 0.46594666432019444, 0.9257574054888472, 0.3129320807286244, -0.7075486384121471, -0.37199034106221285, 1.408577858475781, -0.03259709174256504, -12.565987119160338)","(0.0, -0.00510508806112579, 0.0019634954081253035, -0.009032078877376396, -0.0200276531628781, -0.001570796326500243, 0.009817477040626518, 0.01060287520387664, 0.0019634954081253035, 0.010995574285501701, -0.0011780972448751821, -0.012959069693627005, -0.012959069693627005, -0.012173671530376884, -0.0007853981632501215, 0.0023561944897503642, 0.0)","(0.0, 0.0, -14.556, 10.916, 0.28, 5.068, 0.084, -2.684, 0.324, 7.08, -15.892, -0.092, -28.996, -0.032, 0.24, -0.14, -20.48)",1353726,1522663435,543858684,robotiq_force_torque_frame_id,0.614000070095,0.882999992371,-0.9409992218019999,-0.029999999329400003,-0.195999994874,-0.146999999881,9.0,12.0,24.0,26.0,53.0,12.0,15.0,16.0,18.0,27.0,3,"(0.318305573199064, -0.815553406738067, 0.13814275757049982, 0.9999377972961766, -0.004352227397898343, -0.00938816830392429, 0.00416196480574432)",0.0,0.0,0.0,0.0,0.0,0.0
1522692235.57,22874,1522663435,565571069,,1370999,1522663433,26671220,,0.7932496677259999,-0.448158266329,0.128022712506,0.0300327095347,0.999488993372,-0.00952108561511,0.00539790840935,-0.0010848446679400001,0.011589391324400001,-0.00599528827994,0.026623763363099996,0.00627724746157,0.00486001491908,0.037736207246800005,-0.165075778961,6.87949514389,0.30744934081999997,0.0959613621235,0.262960463762,1371348,1522663433,14743448,,"['head_nod', 'head_pan', 'left_e0', 'left_e1', 'left_s0', 'left_s1', 'left_w0', 'left_w1', 'left_w2', 'right_e0', 'right_e1', 'right_s0', 'right_s1', 'right_w0', 'right_w1', 'right_w2', 'torso_t0']","(0.0, -0.1012427320004373, -0.9073496360342223, 1.50176719133982, 0.27880100819817394, 0.6454224165027879, 2.341621672707084, -0.48742239535059023, -0.03298058693953639, 0.46594666432019444, 0.9257574054888472, 0.3129320807286244, -0.7075486384121471, -0.37199034106221285, 1.408577858475781, -0.03259709174256504, -12.565987119160338)","(0.0, -0.00510508806112579, 0.0019634954081253035, -0.009032078877376396, -0.0200276531628781, -0.001570796326500243, 0.009817477040626518, 0.01060287520387664, 0.0019634954081253035, 0.010995574285501701, -0.0011780972448751821, -0.012959069693627005, -0.012959069693627005, -0.012173671530376884, -0.0007853981632501215, 0.0023561944897503642, 0.0)","(0.0, 0.0, -14.556, 10.916, 0.28, 5.068, 0.084, -2.684, 0.324, 7.08, -15.892, -0.092, -28.996, -0.032, 0.24, -0.14, -20.48)",1353728,1522663435,564218064,robotiq_force_torque_frame_id,1.82399986982,0.583000040054,-1.2210018158,-0.0189999993891,-0.202000007033,-0.151999995112,12.0,13.0,24.0,26.0,30.0,13.0,13.0,16.0,17.0,27.0,3,"(0.318305573199064, -0.815553406738067, 0.13814275757049982, 0.9999377972961766, -0.004352227397898343, -0.00938816830392429, 0.00416196480574432)",1.2099997997249998,-0.29999995231700005,-0.2800025939980001,0.010999999940300004,-0.006000012159000007,-0.004999995231000004
1522692235.61,22875,1522663435,575586080,,1371000,1522663433,36656910,,0.7935027488590001,-0.448819824752,0.128454479678,0.0304150456415,0.999471372265,-0.009911432894340001,0.00580211343,0.00831288803849,-0.00460797044612,-0.0011515044873900001,0.0113723510129,-0.0211773479708,-0.015862250074,0.021631814539400003,-0.14082685112999999,6.7977013588,0.328808963299,0.0922136008739,0.27283439040199997,1371350,1522663433,34748278,,"['head_nod', 'head_pan', 'left_e0', 'left_e1', 'left_s0', 'left_s1', 'left_w0', 'left_w1', 'left_w2', 'right_e0', 'right_e1', 'right_s0', 'right_s1', 'right_w0', 'right_w1', 'right_w2', 'torso_t0']","(0.0, -0.10162622719740866, -0.9065826456402796, 1.5021506865367915, 0.2791845033951453, 0.6446554261088451, 2.3412381775101125, -0.48742239535059023, -0.033364082136507746, 0.4663301595171658, 0.9246069198979331, 0.3136990711225671, -0.7075486384121471, -0.37199034106221285, 1.408577858475781, -0.03259709174256504, -12.565987119160338)","(0.0, 0.0019634954081253035, 0.01021017612225158, -0.006283185306000972, -0.0023561944897503642, -0.003141592653000486, -0.014529866020127248, -0.005497787142750851, -0.005890486224375911, 0.007461282550876154, -0.015707963265002428, -0.012173671530376884, 0.011388273367126762, 0.0047123889795007284, -0.013744467856877126, 0.0027488935713754254, 0.0)","(0.0, 0.0, -14.652, 10.916, 0.248, 5.036, 0.104, -2.676, 0.336, 7.08, -15.892, 0.0, -28.936, -0.024, 0.228, -0.14, -20.48)",1353728,1522663435,564218064,robotiq_force_torque_frame_id,1.82399986982,0.583000040054,-1.2210018158,-0.0189999993891,-0.202000007033,-0.151999995112,9.0,13.0,13.0,32.0,36.0,9.0,13.0,13.0,17.0,26.0,3,"(0.318305573199064, -0.815553406738067, 0.13814275757049982, 0.9999377972961766, -0.004352227397898343, -0.00938816830392429, 0.00416196480574432)",0.0,0.0,0.0,0.0,0.0,0.0
1522692235.61,22876,1522663435,585567951,,1371001,1522663433,46660955,,0.7931181533660001,-0.44927466826800005,0.128150171393,0.0305390185519,0.999469598758,-0.009952313969770001,0.00537037726711,-0.0129071088724,-0.012246837927399999,-0.012887252078200002,-0.019842865475599998,0.034546127834999996,-0.010440248579,0.35796886682499995,-0.000109687447548,6.84592533112,0.25775018334399996,0.24059310555500002,0.25398132204999996,1371351,1522663433,44767718,,"['head_nod', 'head_pan', 'left_e0', 'left_e1', 'left_s0', 'left_s1', 'left_w0', 'left_w1', 'left_w2', 'right_e0', 'right_e1', 'right_s0', 'right_s1', 'right_w0', 'right_w1', 'right_w2', 'torso_t0']","(0.0, -0.10085923680346595, -0.9073496360342223, 1.50176719133982, 0.2791845033951453, 0.6446554261088451, 2.3408546823131413, -0.4881893857445329, -0.03298058693953639, 0.46594666432019444, 0.9246069198979331, 0.3133155759255958, -0.7071651432151758, -0.37199034106221285, 1.4089613536727525, -0.03298058693953639, -12.565987119160338)","(0.0, -0.003141592653000486, 0.007461282550876154, -0.003926990816250607, 0.0023561944897503642, -0.010995574285501701, -0.009817477040626518, -0.018064157754752792, 0.012173671530376884, -0.02670353755050413, 0.006675884387626033, 0.006283185306000972, 0.010995574285501701, -0.008639379795751335, 0.008639379795751335, 0.0027488935713754254, 0.0)","(0.0, 0.0, -14.652, 10.884, 0.216, 5.036, 0.104, -2.684, 0.316, 7.112, -15.892, 0.152, -28.936, -0.032, 0.248, -0.128, -20.48)",1353730,1522663435,584565818,robotiq_force_torque_frame_id,0.473999965191,0.353000020981,-0.411000442505,-0.032999999821200006,-0.180999994278,-0.156000003219,11.0,13.0,15.0,26.0,36.0,9.0,11.0,17.0,20.0,26.0,3,"(0.318305573199064, -0.815553406738067, 0.13814275757049982, 0.9999377972961766, -0.004352227397898343, -0.00938816830392429, 0.00416196480574432)",-1.3499999046289999,-0.230000019073,0.810001373295,-0.014000000432100007,0.02100001275499999,-0.004000008107000019
1522692235.61,22877,1522663435,595554113,,1371003,1522663433,66663834,,0.7929835067899998,-0.4487447496,0.128134280142,0.030436070719999996,0.9994751402359999,-0.009798610266809999,0.00520354561742,0.013750842877499999,0.010529020006099999,0.009104994746909999,0.012755481596600001,-0.0338131502116,0.0100620991537,0.0020277351141,-0.00323931872845,6.9409899711600005,0.291463792324,0.10632841288999999,0.280250668526,1371353,1522663433,64754434,,"['head_nod', 'head_pan', 'left_e0', 'left_e1', 'left_s0', 'left_s1', 'left_w0', 'left_w1', 'left_w2', 'right_e0', 'right_e1', 'right_s0', 'right_s1', 'right_w0', 'right_w1', 'right_w2', 'torso_t0']","(0.0, -0.10085923680346595, -0.9073496360342223, 1.5021506865367915, 0.2791845033951453, 0.6446554261088451, 2.341621672707084, -0.48780589054756157, -0.03259709174256504, 0.46594666432019444, 0.9253739102918759, 0.3136990711225671, -0.7075486384121471, -0.37160684586524145, 1.4089613536727525, -0.03259709174256504, -12.565987119160338)","(0.0, -0.005497787142750851, 0.005890486224375911, 0.0011780972448751821, -0.0007853981632501215, -0.001570796326500243, -0.00510508806112579, 0.005890486224375911, 0.00039269908162506076, 0.015707963265002428, -0.0070685834692510935, 0.0007853981632501215, -0.0070685834692510935, 0.007853981632501214, -0.014922565101752308, -0.0023561944897503642, 0.0)","(0.0, 0.0, -14.684, 10.948, 0.184, 5.036, 0.096, -2.684, 0.344, 7.176, -15.892, 0.092, -28.996, -0.032, 0.26, -0.14, -20.48)",1353731,1522663435,592724182,robotiq_force_torque_frame_id,0.28399990796999997,0.113000011444,-0.390999984741,-0.0340000018477,-0.18299999833099997,-0.15099999308599998,11.0,11.0,13.0,15.0,26.0,7.0,8.0,11.0,20.0,32.0,3,"(0.318305573199064, -0.815553406738067, 0.13814275757049982, 0.9999377972961766, -0.004352227397898343, -0.00938816830392429, 0.00416196480574432)",-0.19000005722100005,-0.24000000953699996,0.020000457764,-0.0010000020264999965,-0.002000004052999965,0.005000010133000027
1522692235.61,22878,1522663435,605602979,,1371003,1522663433,66663834,,0.7929835067899998,-0.4487447496,0.128134280142,0.030436070719999996,0.9994751402359999,-0.009798610266809999,0.00520354561742,0.013750842877499999,0.010529020006099999,0.009104994746909999,0.012755481596600001,-0.0338131502116,0.0100620991537,0.0020277351141,-0.00323931872845,6.9409899711600005,0.291463792324,0.10632841288999999,0.280250668526,542207,1522663433,70000128,,['l_gripper_l_finger_joint'],"(0.0032494800670444966,)","(0.0,)","(0.0,)",1353732,1522663435,604925938,robotiq_force_torque_frame_id,0.7439999461169999,0.69299993515,-0.300999832153,-0.0439999997616,-0.18299999833099997,-0.165000006557,11.0,13.0,13.0,17.0,30.0,7.0,8.0,11.0,17.0,22.0,3,"(0.318305573199064, -0.815553406738067, 0.13814275757049982, 0.9999377972961766, -0.004352227397898343, -0.00938816830392429, 0.00416196480574432)",0.46000003814699997,0.5799999237060001,0.09000015258799998,-0.009999997913900001,0.0,-0.014000013471000022
1522692235.65,22879,1522663435,615570068,,1371005,1522663433,86673423,,0.792772761951,-0.45016985807099996,0.128222195066,0.031393146689499996,0.999443414823,-0.009955858609809999,0.00531147689356,-0.0052222400247,-0.00672968447716,-0.00117600729363,0.00163803179259,0.00657551351836,-0.013785652877799998,0.291143596172,-0.163147389889,6.8901691436800006,0.35658317804300005,0.205201655626,0.282417178154,542207,1522663433,70000128,,['l_gripper_l_finger_joint'],"(0.0032494800670444966,)","(0.0,)","(0.0,)",1353733,1522663435,613074530,robotiq_force_torque_frame_id,1.17400001287,0.422999954224,-0.341000747681,-0.04500000178809999,-0.17599999904599997,-0.158999994397,9.0,12.0,13.0,17.0,30.0,11.0,14.0,16.0,17.0,18.0,3,"(0.318305573199064, -0.815553406738067, 0.13814275757049982, 0.9999377972961766, -0.004352227397898343, -0.00938816830392429, 0.00416196480574432)",0.4300000667530002,-0.269999980926,-0.040000915528,-0.0010000020264999895,0.006999999285000003,0.006000012160000012
1522692235.65,22880,1522663435,625551939,,1371005,1522663433,86673423,,0.792772761951,-0.45016985807099996,0.128222195066,0.031393146689499996,0.999443414823,-0.009955858609809999,0.00531147689356,-0.0052222400247,-0.00672968447716,-0.00117600729363,0.00163803179259,0.00657551351836,-0.013785652877799998,0.291143596172,-0.163147389889,6.8901691436800006,0.35658317804300005,0.205201655626,0.282417178154,542207,1522663433,70000128,,['l_gripper_l_finger_joint'],"(0.0032494800670444966,)","(0.0,)","(0.0,)",1353734,1522663435,625244264,robotiq_force_torque_frame_id,0.414000022411,-0.407000207901,-0.501000595093,-0.0430000014603,-0.180999994278,-0.129999995232,9.0,13.0,18.0,23.0,26.0,14.0,16.0,18.0,24.0,33.0,3,"(0.318305573199064, -0.815553406738067, 0.13814275757049982, 0.9999377972961766, -0.004352227397898343, -0.00938816830392429, 0.00416196480574432)",-0.7599999904590001,-0.8300001621249999,-0.15999984741199996,0.0020000003277999903,-0.004999995232000037,0.028999999164999984
1522692235.65,22881,1522663435,635704994,,1371007,1522663433,106665374,,0.793273752787,-0.449347935923,0.128284691338,0.0306060841447,0.999466352649,-0.00997449042134,0.00554861030403,-0.0030134353272700002,-0.00386431410529,0.00533706495109,0.000865405107992,0.00525782310246,-0.0015851072919499999,-0.290512740612,-0.192235559225,6.85663127899,0.36439386010200003,-0.0253981649876,0.296467483044,1371357,1522663433,104767938,,"['head_nod', 'head_pan', 'left_e0', 'left_e1', 'left_s0', 'left_s1', 'left_w0', 'left_w1', 'left_w2', 'right_e0', 'right_e1', 'right_s0', 'right_s1', 'right_w0', 'right_w1', 'right_w2', 'torso_t0']","(0.0, -0.10085923680346595, -0.9073496360342223, 1.5013836961428486, 0.27880100819817394, 0.6450389213058165, 2.3412381775101125, -0.48703890015361884, -0.033364082136507746, 0.46594666432019444, 0.9242234247009617, 0.3133155759255958, -0.7071651432151758, -0.37199034106221285, 1.4089613536727525, -0.03298058693953639, -12.565987119160338)","(0.0, 0.003926990816250607, -0.0023561944897503642, -0.0023561944897503642, -0.011780972448751823, -0.006675884387626033, -0.01688606050987761, 0.022383847652628464, 0.011388273367126762, -0.009817477040626518, -0.0070685834692510935, -0.00039269908162506076, -0.006283185306000972, 0.01021017612225158, 0.014922565101752308, -0.009424777959001457, 0.0)","(0.0, 0.0, -14.524, 10.852, 0.184, 5.068, 0.084, -2.648, 0.324, 7.112, -15.892, -0.092, -28.996, -0.048, 0.24, -0.148, -20.48)",1353735,1522663435,633403232,robotiq_force_torque_frame_id,-0.635999929905,0.392999982834,-0.381001663208,-0.0370000004768,-0.184000000358,-0.145999997854,13.0,18.0,26.0,27.0,40.0,16.0,17.0,18.0,24.0,33.0,3,"(0.318305573199064, -0.815553406738067, 0.13814275757049982, 0.9999377972961766, -0.004352227397898343, -0.00938816830392429, 0.00416196480574432)",-1.049999952316,0.8000001907350001,0.119998931885,0.006000000983500002,-0.0030000060799999784,-0.016000002621999992
1522692235.65,22882,1522663435,646198034,,1371007,1522663433,106665374,,0.793273752787,-0.449347935923,0.128284691338,0.0306060841447,0.999466352649,-0.00997449042134,0.00554861030403,-0.0030134353272700002,-0.00386431410529,0.00533706495109,0.000865405107992,0.00525782310246,-0.0015851072919499999,-0.290512740612,-0.192235559225,6.85663127899,0.36439386010200003,-0.0253981649876,0.296467483044,542208,1522663433,113999872,,['r_gripper_l_finger_joint'],"(0.019983251598477365,)","(0.0,)","(0.0,)",1353736,1522663435,645706899,robotiq_force_torque_frame_id,-0.8759999394419999,0.452999925613,-0.33099861145,-0.0379999987781,-0.190999999642,-0.157000005245,9.0,11.0,13.0,27.0,34.0,13.0,16.0,18.0,23.0,24.0,3,"(0.318305573199064, -0.815553406738067, 0.13814275757049982, 0.9999377972961766, -0.004352227397898343, -0.00938816830392429, 0.00416196480574432)",-0.24000000953699996,0.059999942779000004,0.05000305175800002,-0.0009999983013000008,-0.006999999284000025,-0.011000007390999988
1522692235.66,22883,1522663435,655559062,,1371009,1522663433,126657841,,0.793060045966,-0.449306270098,0.128404310767,0.0305422354856,0.9994689047509999,-0.0100214337787,0.005352677121390001,0.00213666558772,0.0121257230078,0.00268164589829,0.0132918754573,-0.00505594652696,-0.00118587453938,0.11364129930700001,-0.132476121187,6.887500762939999,0.341781318188,0.131354629993,0.25792282819699996,542209,1522663433,120999936,,['l_gripper_l_finger_joint'],"(0.0032494800670444966,)","(0.0,)","(0.0,)",1353737,1522663435,653846953,robotiq_force_torque_frame_id,-0.185999882221,-0.317000055313,-0.471001815796,-0.0399999991059,-0.190999999642,-0.136000007391,9.0,11.0,13.0,30.0,40.0,11.0,12.0,17.0,23.0,24.0,3,"(0.318305573199064, -0.815553406738067, 0.13814275757049982, 0.9999377972961766, -0.004352227397898343, -0.00938816830392429, 0.00416196480574432)",0.6900000572209999,-0.7699999809260001,-0.140003204346,-0.0020000003277999973,0.0,0.020999997854000002
1522692235.67,22884,1522663435,665587902,,1371009,1522663433,126657841,,0.793060045966,-0.449306270098,0.128404310767,0.0305422354856,0.9994689047509999,-0.0100214337787,0.005352677121390001,0.00213666558772,0.0121257230078,0.00268164589829,0.0132918754573,-0.00505594652696,-0.00118587453938,0.11364129930700001,-0.132476121187,6.887500762939999,0.341781318188,0.131354629993,0.25792282819699996,542209,1522663433,120999936,,['l_gripper_l_finger_joint'],"(0.0032494800670444966,)","(0.0,)","(0.0,)",1353737,1522663435,653846953,robotiq_force_torque_frame_id,-0.185999882221,-0.317000055313,-0.471001815796,-0.0399999991059,-0.190999999642,-0.136000007391,6.0,6.0,9.0,30.0,40.0,10.0,12.0,17.0,19.0,21.0,3,"(0.318305573199064, -0.815553406738067, 0.13814275757049982, 0.9999377972961766, -0.004352227397898343, -0.00938816830392429, 0.00416196480574432)",0.0,0.0,0.0,0.0,0.0,0.0
1522692235.68,22885,1522663435,675565004,,1371011,1522663433,146669531,,0.793519540036,-0.44914480372599996,0.128710469185,0.030607979235,0.9994636532100001,-0.009993485830799998,0.0059739233321399994,0.00596194977115,0.00433640760954,0.0059905472806400005,0.00169446509915,-0.014464497165700002,0.0121618166413,-0.030972309410599995,-0.104923322797,6.91600942612,0.280207365751,0.09295584261420001,0.24268522858600003,542209,1522663433,120999936,,['l_gripper_l_finger_joint'],"(0.0032494800670444966,)","(0.0,)","(0.0,)",1353739,1522663435,674220377,robotiq_force_torque_frame_id,0.124000060558,-2.3269998073599996,-0.560998153687,-0.0340000018477,-0.188999995589,-0.11299999803300001,0.0,6.0,9.0,32.0,34.0,10.0,12.0,19.0,21.0,24.0,3,"(0.318305573199064, -0.815553406738067, 0.13814275757049982, 0.9999377972961766, -0.004352227397898343, -0.00938816830392429, 0.00416196480574432)",0.309999942779,-2.0099997520469994,-0.08999633789100003,0.005999997258199996,0.0020000040530000207,0.02300000935799998
1522692235.69,22886,1522663435,685579061,,1371011,1522663433,146669531,,0.793519540036,-0.44914480372599996,0.128710469185,0.030607979235,0.9994636532100001,-0.009993485830799998,0.0059739233321399994,0.00596194977115,0.00433640760954,0.0059905472806400005,0.00169446509915,-0.014464497165700002,0.0121618166413,-0.030972309410599995,-0.104923322797,6.91600942612,0.280207365751,0.09295584261420001,0.24268522858600003,1371361,1522663433,144797429,,"['head_nod', 'head_pan', 'left_e0', 'left_e1', 'left_s0', 'left_s1', 'left_w0', 'left_w1', 'left_w2', 'right_e0', 'right_e1', 'right_s0', 'right_s1', 'right_w0', 'right_w1', 'right_w2', 'torso_t0']","(0.0, -0.1012427320004373, -0.9077331312311936, 1.50176719133982, 0.27880100819817394, 0.6446554261088451, 2.3408546823131413, -0.48742239535059023, -0.03298058693953639, 0.4663301595171658, 0.9246069198979331, 0.3133155759255958, -0.7079321336091184, -0.37199034106221285, 1.408577858475781, -0.03259709174256504, -12.565987119160338)","(0.0, 0.009424777959001457, 0.009032078877376396, 0.0023561944897503642, 0.0027488935713754254, 0.012566370612001944, 0.003926990816250607, 0.0011780972448751821, 0.003141592653000486, -0.0047123889795007284, -0.003141592653000486, 0.0070685834692510935, -0.008246680714126275, 0.009817477040626518, -0.00510508806112579, -0.01060287520387664, 0.0)","(0.0, 0.0, -14.492, 10.916, 0.124, 5.036, 0.084, -2.656, 0.316, 7.02, -15.924, 0.0, -29.024, -0.032, 0.24, -0.12, -20.48)",1353739,1522663435,674220377,robotiq_force_torque_frame_id,0.124000060558,-2.3269998073599996,-0.560998153687,-0.0340000018477,-0.188999995589,-0.11299999803300001,4.0,6.0,9.0,34.0,34.0,15.0,18.0,20.0,24.0,26.0,3,"(0.318305573199064, -0.815553406738067, 0.13814275757049982, 0.9999377972961766, -0.004352227397898343, -0.00938816830392429, 0.00416196480574432)",0.0,0.0,0.0,0.0,0.0,0.0
1522692235.7,22887,1522663435,695557117,,1371013,1522663433,166659858,,0.7931486713689999,-0.44860002561800005,0.128483111637,0.030573631356599996,0.999471123031,-0.00961473185352,0.005503110354310001,-0.013275102015,-0.00249887195338,-0.010039790523399999,0.00246869704775,0.0326798327069,0.00110337586739,-0.101098299026,-0.124192751944,6.810445785519999,0.287533223629,0.0389356315136,0.275602161884,1371363,1522663433,164761868,,"['head_nod', 'head_pan', 'left_e0', 'left_e1', 'left_s0', 'left_s1', 'left_w0', 'left_w1', 'left_w2', 'right_e0', 'right_e1', 'right_s0', 'right_s1', 'right_w0', 'right_w1', 'right_w2', 'torso_t0']","(0.0, -0.1012427320004373, -0.9069661408372509, 1.5025341817337627, 0.27880100819817394, 0.6446554261088451, 2.3427721582979983, -0.48780589054756157, -0.03298058693953639, 0.4667136547141371, 0.9253739102918759, 0.3133155759255958, -0.7079321336091184, -0.37160684586524145, 1.4089613536727525, -0.032213596545593685, -12.565987119160338)","(0.0, -0.0019634954081253035, -0.0070685834692510935, -0.003141592653000486, 0.0047123889795007284, 0.005890486224375911, 0.01060287520387664, 0.01060287520387664, 0.0, 0.003141592653000486, 0.010995574285501701, -0.007461282550876154, 0.009817477040626518, -0.0070685834692510935, 0.014137166938502187, -0.0019634954081253035, 0.0)","(0.0, 0.0, -14.588, 10.916, 0.28, 5.036, 0.096, -2.656, 0.344, 7.048, -15.892, 0.0, -28.968, -0.04, 0.22, -0.148, -20.48)",1353741,1522663435,694571849,robotiq_force_torque_frame_id,0.46399997472800003,-1.5870000362399999,-0.7710010528560001,-0.0280000008643,-0.187000006437,-0.125,4.0,6.0,9.0,21.0,34.0,16.0,18.0,20.0,26.0,29.0,3,"(0.318305573199064, -0.815553406738067, 0.13814275757049982, 0.9999377972961766, -0.004352227397898343, -0.00938816830392429, 0.00416196480574432)",0.33999991417000003,0.7399997711199997,-0.21000289916900006,0.006000000983400002,0.0019999891520000035,-0.01200000196699999
1522692235.73,22888,1522663435,705595970,,1371013,1522663433,166659858,,0.7931486713689999,-0.44860002561800005,0.128483111637,0.030573631356599996,0.999471123031,-0.00961473185352,0.005503110354310001,-0.013275102015,-0.00249887195338,-0.010039790523399999,0.00246869704775,0.0326798327069,0.00110337586739,-0.101098299026,-0.124192751944,6.810445785519999,0.287533223629,0.0389356315136,0.275602161884,542211,1522663433,171000064,,['l_gripper_l_finger_joint'],"(0.0032494800670444966,)","(0.0,)","(0.0,)",1353741,1522663435,694571849,robotiq_force_torque_frame_id,0.46399997472800003,-1.5870000362399999,-0.7710010528560001,-0.0280000008643,-0.187000006437,-0.125,3.0,3.0,9.0,11.0,12.0,14.0,15.0,16.0,25.0,29.0,3,"(0.318305573199064, -0.815553406738067, 0.13814275757049982, 0.9999377972961766, -0.004352227397898343, -0.00938816830392429, 0.00416196480574432)",0.0,0.0,0.0,0.0,0.0,0.0
1522692235.73,22889,1522663435,715574026,,1371015,1522663433,186662245,,0.793223318054,-0.449215145508,0.128449706354,0.0308299608516,0.999461663593,-0.00971180611335,0.00561937223837,0.005083393668810001,-0.00386698172867,0.0070549033908900004,-0.0049431389359499995,-0.014714426946499999,-0.012027807591799998,-0.10311171412499999,-0.0550657808781,6.86648082733,0.278660297394,0.056236155331100005,0.258833318949,542211,1522663433,171000064,,['l_gripper_l_finger_joint'],"(0.0032494800670444966,)","(0.0,)","(0.0,)",1353743,1522663435,714915384,robotiq_force_torque_frame_id,0.223999965191,0.14299998283399998,-0.381001663208,-0.035000000148999996,-0.190999999642,-0.143999993801,6.0,8.0,11.0,11.0,12.0,14.0,15.0,17.0,21.0,29.0,3,"(0.318305573199064, -0.815553406738067, 0.13814275757049982, 0.9999377972961766, -0.004352227397898343, -0.00938816830392429, 0.00416196480574432)",-0.24000000953700004,1.730000019074,0.38999938964800007,-0.006999999284699996,-0.003999993205000024,-0.01899999380100001
1522692235.73,22890,1522663435,725550889,,1371015,1522663433,186662245,,0.793223318054,-0.449215145508,0.128449706354,0.0308299608516,0.999461663593,-0.00971180611335,0.00561937223837,0.005083393668810001,-0.00386698172867,0.0070549033908900004,-0.0049431389359499995,-0.014714426946499999,-0.012027807591799998,-0.10311171412499999,-0.0550657808781,6.86648082733,0.278660297394,0.056236155331100005,0.258833318949,542211,1522663433,171000064,,['l_gripper_l_finger_joint'],"(0.0032494800670444966,)","(0.0,)","(0.0,)",1353743,1522663435,714915384,robotiq_force_torque_frame_id,0.223999965191,0.14299998283399998,-0.381001663208,-0.035000000148999996,-0.190999999642,-0.143999993801,6.0,7.0,8.0,11.0,23.0,17.0,19.0,21.0,23.0,33.0,3,"(0.318305573199064, -0.815553406738067, 0.13814275757049982, 0.9999377972961766, -0.004352227397898343, -0.00938816830392429, 0.00416196480574432)",0.0,0.0,0.0,0.0,0.0,0.0
1522692235.77,22891,1522663435,735599994,,1371017,1522663433,206656090,,0.792954619941,-0.449142063999,0.127883010769,0.030403016348900004,0.999474938829,-0.009920106169219999,0.0052052611694300005,0.00202468869899,0.00435857284536,0.0005068384506740001,0.00146035092633,-0.00625819542259,0.0184838086441,0.211379542947,-0.159197479486,6.895345687869999,0.332414358854,0.179169490933,0.25256749987599997,1371366,1522663433,194754962,,"['head_nod', 'head_pan', 'left_e0', 'left_e1', 'left_s0', 'left_s1', 'left_w0', 'left_w1', 'left_w2', 'right_e0', 'right_e1', 'right_s0', 'right_s1', 'right_w0', 'right_w1', 'right_w2', 'torso_t0']","(0.0, -0.10085923680346595, -0.9065826456402796, 1.5021506865367915, 0.2784175130012026, 0.6450389213058165, 2.3423886631010267, -0.48780589054756157, -0.0337475773334791, 0.4663301595171658, 0.9246069198979331, 0.3136990711225671, -0.7075486384121471, -0.37199034106221285, 1.4093448488697238, -0.03259709174256504, -12.565987119160338)","(0.0, -0.005890486224375911, 0.001570796326500243, -0.01649336142825255, -0.01021017612225158, 0.012959069693627005, 0.004319689897875668, -0.0023561944897503642, -0.001570796326500243, 0.012566370612001944, 0.005890486224375911, 0.007853981632501214, -0.028667032958629435, 0.011388273367126762, -0.0007853981632501215, -0.013351768775252066, 0.0)","(0.0, 0.0, -14.588, 10.948, 0.184, 5.004, 0.076, -2.648, 0.308, 7.08, -15.892, 0.092, -28.968, -0.032, 0.22, -0.14, -20.48)",1353745,1522663435,735252931,robotiq_force_torque_frame_id,0.233999955654,-0.146999979019,-0.53099937439,-0.035000000148999996,-0.19200000166900003,-0.12800000607999998,5.0,5.0,7.0,23.0,34.0,19.0,23.0,23.0,29.0,33.0,3,"(0.318305573199064, -0.815553406738067, 0.13814275757049982, 0.9999377972961766, -0.004352227397898343, -0.00938816830392429, 0.00416196480574432)",0.009999990463000014,-0.289999961853,-0.149997711182,0.0,-0.0010000020270000132,0.01599998772100003
1522692235.77,22892,1522663435,745584964,,1371017,1522663433,206656090,,0.792954619941,-0.449142063999,0.127883010769,0.030403016348900004,0.999474938829,-0.009920106169219999,0.0052052611694300005,0.00202468869899,0.00435857284536,0.0005068384506740001,0.00146035092633,-0.00625819542259,0.0184838086441,0.211379542947,-0.159197479486,6.895345687869999,0.332414358854,0.179169490933,0.25256749987599997,542212,1522663433,215000064,,['r_gripper_l_finger_joint'],"(0.019983251598477365,)","(0.0,)","(0.0,)",1353745,1522663435,735252931,robotiq_force_torque_frame_id,0.233999955654,-0.146999979019,-0.53099937439,-0.035000000148999996,-0.19200000166900003,-0.12800000607999998,5.0,8.0,8.0,16.0,32.0,15.0,16.0,20.0,23.0,29.0,3,"(0.318305573199064, -0.815553406738067, 0.13814275757049982, 0.9999377972961766, -0.004352227397898343, -0.00938816830392429, 0.00416196480574432)",0.0,0.0,0.0,0.0,0.0,0.0
1522692235.77,22893,1522663435,755563020,,1371019,1522663433,226664036,,0.793356367593,-0.44923594597499994,0.12866508211799998,0.030511938769099998,0.99946500361,-0.0103020733165,0.005709241362270001,0.000222294996087,-0.0228068566761,-0.000640919311132,-0.0160131359751,-0.00763894440167,-0.006128833633229999,0.828400611877,-0.350258171558,7.0079965591399995,0.408090949059,0.40213868022,0.253731548786,542213,1522663433,222000128,,['l_gripper_l_finger_joint'],"(0.0032494800670444966,)","(0.0,)","(0.0,)",1353747,1522663435,755596612,robotiq_force_torque_frame_id,0.604000079632,-1.14699997902,-0.661000442505,-0.0260000005364,-0.18500000238400002,-0.11299999803300001,7.0,8.0,10.0,22.0,32.0,12.0,16.0,20.0,22.0,31.0,3,"(0.318305573199064, -0.815553406738067, 0.13814275757049982, 0.9999377972961766, -0.004352227397898343, -0.00938816830392429, 0.00416196480574432)",0.370000123978,-1.000000000001,-0.130001068115,0.008999999612599997,0.006999999285000003,0.015000008046999969
1522692235.77,22894,1522663435,765552997,,1371019,1522663433,226664036,,0.793356367593,-0.44923594597499994,0.12866508211799998,0.030511938769099998,0.99946500361,-0.0103020733165,0.005709241362270001,0.000222294996087,-0.0228068566761,-0.000640919311132,-0.0160131359751,-0.00763894440167,-0.006128833633229999,0.828400611877,-0.350258171558,7.0079965591399995,0.408090949059,0.40213868022,0.253731548786,542213,1522663433,222000128,,['l_gripper_l_finger_joint'],"(0.0032494800670444966,)","(0.0,)","(0.0,)",1353748,1522663435,763723693,robotiq_force_torque_frame_id,0.314000117779,-1.44700016975,-0.620999526978,-0.032999999821200006,-0.19499999284699998,-0.119000002742,6.0,7.0,8.0,18.0,22.0,17.0,18.0,22.0,25.0,31.0,3,"(0.318305573199064, -0.815553406738067, 0.13814275757049982, 0.9999377972961766, -0.004352227397898343, -0.00938816830392429, 0.00416196480574432)",-0.289999961853,-0.30000019072999984,0.040000915527000025,-0.006999999284800006,-0.009999990462999958,-0.006000004708999987
1522692235.81,22895,1522663435,775594949,,1371020,1522663433,236662806,,0.793379379833,-0.449190213712,0.128841266708,0.0304871573997,0.9994685686110001,-0.00999244722085,0.005767546304680001,0.0121427678822,0.022547704462000003,0.00584226944383,0.023068386542500003,-0.0158834934506,0.015554518721200002,1.3281481266,-0.33137506246599996,7.0756220817600015,0.36115404963500003,0.586207568645,0.24176879227200002,542213,1522663433,222000128,,['l_gripper_l_finger_joint'],"(0.0032494800670444966,)","(0.0,)","(0.0,)",1353748,1522663435,763723693,robotiq_force_torque_frame_id,0.314000117779,-1.44700016975,-0.620999526978,-0.032999999821200006,-0.19499999284699998,-0.119000002742,2.0,6.0,8.0,18.0,22.0,15.0,17.0,20.0,25.0,29.0,3,"(0.318305573199064, -0.815553406738067, 0.13814275757049982, 0.9999377972961766, -0.004352227397898343, -0.00938816830392429, 0.00416196480574432)",0.0,0.0,0.0,0.0,0.0,0.0
1522692235.81,22896,1522663435,785584926,,1371021,1522663433,246662759,,0.7931218953579999,-0.44979392129900003,0.128455405852,0.0309620907127,0.999453975168,-0.010090584554700001,0.005592902830159999,-0.00294650061331,-0.007081894782350001,0.00586264003487,0.0160898518368,0.000669795148776,-0.0212531285908,0.7853474020960001,-0.371681690216,7.040346145630001,0.426413416862,0.385617554188,0.268646895885,1371372,1522663433,254754665,,"['head_nod', 'head_pan', 'left_e0', 'left_e1', 'left_s0', 'left_s1', 'left_w0', 'left_w1', 'left_w2', 'right_e0', 'right_e1', 'right_s0', 'right_s1', 'right_w0', 'right_w1', 'right_w2', 'torso_t0']","(0.0, -0.10085923680346595, -0.9065826456402796, 1.5021506865367915, 0.2791845033951453, 0.6450389213058165, 2.3427721582979983, -0.48780589054756157, -0.03298058693953639, 0.4663301595171658, 0.9246069198979331, 0.3136990711225671, -0.7071651432151758, -0.37199034106221285, 1.4093448488697238, -0.03259709174256504, -12.565987119160338)","(0.0, 0.0, 0.0011780972448751821, 0.01531526418337737, -0.006283185306000972, 0.02120575040775328, 0.03180862561162992, 0.0, -0.0011780972448751821, 0.014529866020127248, -0.011780972448751823, 0.005890486224375911, -0.003926990816250607, -0.018849555918002914, 0.0035342917346255468, 0.010995574285501701, 0.0)","(0.0, 0.0, -14.556, 10.916, 0.216, 5.036, 0.096, -2.656, 0.336, 6.988, -16.072, 0.092, -28.996, -0.032, 0.22, -0.156, -20.48)",1353750,1522663435,784074014,robotiq_force_torque_frame_id,0.154000031948,-0.617000246048,-0.550999832153,-0.0289999991655,-0.193000003695,-0.12800000607999998,0.0,2.0,8.0,11.0,22.0,15.0,17.0,20.0,25.0,33.0,3,"(0.318305573199064, -0.815553406738067, 0.13814275757049982, 0.9999377972961766, -0.004352227397898343, -0.00938816830392429, 0.00416196480574432)",-0.160000085831,0.8299999237019999,0.06999969482500001,0.004000000655700005,0.0019999891519999757,-0.009000003337999982
1522692235.81,22897,1522663435,795578002,,1371022,1522663433,256656807,,0.793117338504,-0.44874665878799996,0.128194908453,0.030417453872099997,0.9994754136249999,-0.00980603534982,0.0052457344625,0.007572810920729999,0.00324009967895,0.008635678877200001,-0.0117224144774,-0.014334053737600001,0.0030735555499000005,1.30214524269,-0.36920517683,7.047860622410001,0.355234503746,0.589457690716,0.2576803267,1371373,1522663433,264728012,,"['head_nod', 'head_pan', 'left_e0', 'left_e1', 'left_s0', 'left_s1', 'left_w0', 'left_w1', 'left_w2', 'right_e0', 'right_e1', 'right_s0', 'right_s1', 'right_w0', 'right_w1', 'right_w2', 'torso_t0']","(0.0, -0.10085923680346595, -0.9069661408372509, 1.5021506865367915, 0.27880100819817394, 0.6450389213058165, 2.3423886631010267, -0.4866554049566475, -0.033364082136507746, 0.4663301595171658, 0.9246069198979331, 0.3129320807286244, -0.7075486384121471, -0.3708398554712988, 1.4089613536727525, -0.03298058693953639, -12.565987119160338)","(0.0, -0.0007853981632501215, -0.00039269908162506076, 0.015707963265002428, 0.012959069693627005, -0.01531526418337737, -0.00510508806112579, 0.012173671530376884, 0.0007853981632501215, 0.007853981632501214, -0.001570796326500243, 0.001570796326500243, -0.007853981632501214, -0.00510508806112579, 0.0035342917346255468, 0.009424777959001457, 0.0)","(0.0, 0.0, -14.588, 10.884, 0.152, 4.968, 0.084, -2.676, 0.324, 7.112, -15.984, 0.028, -29.024, -0.048, 0.22, -0.128, -20.48)",1353750,1522663435,784074014,robotiq_force_torque_frame_id,0.154000031948,-0.617000246048,-0.550999832153,-0.0289999991655,-0.193000003695,-0.12800000607999998,3.0,6.0,8.0,11.0,14.0,14.0,17.0,21.0,25.0,32.0,3,"(0.318305573199064, -0.815553406738067, 0.13814275757049982, 0.9999377972961766, -0.004352227397898343, -0.00938816830392429, 0.00416196480574432)",0.0,0.0,0.0,0.0,0.0,0.0
1522692235.81,22898,1522663435,805743932,,1371023,1522663433,266664002,,0.793251678616,-0.44891574910800003,0.128444204428,0.0306978269331,0.999469194145,-0.009334841053020002,0.005642173221819999,0.00273904627701,0.00285552681952,0.00676525953039,-0.0030487552631500003,-0.00733152870243,-0.0025805758689599998,0.338966697454,-0.16341201961,6.971234321589999,0.316717624664,0.205640345812,0.262729585171,542215,1522663433,272000000,,['l_gripper_l_finger_joint'],"(0.0032494800670444966,)","(0.0,)","(0.0,)",1353752,1522663435,804420542,robotiq_force_torque_frame_id,0.44399999380099997,0.212999916077,-0.650998306274,-0.032999999821200006,-0.179000005126,-0.145999997854,1.0,1.0,6.0,7.0,19.0,15.0,16.0,17.0,19.0,32.0,3,"(0.318305573199064, -0.815553406738067, 0.13814275757049982, 0.9999377972961766, -0.004352227397898343, -0.00938816830392429, 0.00416196480574432)",0.289999961853,0.8300001621249999,-0.09999847412100005,-0.004000000655700005,0.013999998569,-0.017999991774000024
1522692235.85,22899,1522663435,815578937,,1371025,1522663433,286663074,,0.7936910023989999,-0.44947992441699997,0.12890018114600002,0.0309077184085,0.9994563660950001,-0.00964773073729,0.00621341339288,0.0116698945991,-0.00861178393764,0.00978542119636,-0.0058266841681999994,-0.0319756739056,-0.0164330500481,0.543111801147,-0.254663676023,7.034334659580001,0.368947178125,0.339059412479,0.257619649172,542215,1522663433,272000000,,['l_gripper_l_finger_joint'],"(0.0032494800670444966,)","(0.0,)","(0.0,)",1353752,1522663435,804420542,robotiq_force_torque_frame_id,0.44399999380099997,0.212999916077,-0.650998306274,-0.032999999821200006,-0.179000005126,-0.145999997854,4.0,11.0,17.0,19.0,34.0,15.0,15.0,16.0,19.0,23.0,3,"(0.318305573199064, -0.815553406738067, 0.13814275757049982, 0.9999377972961766, -0.004352227397898343, -0.00938816830392429, 0.00416196480574432)",0.0,0.0,0.0,0.0,0.0,0.0
1522692235.85,22900,1522663435,825561046,,1371025,1522663433,286663074,,0.7936910023989999,-0.44947992441699997,0.12890018114600002,0.0309077184085,0.9994563660950001,-0.00964773073729,0.00621341339288,0.0116698945991,-0.00861178393764,0.00978542119636,-0.0058266841681999994,-0.0319756739056,-0.0164330500481,0.543111801147,-0.254663676023,7.034334659580001,0.368947178125,0.339059412479,0.257619649172,542215,1522663433,272000000,,['l_gripper_l_finger_joint'],"(0.0032494800670444966,)","(0.0,)","(0.0,)",1353754,1522663435,824768517,robotiq_force_torque_frame_id,0.594000089169,-0.317000055313,-0.521001052856,-0.0340000018477,-0.17499999702,-0.136999994516,7.0,7.0,9.0,17.0,34.0,13.0,15.0,15.0,19.0,23.0,3,"(0.318305573199064, -0.815553406738067, 0.13814275757049982, 0.9999377972961766, -0.004352227397898343, -0.00938816830392429, 0.00416196480574432)",0.15000009536800007,-0.52999997139,0.12999725341800006,-0.0010000020264999965,0.004000008106000014,0.009000003337999996
1522692235.85,22901,1522663435,835593938,,1371027,1522663433,306663357,,0.7935258701540001,-0.44877418224,0.128630891987,0.0305819342192,0.9994689613950001,-0.009600688525219999,0.00586236184595,-0.00667360194258,0.0047769214801999995,-0.0217315734755,-0.00166295638602,0.0247069715801,8.93831687627e-07,-0.304097831249,-0.153999000788,6.926256179810001,0.322219252586,0.0384647101164,0.257898151875,1371377,1522663433,304759244,,"['head_nod', 'head_pan', 'left_e0', 'left_e1', 'left_s0', 'left_s1', 'left_w0', 'left_w1', 'left_w2', 'right_e0', 'right_e1', 'right_s0', 'right_s1', 'right_w0', 'right_w1', 'right_w2', 'torso_t0']","(0.0, -0.1012427320004373, -0.9069661408372509, 1.5013836961428486, 0.2791845033951453, 0.6446554261088451, 2.3427721582979983, -0.48857288094150425, -0.03298058693953639, 0.4667136547141371, 0.9242234247009617, 0.3133155759255958, -0.7075486384121471, -0.37160684586524145, 1.4089613536727525, -0.03259709174256504, -12.565987119160338)","(0.0, 0.009424777959001457, -0.0047123889795007284, 0.0035342917346255468, 0.01021017612225158, 0.0023561944897503642, -0.004319689897875668, 0.023169245815878585, 0.0007853981632501215, -0.009032078877376396, 0.018064157754752792, 0.01021017612225158, 0.021598449489378342, -0.006675884387626033, -0.014922565101752308, 0.011780972448751823, 0.0)","(0.0, 0.0, -14.62, 10.948, 0.248, 5.068, 0.084, -2.664, 0.344, 7.048, -15.864, -0.092, -28.996, -0.048, 0.3, -0.12, -20.48)",1353754,1522663435,824768517,robotiq_force_torque_frame_id,0.594000089169,-0.317000055313,-0.521001052856,-0.0340000018477,-0.17499999702,-0.136999994516,9.0,16.0,17.0,18.0,28.0,15.0,15.0,15.0,15.0,16.0,3,"(0.318305573199064, -0.815553406738067, 0.13814275757049982, 0.9999377972961766, -0.004352227397898343, -0.00938816830392429, 0.00416196480574432)",0.0,0.0,0.0,0.0,0.0,0.0
1522692235.85,22902,1522663435,845942020,,1371028,1522663433,316656789,,0.793571348965,-0.4493222747899999,0.128591986964,0.0306440081532,0.9994612882430001,-0.0101233463388,0.005966232274890001,-0.0038545712349299997,0.0131266240535,-0.005560767380270001,0.0229811469839,0.013231576313499999,0.00753927713221,-0.460580855608,-0.131093561649,6.80345106125,0.310905337334,-0.07830034196380001,0.26113823056200003,1371378,1522663433,314754152,,"['head_nod', 'head_pan', 'left_e0', 'left_e1', 'left_s0', 'left_s1', 'left_w0', 'left_w1', 'left_w2', 'right_e0', 'right_e1', 'right_s0', 'right_s1', 'right_w0', 'right_w1', 'right_w2', 'torso_t0']","(0.0, -0.10085923680346595, -0.9069661408372509, 1.5021506865367915, 0.2784175130012026, 0.6450389213058165, 2.341621672707084, -0.48703890015361884, -0.033364082136507746, 0.4663301595171658, 0.9242234247009617, 0.3133155759255958, -0.7075486384121471, -0.3723738362591842, 1.408577858475781, -0.03259709174256504, -12.565987119160338)","(0.0, 0.0023561944897503642, 0.0019634954081253035, -0.01060287520387664, -0.008639379795751335, -0.007461282550876154, 0.014137166938502187, -0.0027488935713754254, -0.008639379795751335, 0.010995574285501701, 0.00510508806112579, 0.0, 0.007461282550876154, 0.010995574285501701, 0.006675884387626033, -0.00039269908162506076, 0.0)","(0.0, 0.0, -14.556, 10.884, 0.248, 5.068, 0.084, -2.648, 0.316, 7.02, -15.864, -0.092, -28.996, -0.032, 0.24, -0.128, -20.48)",1353756,1522663435,845113347,robotiq_force_torque_frame_id,0.00399993658066,-0.146999979019,-0.361001205444,-0.0270000007004,-0.193000003695,-0.125,8.0,14.0,16.0,18.0,28.0,15.0,15.0,18.0,20.0,26.0,3,"(0.318305573199064, -0.815553406738067, 0.13814275757049982, 0.9999377972961766, -0.004352227397898343, -0.00938816830392429, 0.00416196480574432)",-0.59000015258834,0.17000007629400002,0.15999984741199996,0.007000001147300001,-0.018000006675000013,0.011999994516000007
1522692235.89,22903,1522663435,855578899,,1371029,1522663433,326661852,,0.7936846720309999,-0.449465378811,0.128814105675,0.031098761003200002,0.999451331483,-0.00950495156532,0.006289591104850001,0.00546275949332,-0.0214631680829,0.024612968324500002,-0.0295264343934,-0.023590385282400005,-0.0242295240105,0.47287145257,-0.054855853319199996,6.85619735718,0.21011133491999998,0.286549538374,0.250337898731,542217,1522663433,323000064,,['l_gripper_l_finger_joint'],"(0.0032494800670444966,)","(0.0,)","(0.0,)",1353756,1522663435,845113347,robotiq_force_torque_frame_id,0.00399993658066,-0.146999979019,-0.361001205444,-0.0270000007004,-0.193000003695,-0.125,14.0,15.0,16.0,17.0,19.0,10.0,11.0,13.0,19.0,20.0,3,"(0.318305573199064, -0.815553406738067, 0.13814275757049982, 0.9999377972961766, -0.004352227397898343, -0.00938816830392429, 0.00416196480574432)",0.0,0.0,0.0,0.0,0.0,0.0
1522692235.89,22904,1522663435,865590095,,1371029,1522663433,326661852,,0.7936846720309999,-0.449465378811,0.128814105675,0.031098761003200002,0.999451331483,-0.00950495156532,0.006289591104850001,0.00546275949332,-0.0214631680829,0.024612968324500002,-0.0295264343934,-0.023590385282400005,-0.0242295240105,0.47287145257,-0.054855853319199996,6.85619735718,0.21011133491999998,0.286549538374,0.250337898731,542217,1522663433,323000064,,['l_gripper_l_finger_joint'],"(0.0032494800670444966,)","(0.0,)","(0.0,)",1353758,1522663435,865446512,robotiq_force_torque_frame_id,-0.0560000061989,1.2429998874700001,-0.29100151062,-0.0270000007004,-0.206000000238,-0.145999997854,10.0,11.0,16.0,17.0,28.0,10.0,11.0,13.0,15.0,19.0,3,"(0.318305573199064, -0.815553406738067, 0.13814275757049982, 0.9999377972961766, -0.004352227397898343, -0.00938816830392429, 0.00416196480574432)",-0.05999994277956,1.389999866489,0.06999969482399998,0.0,-0.012999996542999992,-0.020999997854000002
