time,.header.seq,.header.stamp.secs,.header.stamp.nsecs,.header.frame_id,.endpoint_state.header.seq,.endpoint_state.header.stamp.secs,.endpoint_state.header.stamp.nsecs,.endpoint_state.header.frame_id,.endpoint_state.pose.position.x,.endpoint_state.pose.position.y,.endpoint_state.pose.position.z,.endpoint_state.pose.orientation.x,.endpoint_state.pose.orientation.y,.endpoint_state.pose.orientation.z,.endpoint_state.pose.orientation.w,.endpoint_state.twist.linear.x,.endpoint_state.twist.linear.y,.endpoint_state.twist.linear.z,.endpoint_state.twist.angular.x,.endpoint_state.twist.angular.y,.endpoint_state.twist.angular.z,.endpoint_state.wrench.force.x,.endpoint_state.wrench.force.y,.endpoint_state.wrench.force.z,.endpoint_state.wrench.torque.x,.endpoint_state.wrench.torque.y,.endpoint_state.wrench.torque.z,.joint_state.header.seq,.joint_state.header.stamp.secs,.joint_state.header.stamp.nsecs,.joint_state.header.frame_id,.joint_state.name,.joint_state.position,.joint_state.velocity,.joint_state.effort,.wrench_stamped.header.seq,.wrench_stamped.header.stamp.secs,.wrench_stamped.header.stamp.nsecs,.wrench_stamped.header.frame_id,.wrench_stamped.wrench.force.x,.wrench_stamped.wrench.force.y,.wrench_stamped.wrench.force.z,.wrench_stamped.wrench.torque.x,.wrench_stamped.wrench.torque.y,.wrench_stamped.wrench.torque.z,.tactile_values.tactile_values_0,.tactile_values.tactile_values_1,.tactile_values.tactile_values_2,.tactile_values.tactile_values_3,.tactile_values.tactile_values_4,.tactile_values.tactile_values_5,.tactile_values.tactile_values_6,.tactile_values.tactile_values_7,.tactile_values.tactile_values_8,.tactile_values.tactile_values_9,.tag,.goal_vector,.delta_wrench.force.x,.delta_wrench.force.y,.delta_wrench.force.z,.delta_wrench.torque.x,.delta_wrench.torque.y,.delta_wrench.torque.z
1522699622.23,23406,1522670822,217114925,,2109643,1522670819,467077393,,0.794240105917,-0.448186565373,0.129498865494,0.0303358476579,0.999469155226,-0.00994488422974,0.00649949053179,0.00157382288543,-0.006573406149060001,-0.00904625311186,-0.0153418075951,0.000435744697538,-0.0082419453517,0.7535476684569999,-0.38598877191500003,7.02536916733,0.366145700216,0.398726463318,0.252391129732,2109994,1522670819,475170777,,"['head_nod', 'head_pan', 'left_e0', 'left_e1', 'left_s0', 'left_s1', 'left_w0', 'left_w1', 'left_w2', 'right_e0', 'right_e1', 'right_s0', 'right_s1', 'right_w0', 'right_w1', 'right_w2', 'torso_t0']","(0.0, -0.10085923680346595, -0.9073496360342223, 1.5013836961428486, 0.2791845033951453, 0.6450389213058165, 2.341621672707084, -0.48857288094150425, -0.033364082136507746, 0.46594666432019444, 0.9230729391100477, 0.3156165471074239, -0.7083156288060898, -0.37160684586524145, 1.4093448488697238, -0.03259709174256504, -12.565987119160338)","(0.0, 0.003141592653000486, 0.007853981632501214, -0.013351768775252066, 0.008639379795751335, -0.0023561944897503642, 0.0, -0.009032078877376396, -0.0011780972448751821, 0.012959069693627005, -0.0070685834692510935, -0.006675884387626033, -0.0027488935713754254, -0.001570796326500243, 0.01610066234662749, -0.0007853981632501215, 0.0)","(0.0, 0.0, -14.62, 10.98, 0.152, 5.068, 0.096, -2.636, 0.296, 6.956, -16.044, -0.06, -28.936, -0.016, 0.208, -0.128, -20.48)",2091610,1522670822,216197827,robotiq_force_torque_frame_id,0.125000047684,-2.01100001335,0.454001998901,-0.0540000014007,-0.212999999523,-0.137999996543,11.0,15.0,15.0,19.0,34.0,48.0,51.0,60.0,61.0,65.0,3,"(0.318305573199064, -0.815553406738067, 0.13814275757049982, 0.9999377972961767, -0.004352227397898112, -0.009388168303922454, 0.004161964805750543)",0.0,0.0,0.0,0.0,0.0,0.0
1522699622.23,23407,1522670822,227108955,,2109644,1522670819,477076829,,0.794311365354,-0.447861859438,0.129452466334,0.029884335268399998,0.9994818298370001,-0.0100768809286,0.00643854040379,-0.00153058794043,0.00136224658749,0.00581467534684,0.00649642095861,0.0027442925001900003,6.40510659854e-05,0.883234918118,-0.429127454758,6.912810325619999,0.415152341127,0.4204249084,0.242792829871,2109994,1522670819,475170777,,"['head_nod', 'head_pan', 'left_e0', 'left_e1', 'left_s0', 'left_s1', 'left_w0', 'left_w1', 'left_w2', 'right_e0', 'right_e1', 'right_s0', 'right_s1', 'right_w0', 'right_w1', 'right_w2', 'torso_t0']","(0.0, -0.10085923680346595, -0.9073496360342223, 1.5013836961428486, 0.2791845033951453, 0.6450389213058165, 2.341621672707084, -0.48857288094150425, -0.033364082136507746, 0.46594666432019444, 0.9230729391100477, 0.3156165471074239, -0.7083156288060898, -0.37160684586524145, 1.4093448488697238, -0.03259709174256504, -12.565987119160338)","(0.0, 0.003141592653000486, 0.007853981632501214, -0.013351768775252066, 0.008639379795751335, -0.0023561944897503642, 0.0, -0.009032078877376396, -0.0011780972448751821, 0.012959069693627005, -0.0070685834692510935, -0.006675884387626033, -0.0027488935713754254, -0.001570796326500243, 0.01610066234662749, -0.0007853981632501215, 0.0)","(0.0, 0.0, -14.62, 10.98, 0.152, 5.068, 0.096, -2.636, 0.296, 6.956, -16.044, -0.06, -28.936, -0.016, 0.208, -0.128, -20.48)",2091610,1522670822,216197827,robotiq_force_torque_frame_id,0.125000047684,-2.01100001335,0.454001998901,-0.0540000014007,-0.212999999523,-0.137999996543,11.0,19.0,22.0,27.0,35.0,50.0,51.0,55.0,60.0,61.0,3,"(0.318305573199064, -0.815553406738067, 0.13814275757049982, 0.9999377972961767, -0.004352227397898112, -0.009388168303922454, 0.004161964805750543)",0.0,0.0,0.0,0.0,0.0,0.0
1522699622.24,23408,1522670822,237116098,,2109645,1522670819,487064944,,0.7941609743770001,-0.44867529318899996,0.129634494835,0.0305669370988,0.999460281649,-0.0101447581204,0.0064723754709899994,-0.005387987405010001,-0.0031428932210599996,0.00338063308927,0.00511797704417,0.005897310361970001,-0.00140445789213,0.752336859703,-0.41936391592,6.896483898160001,0.39700061082800003,0.354647815228,0.247374594212,834446,1522670819,492999936,,['r_gripper_l_finger_joint'],"(0.019915511825680732,)","(0.0,)","(0.0,)",2091612,1522670822,236564327,robotiq_force_torque_frame_id,0.175,-1.1810000896500001,0.48400077819799997,-0.052999999374199996,-0.212999999523,-0.115999996662,15.0,21.0,25.0,28.0,33.0,47.0,50.0,55.0,57.0,63.0,3,"(0.318305573199064, -0.815553406738067, 0.13814275757049982, 0.9999377972961767, -0.004352227397898112, -0.009388168303922454, 0.004161964805750543)",0.04999995231599999,0.8299999236999998,0.029998779296999956,0.0010000020265000034,0.0,0.021999999880999987
1522699622.25,23409,1522670822,247102975,,2109645,1522670819,487064944,,0.7941609743770001,-0.44867529318899996,0.129634494835,0.0305669370988,0.999460281649,-0.0101447581204,0.0064723754709899994,-0.005387987405010001,-0.0031428932210599996,0.00338063308927,0.00511797704417,0.005897310361970001,-0.00140445789213,0.752336859703,-0.41936391592,6.896483898160001,0.39700061082800003,0.354647815228,0.247374594212,834447,1522670819,505999872,,['l_gripper_l_finger_joint'],"(0.0032494800670444966,)","(0.0,)","(0.0,)",2091612,1522670822,236564327,robotiq_force_torque_frame_id,0.175,-1.1810000896500001,0.48400077819799997,-0.052999999374199996,-0.212999999523,-0.115999996662,15.0,21.0,25.0,28.0,33.0,45.0,48.0,55.0,57.0,63.0,3,"(0.318305573199064, -0.815553406738067, 0.13814275757049982, 0.9999377972961767, -0.004352227397898112, -0.009388168303922454, 0.004161964805750543)",0.0,0.0,0.0,0.0,0.0,0.0
1522699622.26,23410,1522670822,257091999,,2109647,1522670819,507076583,,0.79433498879,-0.447953904021,0.129173554134,0.030409633094599996,0.999466697886,-0.0100468667444,0.00637451963633,0.00395053040656,-9.90605995446e-06,-0.0118260514454,-0.00306134742135,0.000566351511716,-0.00269948153301,1.006914258,-0.328696340322,6.969375133510001,0.33868932724,0.47619843483,0.248979389668,834447,1522670819,505999872,,['l_gripper_l_finger_joint'],"(0.0032494800670444966,)","(0.0,)","(0.0,)",2091614,1522670822,256901700,robotiq_force_torque_frame_id,0.905000019073,-1.5210000038100002,0.35399971008299996,-0.0540000014007,-0.216999992728,-0.129999995232,14.0,16.0,26.0,27.0,34.0,48.0,52.0,56.0,62.0,62.0,3,"(0.318305573199064, -0.815553406738067, 0.13814275757049982, 0.9999377972961767, -0.004352227397898112, -0.009388168303922454, 0.004161964805750543)",0.730000019073,-0.3399999141600001,-0.130001068115,-0.0010000020265000034,-0.0039999932049999964,-0.013999998570000005
1522699622.27,23411,1522670822,267153978,,2109648,1522670819,517074491,,0.794609368558,-0.448202355907,0.12977165213,0.030440436791500002,0.9994613290889999,-0.010175460090100001,0.00684773499728,-0.00600289866878,0.00855750999161,-0.010500510687,0.033119476715099995,0.0172769664061,-0.0197327106304,0.8511602878569999,-0.38566583395000004,6.8884425163300005,0.372524678707,0.392142146826,0.257738023996,834447,1522670819,505999872,,['l_gripper_l_finger_joint'],"(0.0032494800670444966,)","(0.0,)","(0.0,)",2091614,1522670822,256901700,robotiq_force_torque_frame_id,0.905000019073,-1.5210000038100002,0.35399971008299996,-0.0540000014007,-0.216999992728,-0.129999995232,14.0,14.0,16.0,18.0,34.0,52.0,55.0,57.0,62.0,62.0,3,"(0.318305573199064, -0.815553406738067, 0.13814275757049982, 0.9999377972961767, -0.004352227397898112, -0.009388168303922454, 0.004161964805750543)",0.0,0.0,0.0,0.0,0.0,0.0
1522699622.28,23412,1522670822,277185916,,2109648,1522670819,517074491,,0.794609368558,-0.448202355907,0.12977165213,0.030440436791500002,0.9994613290889999,-0.010175460090100001,0.00684773499728,-0.00600289866878,0.00855750999161,-0.010500510687,0.033119476715099995,0.0172769664061,-0.0197327106304,0.8511602878569999,-0.38566583395000004,6.8884425163300005,0.372524678707,0.392142146826,0.257738023996,2109998,1522670819,515156405,,"['head_nod', 'head_pan', 'left_e0', 'left_e1', 'left_s0', 'left_s1', 'left_w0', 'left_w1', 'left_w2', 'right_e0', 'right_e1', 'right_s0', 'right_s1', 'right_w0', 'right_w1', 'right_w2', 'torso_t0']","(0.0, -0.10085923680346595, -0.9065826456402796, 1.5013836961428486, 0.27880100819817394, 0.6446554261088451, 2.3427721582979983, -0.48742239535059023, -0.03298058693953639, 0.4663301595171658, 0.922305948716105, 0.31523305191045253, -0.7083156288060898, -0.37199034106221285, 1.4093448488697238, -0.03183010134862233, -12.565987119160338)","(0.0, 0.008639379795751335, 0.009817477040626518, 0.01610066234662749, 0.003926990816250607, 0.001570796326500243, -0.01610066234662749, 0.009032078877376396, -0.005890486224375911, 0.003926990816250607, 0.0, -0.006675884387626033, 0.01610066234662749, 0.022776546734253524, 0.006675884387626033, 0.012173671530376884, 0.0)","(0.0, 0.0, -14.588, 10.916, 0.0, 5.068, 0.076, -2.648, 0.288, 6.924, -16.044, 0.0, -28.968, -0.008, 0.18, -0.156, -20.48)",2091615,1522670822,269103710,robotiq_force_torque_frame_id,0.105000066757,-2.46099982262,0.284000015259,-0.054999999702,-0.211999997497,-0.10400000214600001,12.0,18.0,24.0,24.0,32.0,55.0,57.0,61.0,62.0,75.0,3,"(0.318305573199064, -0.815553406738067, 0.13814275757049982, 0.9999377972961767, -0.004352227397898112, -0.009388168303922454, 0.004161964805750543)",-0.799999952316,-0.9399998188099996,-0.06999969482399998,-0.0009999983013000008,0.004999995231000004,0.025999993085999998
1522699622.29,23413,1522670822,287116050,,2109649,1522670819,527131531,,0.794335772218,-0.448245962127,0.12984147646299998,0.030146141626400003,0.999472001855,-0.0101686970922,0.006597367156239999,-0.00209592951264,0.025017095539,0.0060118100852299995,0.0272585592357,0.006475975849,0.0185765393197,0.8048694133759999,-0.387349516153,6.923501968380001,0.37736174464199995,0.389381617308,0.24638684094000002,2109998,1522670819,515156405,,"['head_nod', 'head_pan', 'left_e0', 'left_e1', 'left_s0', 'left_s1', 'left_w0', 'left_w1', 'left_w2', 'right_e0', 'right_e1', 'right_s0', 'right_s1', 'right_w0', 'right_w1', 'right_w2', 'torso_t0']","(0.0, -0.10085923680346595, -0.9065826456402796, 1.5013836961428486, 0.27880100819817394, 0.6446554261088451, 2.3427721582979983, -0.48742239535059023, -0.03298058693953639, 0.4663301595171658, 0.922305948716105, 0.31523305191045253, -0.7083156288060898, -0.37199034106221285, 1.4093448488697238, -0.03183010134862233, -12.565987119160338)","(0.0, 0.008639379795751335, 0.009817477040626518, 0.01610066234662749, 0.003926990816250607, 0.001570796326500243, -0.01610066234662749, 0.009032078877376396, -0.005890486224375911, 0.003926990816250607, 0.0, -0.006675884387626033, 0.01610066234662749, 0.022776546734253524, 0.006675884387626033, 0.012173671530376884, 0.0)","(0.0, 0.0, -14.588, 10.916, 0.0, 5.068, 0.076, -2.648, 0.288, 6.924, -16.044, 0.0, -28.968, -0.008, 0.18, -0.156, -20.48)",2091616,1522670822,277251249,robotiq_force_torque_frame_id,-0.34499998092699996,-2.1109999179799996,0.36400184631300003,-0.057000000029800005,-0.207000002265,-0.11500000208599999,7.0,8.0,10.0,24.0,24.0,47.0,49.0,64.0,73.0,75.0,3,"(0.7304051285822, -0.14688998502857, 0.0002745182705378574, 0.8234686073436988, -0.5671722198665323, -0.010370151381278211, 0.01037235226110811)",-0.4500000476839999,0.3499999046400002,0.08000183105400005,-0.002000000327800004,0.004999995231999982,-0.010999999939999977
1522699622.33,23414,1522670822,298043966,,2109649,1522670819,527131531,,0.794335772218,-0.448245962127,0.12984147646299998,0.030146141626400003,0.999472001855,-0.0101686970922,0.006597367156239999,-0.00209592951264,0.025017095539,0.0060118100852299995,0.0272585592357,0.006475975849,0.0185765393197,0.8048694133759999,-0.387349516153,6.923501968380001,0.37736174464199995,0.389381617308,0.24638684094000002,834448,1522670819,543000064,,['r_gripper_l_finger_joint'],"(0.019915511825680732,)","(0.0,)","(0.0,)",2091618,1522670822,297630683,robotiq_force_torque_frame_id,-0.624999952316,-1.7910002231599997,0.443999862671,-0.0579999983311,-0.207000002265,-0.123000003397,8.0,10.0,12.0,15.0,24.0,59.0,64.0,70.0,81.0,89.0,3,"(0.7304051285822, -0.14688998502857, 0.0002745182705378574, 0.8234686073436988, -0.5671722198665323, -0.010370151381278211, 0.01037235226110811)",-0.27999997138900007,0.3199996948199999,0.07999801635799997,-0.0009999983012999938,0.0,-0.00800000131100001
1522699622.33,23415,1522670822,307105064,,2109651,1522670819,547148755,,0.794332507885,-0.447864088899,0.129080725797,0.0296980545386,0.999486179086,-0.0103140443025,0.00624690819289,0.010243131103799999,-0.0215988359095,0.006305685706409999,-0.031318247906,-0.028753883580099997,-0.000634945479623,1.1372125148799999,-0.46904823183999994,6.96280765533,0.412997066975,0.522395133972,0.24382102489500002,834448,1522670819,543000064,,['r_gripper_l_finger_joint'],"(0.019915511825680732,)","(0.0,)","(0.0,)",2091619,1522670822,305780072,robotiq_force_torque_frame_id,-0.79500002861,-1.9409998416900003,0.423999404907,-0.052000001072899996,-0.206000000238,-0.119000002742,6.0,6.0,12.0,12.0,20.0,59.0,70.0,74.0,81.0,89.0,3,"(0.7304051285822, -0.14688998502857, 0.0002745182705378574, 0.8234686073436988, -0.5671722198665323, -0.010370151381278211, 0.01037235226110811)",-0.17000007629399994,-0.14999961853000054,-0.020000457764,0.005999997258200003,0.0010000020270000132,0.004000000655000002
1522699622.33,23416,1522670822,317127943,,2109651,1522670819,547148755,,0.794332507885,-0.447864088899,0.129080725797,0.0296980545386,0.999486179086,-0.0103140443025,0.00624690819289,0.010243131103799999,-0.0215988359095,0.006305685706409999,-0.031318247906,-0.028753883580099997,-0.000634945479623,1.1372125148799999,-0.46904823183999994,6.96280765533,0.412997066975,0.522395133972,0.24382102489500002,834448,1522670819,543000064,,['r_gripper_l_finger_joint'],"(0.019915511825680732,)","(0.0,)","(0.0,)",2091619,1522670822,305780072,robotiq_force_torque_frame_id,-0.79500002861,-1.9409998416900003,0.423999404907,-0.052000001072899996,-0.206000000238,-0.119000002742,12.0,12.0,15.0,16.0,20.0,62.0,66.0,68.0,74.0,76.0,3,"(0.7304051285822, -0.14688998502857, 0.0002745182705378574, 0.8234686073436988, -0.5671722198665323, -0.010370151381278211, 0.01037235226110811)",0.0,0.0,0.0,0.0,0.0,0.0
1522699622.37,23417,1522670822,327104091,,2109651,1522670819,547148755,,0.794332507885,-0.447864088899,0.129080725797,0.0296980545386,0.999486179086,-0.0103140443025,0.00624690819289,0.010243131103799999,-0.0215988359095,0.006305685706409999,-0.031318247906,-0.028753883580099997,-0.000634945479623,1.1372125148799999,-0.46904823183999994,6.96280765533,0.412997066975,0.522395133972,0.24382102489500002,834449,1522670819,556000000,,['l_gripper_l_finger_joint'],"(0.0032494800670444966,)","(0.0,)","(0.0,)",2091621,1522670822,326123596,robotiq_force_torque_frame_id,-0.995000076294,-1.44100008011,0.64400062561,-0.0630000010133,-0.20000000298,-0.10800000280099999,15.0,15.0,16.0,18.0,21.0,58.0,62.0,66.0,66.0,68.0,3,"(0.7304051285822, -0.14688998502857, 0.0002745182705378574, 0.8234686073436988, -0.5671722198665323, -0.010370151381278211, 0.01037235226110811)",-0.20000004768400004,0.49999976158000026,0.22000122070300004,-0.010999999940400004,0.005999997257999989,0.01099999994100001
1522699622.37,23418,1522670822,337122917,,2109654,1522670819,577151333,,0.794020873455,-0.449831294485,0.129373092329,0.0314136669462,0.999432251331,-0.010308218408100001,0.00648823252148,0.000257531126107,-0.00482377705114,-0.00475437441674,0.00069689101302,-0.00298405215295,-0.006138600701210001,0.473953187466,-0.313485890627,6.854447841640001,0.36799728870399995,0.263569802046,0.262719750404,834449,1522670819,556000000,,['l_gripper_l_finger_joint'],"(0.0032494800670444966,)","(0.0,)","(0.0,)",2091621,1522670822,326123596,robotiq_force_torque_frame_id,-0.995000076294,-1.44100008011,0.64400062561,-0.0630000010133,-0.20000000298,-0.10800000280099999,13.0,16.0,18.0,21.0,32.0,55.0,58.0,64.0,66.0,85.0,3,"(0.7304051285822, -0.14688998502857, 0.0002745182705378574, 0.8234686073436988, -0.5671722198665323, -0.010370151381278211, 0.01037235226110811)",0.0,0.0,0.0,0.0,0.0,0.0
1522699622.37,23419,1522670822,347094058,,2109655,1522670819,587137566,,0.794515080934,-0.449186511943,0.130275257938,0.030911522267400002,0.999441828226,-0.010558270857200002,0.00700233524618,0.006322274550439999,-0.00156723637104,0.004301063081100001,0.00783745929578,-0.019319699906099996,-0.006223219082779999,0.572154283524,-0.41500815749200004,6.869758129119999,0.423070132732,0.295023709536,0.300190985203,834450,1522670819,592999936,,['r_gripper_l_finger_joint'],"(0.019915511825680732,)","(0.0,)","(0.0,)",2091623,1522670822,346549701,robotiq_force_torque_frame_id,-1.575,-0.780999994278,0.554000473022,-0.0680000036955,-0.19699999690099998,-0.136999994516,10.0,16.0,18.0,21.0,32.0,55.0,57.0,58.0,71.0,94.0,3,"(0.7304051285822, -0.14688998502857, 0.0002745182705378574, 0.8234686073436988, -0.5671722198665323, -0.010370151381278211, 0.01037235226110811)",-0.579999923706,0.660000085832,-0.09000015258800009,-0.005000002682199994,0.0030000060790000282,-0.02899999171500002
1522699622.37,23420,1522670822,357114076,,2109655,1522670819,587137566,,0.794515080934,-0.449186511943,0.130275257938,0.030911522267400002,0.999441828226,-0.010558270857200002,0.00700233524618,0.006322274550439999,-0.00156723637104,0.004301063081100001,0.00783745929578,-0.019319699906099996,-0.006223219082779999,0.572154283524,-0.41500815749200004,6.869758129119999,0.423070132732,0.295023709536,0.300190985203,2110006,1522670819,595240504,,"['head_nod', 'head_pan', 'left_e0', 'left_e1', 'left_s0', 'left_s1', 'left_w0', 'left_w1', 'left_w2', 'right_e0', 'right_e1', 'right_s0', 'right_s1', 'right_w0', 'right_w1', 'right_w2', 'torso_t0']","(0.0, -0.10085923680346595, -0.9065826456402796, 1.50176719133982, 0.2791845033951453, 0.6454224165027879, 2.3431556534949696, -0.48857288094150425, -0.033364082136507746, 0.46594666432019444, 0.9230729391100477, 0.31523305191045253, -0.7079321336091184, -0.37160684586524145, 1.4093448488697238, -0.03259709174256504, -12.565987119160338)","(0.0, 0.003141592653000486, 0.006283185306000972, -0.005890486224375911, 0.007853981632501214, 0.003141592653000486, -0.007461282550876154, -0.019634954081253035, 0.0035342917346255468, 0.009424777959001457, 0.005890486224375911, 0.0070685834692510935, 0.001570796326500243, -0.0023561944897503642, 0.014137166938502187, -0.009424777959001457, 0.0)","(0.0, 0.0, -14.652, 10.884, 0.28, 5.1, 0.112, -2.656, 0.288, 6.924, -15.984, 0.092, -28.936, -0.016, 0.2, -0.12, -20.48)",2091623,1522670822,346549701,robotiq_force_torque_frame_id,-1.575,-0.780999994278,0.554000473022,-0.0680000036955,-0.19699999690099998,-0.136999994516,13.0,15.0,17.0,24.0,25.0,57.0,58.0,66.0,68.0,94.0,3,"(0.7304051285822, -0.14688998502857, 0.0002745182705378574, 0.8234686073436988, -0.5671722198665323, -0.010370151381278211, 0.01037235226110811)",0.0,0.0,0.0,0.0,0.0,0.0
1522699622.41,23421,1522670822,367243051,,2109657,1522670819,607126544,,0.794255312164,-0.44808176033999997,0.129542570825,0.0302419223926,0.999474663269,-0.0096254386111,0.0065707340042099995,0.00418949352216,-0.00411666667111,0.0132572256985,0.00274465336319,-0.0229054881236,-0.0164976409462,0.75511854887,-0.24178318679299998,6.77360057831,0.258044600487,0.38966289162600004,0.24311010539500003,834451,1522670819,607000064,,['l_gripper_l_finger_joint'],"(0.0032494800670444966,)","(0.0,)","(0.0,)",2091625,1522670822,366890248,robotiq_force_torque_frame_id,-1.22500009537,-1.44100008011,0.624000167847,-0.0619999989867,-0.19699999690099998,-0.129999995232,17.0,17.0,18.0,25.0,29.0,54.0,65.0,68.0,70.0,81.0,3,"(0.7304051285822, -0.14688998502857, 0.0002745182705378574, 0.8234686073436988, -0.5671722198665323, -0.010370151381278211, 0.01037235226110811)",0.34999990462999997,-0.660000085832,0.06999969482500001,0.006000004708799994,0.0,0.006999999283999997
1522699622.41,23422,1522670822,377113103,,2109657,1522670819,607126544,,0.794255312164,-0.44808176033999997,0.129542570825,0.0302419223926,0.999474663269,-0.0096254386111,0.0065707340042099995,0.00418949352216,-0.00411666667111,0.0132572256985,0.00274465336319,-0.0229054881236,-0.0164976409462,0.75511854887,-0.24178318679299998,6.77360057831,0.258044600487,0.38966289162600004,0.24311010539500003,2110007,1522670819,605227533,,"['head_nod', 'head_pan', 'left_e0', 'left_e1', 'left_s0', 'left_s1', 'left_w0', 'left_w1', 'left_w2', 'right_e0', 'right_e1', 'right_s0', 'right_s1', 'right_w0', 'right_w1', 'right_w2', 'torso_t0']","(0.0, -0.10085923680346595, -0.9065826456402796, 1.50176719133982, 0.27880100819817394, 0.6450389213058165, 2.3420051679040554, -0.4881893857445329, -0.033364082136507746, 0.4667136547141371, 0.9230729391100477, 0.3144660615165098, -0.7083156288060898, -0.3712233506682701, 1.4093448488697238, -0.03259709174256504, -12.565987119160338)","(0.0, -0.005890486224375911, 0.003141592653000486, 0.006675884387626033, -0.02670353755050413, 0.0035342917346255468, 0.0019634954081253035, 0.012566370612001944, -0.006675884387626033, 0.004319689897875668, 0.0047123889795007284, -0.011780972448751823, -0.021598449489378342, 0.009424777959001457, -0.005497787142750851, 0.007853981632501214, 0.0)","(0.0, 0.0, -14.652, 10.948, 0.248, 5.036, 0.104, -2.664, 0.26, 6.86, -15.952, 0.092, -28.908, -0.024, 0.208, -0.156, -20.48)",2091625,1522670822,366890248,robotiq_force_torque_frame_id,-1.22500009537,-1.44100008011,0.624000167847,-0.0619999989867,-0.19699999690099998,-0.129999995232,12.0,17.0,18.0,21.0,29.0,54.0,65.0,69.0,70.0,81.0,3,"(0.7304051285822, -0.14688998502857, 0.0002745182705378574, 0.8234686073436988, -0.5671722198665323, -0.010370151381278211, 0.01037235226110811)",0.0,0.0,0.0,0.0,0.0,0.0
1522699622.41,23423,1522670822,387089014,,2109658,1522670819,617128152,,0.7945849564640001,-0.447818059348,0.129382577319,0.029795292307500002,0.9994827760420001,-0.0100861871585,0.00668504154534,0.0115224586429,0.007787479471260001,-0.00206387577998,-0.0102738587544,-0.023164805773299997,0.0092080749799,0.562310278416,-0.211668178439,6.75184106827,0.311427563429,0.312781780958,0.262152582407,2110009,1522670819,625199497,,"['head_nod', 'head_pan', 'left_e0', 'left_e1', 'left_s0', 'left_s1', 'left_w0', 'left_w1', 'left_w2', 'right_e0', 'right_e1', 'right_s0', 'right_s1', 'right_w0', 'right_w1', 'right_w2', 'torso_t0']","(0.0, -0.1012427320004373, -0.9069661408372509, 1.50176719133982, 0.2791845033951453, 0.6446554261088451, 2.3420051679040554, -0.4881893857445329, -0.033364082136507746, 0.46594666432019444, 0.922305948716105, 0.31523305191045253, -0.7083156288060898, -0.37199034106221285, 1.4089613536727525, -0.03183010134862233, -12.565987119160338)","(0.0, 0.0, -0.0019634954081253035, 0.006675884387626033, 0.008246680714126275, -0.009032078877376396, 0.008639379795751335, 0.008639379795751335, -0.006283185306000972, -0.0070685834692510935, 0.01060287520387664, 0.00039269908162506076, 0.0047123889795007284, -0.0023561944897503642, -0.006675884387626033, 0.003926990816250607, 0.0)","(0.0, 0.0, -14.652, 10.916, 0.28, 5.1, 0.084, -2.664, 0.268, 6.892, -15.984, -0.06, -28.908, -0.032, 0.22, -0.148, -20.48)",2091627,1522670822,387231631,robotiq_force_torque_frame_id,-0.825,-1.8910001277900002,0.284000015259,-0.06499999761580001,-0.216000005603,-0.10400000214600001,10.0,15.0,18.0,25.0,33.0,59.0,60.0,69.0,77.0,91.0,3,"(0.7304051285822, -0.14688998502857, 0.0002745182705378574, 0.8234686073436988, -0.5671722198665323, -0.010370151381278211, 0.01037235226110811)",0.40000009537000003,-0.4500000476800001,-0.340000152588,-0.002999998629100012,-0.019000008702000026,0.025999993085999998
1522699622.41,23424,1522670822,397099971,,2109660,1522670819,637129418,,0.7945496328180001,-0.448287550375,0.129722293688,0.030209979669400002,0.999469240159,-0.0101216099446,0.00679324054948,-0.0130260503473,-0.0182627317398,-0.005826681421180001,-0.016116346699700003,0.028878756428999997,-0.0239832350312,-0.166618466377,-0.342967659235,6.7202472686800006,0.409493565559,0.0226272270083,0.302010655403,2110009,1522670819,625199497,,"['head_nod', 'head_pan', 'left_e0', 'left_e1', 'left_s0', 'left_s1', 'left_w0', 'left_w1', 'left_w2', 'right_e0', 'right_e1', 'right_s0', 'right_s1', 'right_w0', 'right_w1', 'right_w2', 'torso_t0']","(0.0, -0.1012427320004373, -0.9069661408372509, 1.50176719133982, 0.2791845033951453, 0.6446554261088451, 2.3420051679040554, -0.4881893857445329, -0.033364082136507746, 0.46594666432019444, 0.922305948716105, 0.31523305191045253, -0.7083156288060898, -0.37199034106221285, 1.4089613536727525, -0.03183010134862233, -12.565987119160338)","(0.0, 0.0, -0.0019634954081253035, 0.006675884387626033, 0.008246680714126275, -0.009032078877376396, 0.008639379795751335, 0.008639379795751335, -0.006283185306000972, -0.0070685834692510935, 0.01060287520387664, 0.00039269908162506076, 0.0047123889795007284, -0.0023561944897503642, -0.006675884387626033, 0.003926990816250607, 0.0)","(0.0, 0.0, -14.652, 10.916, 0.28, 5.1, 0.084, -2.664, 0.268, 6.892, -15.984, -0.06, -28.908, -0.032, 0.22, -0.148, -20.48)",2091628,1522670822,396374724,robotiq_force_torque_frame_id,-1.10499997139,-1.75099978447,0.434001541138,-0.052999999374199996,-0.21400000155,-0.10599999874800001,11.0,15.0,18.0,25.0,33.0,60.0,62.0,66.0,77.0,91.0,3,"(0.7304051285822, -0.14688998502857, 0.0002745182705378574, 0.8234686073436988, -0.5671722198665323, -0.010370151381278211, 0.01037235226110811)",-0.2799999713900001,0.1400003433200001,0.150001525879,0.011999998241600016,0.002000004052999993,-0.0019999966019999954
1522699622.45,23425,1522670822,407116889,,2109660,1522670819,637129418,,0.7945496328180001,-0.448287550375,0.129722293688,0.030209979669400002,0.999469240159,-0.0101216099446,0.00679324054948,-0.0130260503473,-0.0182627317398,-0.005826681421180001,-0.016116346699700003,0.028878756428999997,-0.0239832350312,-0.166618466377,-0.342967659235,6.7202472686800006,0.409493565559,0.0226272270083,0.302010655403,2110011,1522670819,645212280,,"['head_nod', 'head_pan', 'left_e0', 'left_e1', 'left_s0', 'left_s1', 'left_w0', 'left_w1', 'left_w2', 'right_e0', 'right_e1', 'right_s0', 'right_s1', 'right_w0', 'right_w1', 'right_w2', 'torso_t0']","(0.0, -0.10085923680346595, -0.9069661408372509, 1.50176719133982, 0.2795679985921167, 0.6450389213058165, 2.3420051679040554, -0.4881893857445329, -0.033364082136507746, 0.46594666432019444, 0.922305948716105, 0.3148495567134812, -0.7083156288060898, -0.37199034106221285, 1.4093448488697238, -0.032213596545593685, -12.565987119160338)","(0.0, 0.004319689897875668, 0.007853981632501214, 0.00039269908162506076, -0.01727875959150267, 0.0023561944897503642, -0.0007853981632501215, 0.0047123889795007284, 0.0007853981632501215, 0.01727875959150267, -0.02120575040775328, 0.0007853981632501215, 0.01727875959150267, 0.018064157754752792, -0.001570796326500243, -0.015707963265002428, 0.0)","(0.0, 0.0, -14.62, 11.012, 0.216, 5.132, 0.096, -2.656, 0.28, 7.048, -15.924, 0.0, -28.88, -0.024, 0.22, -0.14, -20.48)",2091628,1522670822,396374724,robotiq_force_torque_frame_id,-1.10499997139,-1.75099978447,0.434001541138,-0.052999999374199996,-0.21400000155,-0.10599999874800001,18.0,19.0,28.0,33.0,50.0,61.0,61.0,66.0,71.0,87.0,3,"(0.7304051285822, -0.14688998502857, 0.0002745182705378574, 0.8234686073436988, -0.5671722198665323, -0.010370151381278211, 0.01037235226110811)",0.0,0.0,0.0,0.0,0.0,0.0
1522699622.45,23426,1522670822,417090892,,2109662,1522670819,657133085,,0.794413569764,-0.44746500343,0.129037990262,0.029603627920900003,0.999492713257,-0.00985064081616,0.00639579835263,0.00931845371376,0.0008407387546289999,-0.000593684092641,-0.00441393980284,-0.0180397046515,0.00589218290077,0.18355748057399998,-0.33537209034000004,6.717750549319999,0.333009451628,0.150724619627,0.25119009614,834453,1522670819,656999936,,['l_gripper_l_finger_joint'],"(0.0032494800670444966,)","(0.0,)","(0.0,)",2091630,1522670822,416690607,robotiq_force_torque_frame_id,-0.7050001144410001,-0.14099988937400001,0.204001998901,-0.0460000000894,-0.204999998212,-0.129999995232,13.0,17.0,18.0,19.0,49.0,59.0,59.0,61.0,61.0,91.0,3,"(0.7304051285822, -0.14688998502857, 0.0002745182705378574, 0.8234686073436988, -0.5671722198665323, -0.010370151381278211, 0.01037235226110811)",0.399999856949,1.609999895096,-0.229999542237,0.006999999284799996,0.009000003338000023,-0.023999996484000002
1522699622.45,23427,1522670822,427094936,,2109663,1522670819,667130809,,0.794114640773,-0.44822000217,0.129171479352,0.0300282286805,0.9994795539390001,-0.010039412551,0.006175511045390001,0.00583533368705,-0.009920624389530001,0.0083960862319,-0.016842202435099998,-0.0189873072066,-0.00482529953841,0.306457877159,-0.263260751963,6.76967525482,0.337064117193,0.19914664328099999,0.276845991611,834453,1522670819,656999936,,['l_gripper_l_finger_joint'],"(0.0032494800670444966,)","(0.0,)","(0.0,)",2091630,1522670822,416690607,robotiq_force_torque_frame_id,-0.7050001144410001,-0.14099988937400001,0.204001998901,-0.0460000000894,-0.204999998212,-0.129999995232,13.0,17.0,25.0,28.0,49.0,56.0,59.0,64.0,66.0,91.0,3,"(0.7304051285822, -0.14688998502857, 0.0002745182705378574, 0.8234686073436988, -0.5671722198665323, -0.010370151381278211, 0.01037235226110811)",0.0,0.0,0.0,0.0,0.0,0.0
1522699622.45,23428,1522670822,437131881,,2109663,1522670819,667130809,,0.794114640773,-0.44822000217,0.129171479352,0.0300282286805,0.9994795539390001,-0.010039412551,0.006175511045390001,0.00583533368705,-0.009920624389530001,0.0083960862319,-0.016842202435099998,-0.0189873072066,-0.00482529953841,0.306457877159,-0.263260751963,6.76967525482,0.337064117193,0.19914664328099999,0.276845991611,2110013,1522670819,665239342,,"['head_nod', 'head_pan', 'left_e0', 'left_e1', 'left_s0', 'left_s1', 'left_w0', 'left_w1', 'left_w2', 'right_e0', 'right_e1', 'right_s0', 'right_s1', 'right_w0', 'right_w1', 'right_w2', 'torso_t0']","(0.0, -0.1012427320004373, -0.9069661408372509, 1.50176719133982, 0.2784175130012026, 0.6450389213058165, 2.3420051679040554, -0.4881893857445329, -0.03298058693953639, 0.4667136547141371, 0.9226894439130764, 0.3148495567134812, -0.7075486384121471, -0.3723738362591842, 1.4097283440666952, -0.03259709174256504, -12.565987119160338)","(0.0, 0.0019634954081253035, 0.019242254999627974, 0.008639379795751335, -0.003141592653000486, -0.001570796326500243, -0.011388273367126762, 0.0035342917346255468, -0.003926990816250607, 0.0023561944897503642, -0.006283185306000972, -0.00510508806112579, -0.008639379795751335, -0.013351768775252066, -0.005890486224375911, 0.0011780972448751821, 0.0)","(0.0, 0.0, -14.62, 10.948, 0.124, 5.036, 0.096, -2.676, 0.288, 6.956, -15.924, 0.0, -28.936, -0.008, 0.208, -0.168, -20.48)",2091631,1522670822,428900736,robotiq_force_torque_frame_id,-0.805000019073,-0.120999908447,0.36400184631300003,-0.0500000007451,-0.212999999523,-0.135000005364,17.0,18.0,23.0,28.0,36.0,55.0,61.0,64.0,65.0,91.0,3,"(0.7304051285822, -0.14688998502857, 0.0002745182705378574, 0.8234686073436988, -0.5671722198665323, -0.010370151381278211, 0.01037235226110811)",-0.09999990463199993,0.01999998092700002,0.15999984741200005,-0.004000000655699998,-0.00800000131100001,-0.0050000101319999934
1522699622.45,23429,1522670822,447144031,,2109665,1522670819,687153746,,0.794592384468,-0.447976070696,0.129258280742,0.0300823276957,0.9994765435799999,-0.00983894195363,0.00669982197549,-0.00119194119522,-0.00348382135658,0.00654373806379,0.008598305879450001,-0.0052637363301,-0.0183665729862,1.0382142067,-0.299383968115,6.794847011569999,0.281757324934,0.499615371227,0.23584789037700002,834454,1522670819,694000128,,['r_gripper_l_finger_joint'],"(0.019915511825680732,)","(0.0,)","(0.0,)",2091632,1522670822,437048839,robotiq_force_torque_frame_id,-1.09499998093,0.179000043869,0.614001846313,-0.0500000007451,-0.216000005603,-0.137999996543,18.0,23.0,23.0,24.0,36.0,57.0,61.0,65.0,66.0,91.0,3,"(0.7304051285822, -0.14688998502857, 0.0002745182705378574, 0.8234686073436988, -0.5671722198665323, -0.010370151381278211, 0.01037235226110811)",-0.28999996185699994,0.299999952316,0.25,0.0,-0.003000006080000006,-0.002999991178999989
1522699622.46,23430,1522670822,457108020,,2109665,1522670819,687153746,,0.794592384468,-0.447976070696,0.129258280742,0.0300823276957,0.9994765435799999,-0.00983894195363,0.00669982197549,-0.00119194119522,-0.00348382135658,0.00654373806379,0.008598305879450001,-0.0052637363301,-0.0183665729862,1.0382142067,-0.299383968115,6.794847011569999,0.281757324934,0.499615371227,0.23584789037700002,834454,1522670819,694000128,,['r_gripper_l_finger_joint'],"(0.019915511825680732,)","(0.0,)","(0.0,)",2091633,1522670822,449208494,robotiq_force_torque_frame_id,-1.1549999237100002,0.22899999618500003,0.673999404907,-0.0500000007451,-0.215000003576,-0.15099999308599998,23.0,23.0,33.0,35.0,35.0,57.0,57.0,58.0,64.0,87.0,3,"(0.7304051285822, -0.14688998502857, 0.0002745182705378574, 0.8234686073436988, -0.5671722198665323, -0.010370151381278211, 0.01037235226110811)",-0.059999942780000204,0.04999995231600002,0.05999755859400002,0.0,0.0010000020270000132,-0.012999996542999992
1522699622.47,23431,1522670822,467156887,,2109666,1522670819,697128080,,0.794961782772,-0.447570753705,0.129823376816,0.029710759892599997,0.9994808941150001,-0.010243145983,0.007091615202790001,-0.00218871827037,0.0030816146232499997,-0.0047749403210299995,-0.00468770891159,0.011756456204600002,0.0140192419695,0.748320221901,-0.0795467495918,6.792952537540001,0.24992340803100002,0.37245199084299996,0.246319502592,834455,1522670819,707000064,,['l_gripper_l_finger_joint'],"(0.0032494800670444966,)","(0.0,)","(0.0,)",2091635,1522670822,465508539,robotiq_force_torque_frame_id,-0.8349999904629999,-0.600999927521,0.254001235962,-0.0439999997616,-0.215000003576,-0.131999999285,23.0,23.0,33.0,35.0,35.0,57.0,60.0,61.0,64.0,84.0,3,"(0.7304051285822, -0.14688998502857, 0.0002745182705378574, 0.8234686073436988, -0.5671722198665323, -0.010370151381278211, 0.01037235226110811)",0.31999993324700027,-0.829999923706,-0.419998168945,0.006000000983499995,0.0,0.01899999380099998
1522699622.48,23432,1522670822,477102994,,2109668,1522670819,717132969,,0.7945647358490001,-0.448176777205,0.129521259376,0.029805281854599998,0.999478735767,-0.010474256028,0.006647697566689999,-0.00794350634257,-0.00331196967768,-0.00101842595726,0.010329110535200001,0.00999590354708,-0.00995023118011,1.0874015092799998,-0.45910120010399996,6.83402776718,0.391586899757,0.48942342400600003,0.241318106651,834455,1522670819,707000064,,['l_gripper_l_finger_joint'],"(0.0032494800670444966,)","(0.0,)","(0.0,)",2091635,1522670822,465508539,robotiq_force_torque_frame_id,-0.8349999904629999,-0.600999927521,0.254001235962,-0.0439999997616,-0.215000003576,-0.131999999285,18.0,23.0,25.0,33.0,40.0,61.0,61.0,65.0,74.0,84.0,3,"(0.7304051285822, -0.14688998502857, 0.0002745182705378574, 0.8234686073436988, -0.5671722198665323, -0.010370151381278211, 0.01037235226110811)",0.0,0.0,0.0,0.0,0.0,0.0
1522699622.49,23433,1522670822,487091064,,2109668,1522670819,717132969,,0.7945647358490001,-0.448176777205,0.129521259376,0.029805281854599998,0.999478735767,-0.010474256028,0.006647697566689999,-0.00794350634257,-0.00331196967768,-0.00101842595726,0.010329110535200001,0.00999590354708,-0.00995023118011,1.0874015092799998,-0.45910120010399996,6.83402776718,0.391586899757,0.48942342400600003,0.241318106651,2110018,1522670819,715243932,,"['head_nod', 'head_pan', 'left_e0', 'left_e1', 'left_s0', 'left_s1', 'left_w0', 'left_w1', 'left_w2', 'right_e0', 'right_e1', 'right_s0', 'right_s1', 'right_w0', 'right_w1', 'right_w2', 'torso_t0']","(0.0, -0.10085923680346595, -0.9069661408372509, 1.5021506865367915, 0.27880100819817394, 0.6446554261088451, 2.3427721582979983, -0.48780589054756157, -0.033364082136507746, 0.4663301595171658, 0.922305948716105, 0.3156165471074239, -0.7079321336091184, -0.3727573314561555, 1.4093448488697238, -0.03259709174256504, -12.565987119160338)","(0.0, -0.003141592653000486, 0.0019634954081253035, -0.0011780972448751821, 0.008639379795751335, -0.010995574285501701, 0.009424777959001457, -0.01727875959150267, 0.0070685834692510935, 0.0011780972448751821, 0.015707963265002428, -0.014137166938502187, -0.006675884387626033, 0.01021017612225158, 0.0027488935713754254, 0.00039269908162506076, 0.0)","(0.0, 0.0, -14.684, 10.948, 0.184, 5.1, 0.096, -2.664, 0.268, 6.892, -16.044, -0.028, -28.908, -0.024, 0.188, -0.14, -20.48)",2091637,1522670822,485844675,robotiq_force_torque_frame_id,0.11500005722000001,-0.360999917984,0.234000778198,-0.0560000017285,-0.20800000429200002,-0.15000000596,18.0,20.0,23.0,25.0,29.0,61.0,62.0,74.0,74.0,74.0,3,"(0.7304051285822, -0.14688998502857, 0.0002745182705378574, 0.8234686073436988, -0.5671722198665323, -0.010370151381278211, 0.01037235226110811)",0.950000047683,0.24000000953699996,-0.02000045776400003,-0.012000001966899994,0.006999999283999969,-0.018000006674999985
1522699622.5,23434,1522670822,497100114,,2109669,1522670819,727168551,,0.7949124708249999,-0.44828905603600006,0.129908973441,0.030313933926900002,0.999462228671,-0.010210615895700001,0.0072154135945200005,0.00491740059838,0.009345889512840001,0.00525245347705,-0.012104059294799999,-0.0055293179306900005,0.00793479140026,0.9952284097669999,-0.274154186249,6.79797077179,0.31044137477899997,0.453667461872,0.237248316407,834456,1522670819,744000000,,['r_gripper_l_finger_joint'],"(0.019915511825680732,)","(0.0,)","(0.0,)",2091637,1522670822,485844675,robotiq_force_torque_frame_id,0.11500005722000001,-0.360999917984,0.234000778198,-0.0560000017285,-0.20800000429200002,-0.15000000596,16.0,16.0,17.0,20.0,29.0,58.0,59.0,70.0,71.0,74.0,3,"(0.7304051285822, -0.14688998502857, 0.0002745182705378574, 0.8234686073436988, -0.5671722198665323, -0.010370151381278211, 0.01037235226110811)",0.0,0.0,0.0,0.0,0.0,0.0
1522699622.51,23435,1522670822,507139921,,2109671,1522670819,747133855,,0.7948516761390001,-0.448230212188,0.130070442992,0.0299888893542,0.9994695800360001,-0.0105441877674,0.0070742633813799995,0.00253179381498,-0.00043106022831099997,0.0030891040173600002,0.0178145243164,-0.0112910591552,-0.007498447699310001,1.18878448009,-0.48550915718099996,6.96565389633,0.415652096272,0.53335493803,0.239382535219,2110021,1522670819,745183102,,"['head_nod', 'head_pan', 'left_e0', 'left_e1', 'left_s0', 'left_s1', 'left_w0', 'left_w1', 'left_w2', 'right_e0', 'right_e1', 'right_s0', 'right_s1', 'right_w0', 'right_w1', 'right_w2', 'torso_t0']","(0.0, -0.10085923680346595, -0.9065826456402796, 1.50176719133982, 0.27880100819817394, 0.6450389213058165, 2.341621672707084, -0.48742239535059023, -0.03298058693953639, 0.4655631691232231, 0.9219224535191337, 0.3160000423043952, -0.7086991240030611, -0.37199034106221285, 1.4093448488697238, -0.03259709174256504, -12.565987119160338)","(0.0, 0.008639379795751335, 0.009032078877376396, -0.005890486224375911, -0.0011780972448751821, 0.005890486224375911, -0.019242254999627974, -0.001570796326500243, -0.008639379795751335, 0.027881634795379313, -0.005890486224375911, -0.021991148571003403, 0.0035342917346255468, -0.0019634954081253035, 0.00039269908162506076, 0.0019634954081253035, 0.0)","(0.0, 0.0, -14.652, 10.98, 0.184, 5.068, 0.096, -2.628, 0.268, 6.892, -16.104, -0.028, -28.968, -0.008, 0.188, -0.14, -20.48)",2091639,1522670822,506222559,robotiq_force_torque_frame_id,-0.584999990463,-0.701000070572,0.443999862671,-0.0540000014007,-0.202000007033,-0.12800000607999998,14.0,18.0,25.0,26.0,34.0,58.0,59.0,66.0,70.0,71.0,3,"(0.7304051285822, -0.14688998502857, 0.0002745182705378574, 0.8234686073436988, -0.5671722198665323, -0.010370151381278211, 0.01037235226110811)",-0.700000047683,-0.340000152588,0.209999084473,0.0020000003277999973,0.005999997259000023,0.02199999988000001
1522699622.52,23436,1522670822,517266035,,2109671,1522670819,747133855,,0.7948516761390001,-0.448230212188,0.130070442992,0.0299888893542,0.9994695800360001,-0.0105441877674,0.0070742633813799995,0.00253179381498,-0.00043106022831099997,0.0030891040173600002,0.0178145243164,-0.0112910591552,-0.007498447699310001,1.18878448009,-0.48550915718099996,6.96565389633,0.415652096272,0.53335493803,0.239382535219,834457,1522670819,758000128,,['l_gripper_l_finger_joint'],"(0.0032494800670444966,)","(0.0,)","(0.0,)",2091639,1522670822,506222559,robotiq_force_torque_frame_id,-0.584999990463,-0.701000070572,0.443999862671,-0.0540000014007,-0.202000007033,-0.12800000607999998,14.0,18.0,25.0,26.0,34.0,59.0,59.0,60.0,70.0,82.0,3,"(0.7304051285822, -0.14688998502857, 0.0002745182705378574, 0.8234686073436988, -0.5671722198665323, -0.010370151381278211, 0.01037235226110811)",0.0,0.0,0.0,0.0,0.0,0.0
1522699622.53,23437,1522670822,527127981,,2109672,1522670819,757133131,,0.794499783577,-0.44829265899099996,0.12943192893,0.030217350427099998,0.9994691996449999,-0.0101432371273,0.00673390183575,0.007437343756659999,-0.0105482666762,0.0075613598173,0.00946671028148,-0.029521614569099998,-0.025341133267900003,1.06471455097,-0.492979556322,6.890087127689999,0.388083159924,0.49599006772,0.26848080754299997,2110023,1522670819,765227193,,"['head_nod', 'head_pan', 'left_e0', 'left_e1', 'left_s0', 'left_s1', 'left_w0', 'left_w1', 'left_w2', 'right_e0', 'right_e1', 'right_s0', 'right_s1', 'right_w0', 'right_w1', 'right_w2', 'torso_t0']","(0.0, -0.1012427320004373, -0.9069661408372509, 1.5021506865367915, 0.27803401780423126, 0.6450389213058165, 2.3431556534949696, -0.48742239535059023, -0.03298058693953639, 0.4651796739262517, 0.9219224535191337, 0.3148495567134812, -0.7083156288060898, -0.37199034106221285, 1.4093448488697238, -0.03259709174256504, -12.565987119160338)","(0.0, 0.014529866020127248, -0.0007853981632501215, 0.0070685834692510935, 0.013744467856877126, -0.005497787142750851, 0.007461282550876154, 0.004319689897875668, 0.012566370612001944, -0.014922565101752308, 0.012566370612001944, -0.022776546734253524, -0.0019634954081253035, 0.005890486224375911, -0.0023561944897503642, -0.008639379795751335, 0.0)","(0.0, 0.0, -14.524, 10.916, 0.308, 5.1, 0.068, -2.664, 0.26, 6.956, -16.104, 0.124, -28.968, -0.016, 0.2, -0.148, -20.48)",2091641,1522670822,526591504,robotiq_force_torque_frame_id,-2.2349999666200002,0.45900001525899997,0.39400062561,-0.054999999702,-0.211999997497,-0.129999995232,18.0,21.0,25.0,27.0,33.0,55.0,59.0,60.0,70.0,82.0,3,"(0.7304051285822, -0.14688998502857, 0.0002745182705378574, 0.8234686073436988, -0.5671722198665323, -0.010370151381278211, 0.01037235226110811)",-1.6499999761570003,1.160000085831,-0.04999923706100001,-0.0009999983013000008,-0.009999990463999991,-0.0019999891520000312
1522699622.54,23438,1522670822,537108898,,2109674,1522670819,777127609,,0.794004234209,-0.44865595511600004,0.129196168252,0.030458020173499998,0.999466438912,-0.009998457512200002,0.00625918066277,0.00263562972575,0.0177823048681,-0.0032301555303499998,0.00446426072622,0.008344454214529999,0.017367178470599997,1.25230920315,-0.191560342908,6.935955524439999,0.28175792098,0.552520632744,0.248565644026,2110023,1522670819,765227193,,"['head_nod', 'head_pan', 'left_e0', 'left_e1', 'left_s0', 'left_s1', 'left_w0', 'left_w1', 'left_w2', 'right_e0', 'right_e1', 'right_s0', 'right_s1', 'right_w0', 'right_w1', 'right_w2', 'torso_t0']","(0.0, -0.1012427320004373, -0.9069661408372509, 1.5021506865367915, 0.27803401780423126, 0.6450389213058165, 2.3431556534949696, -0.48742239535059023, -0.03298058693953639, 0.4651796739262517, 0.9219224535191337, 0.3148495567134812, -0.7083156288060898, -0.37199034106221285, 1.4093448488697238, -0.03259709174256504, -12.565987119160338)","(0.0, 0.014529866020127248, -0.0007853981632501215, 0.0070685834692510935, 0.013744467856877126, -0.005497787142750851, 0.007461282550876154, 0.004319689897875668, 0.012566370612001944, -0.014922565101752308, 0.012566370612001944, -0.022776546734253524, -0.0019634954081253035, 0.005890486224375911, -0.0023561944897503642, -0.008639379795751335, 0.0)","(0.0, 0.0, -14.524, 10.916, 0.308, 5.1, 0.068, -2.664, 0.26, 6.956, -16.104, 0.124, -28.968, -0.016, 0.2, -0.148, -20.48)",2091641,1522670822,526591504,robotiq_force_torque_frame_id,-2.2349999666200002,0.45900001525899997,0.39400062561,-0.054999999702,-0.211999997497,-0.129999995232,21.0,25.0,28.0,28.0,36.0,55.0,55.0,63.0,74.0,90.0,3,"(0.7304051285822, -0.14688998502857, 0.0002745182705378574, 0.8234686073436988, -0.5671722198665323, -0.010370151381278211, 0.01037235226110811)",0.0,0.0,0.0,0.0,0.0,0.0
1522699622.58,23439,1522670822,547096014,,2109674,1522670819,777127609,,0.794004234209,-0.44865595511600004,0.129196168252,0.030458020173499998,0.999466438912,-0.009998457512200002,0.00625918066277,0.00263562972575,0.0177823048681,-0.0032301555303499998,0.00446426072622,0.008344454214529999,0.017367178470599997,1.25230920315,-0.191560342908,6.935955524439999,0.28175792098,0.552520632744,0.248565644026,834458,1522670819,793999872,,['r_gripper_l_finger_joint'],"(0.019915511825680732,)","(0.0,)","(0.0,)",2091643,1522670822,546886961,robotiq_force_torque_frame_id,-0.945000123978,-0.0409999847412,0.193999862671,-0.054999999702,-0.20800000429200002,-0.12800000607999998,15.0,21.0,22.0,28.0,36.0,55.0,59.0,63.0,77.0,90.0,3,"(0.7304051285822, -0.14688998502857, 0.0002745182705378574, 0.8234686073436988, -0.5671722198665323, -0.010370151381278211, 0.01037235226110811)",1.289999842642,-0.5000000000002,-0.200000762939,0.0,0.003999993204999969,0.0019999891520000312
1522699622.58,23440,1522670822,557090044,,2109676,1522670819,797140815,,0.794421794086,-0.448007863335,0.129079816829,0.0301090130789,0.99947440639,-0.0101365818517,0.00645042723341,0.004511362183630001,0.0018822785106300001,-0.00450966086155,-0.0055367293344,-0.00358321301943,-0.00128679873154,0.602918446064,-0.51789855957,6.89237880707,0.43448311090499997,0.296231538057,0.25885391235399996,2110026,1522670819,795227935,,"['head_nod', 'head_pan', 'left_e0', 'left_e1', 'left_s0', 'left_s1', 'left_w0', 'left_w1', 'left_w2', 'right_e0', 'right_e1', 'right_s0', 'right_s1', 'right_w0', 'right_w1', 'right_w2', 'torso_t0']","(0.0, -0.1012427320004373, -0.9061991504433081, 1.5010002009458774, 0.27880100819817394, 0.6454224165027879, 2.341621672707084, -0.4881893857445329, -0.033364082136507746, 0.46594666432019444, 0.9226894439130764, 0.3156165471074239, -0.7075486384121471, -0.37199034106221285, 1.4089613536727525, -0.032213596545593685, -12.565987119160338)","(0.0, 0.003141592653000486, -0.006283185306000972, -0.01767145867312773, -0.0027488935713754254, -0.0011780972448751821, 0.015707963265002428, -0.00510508806112579, -0.0019634954081253035, 0.005890486224375911, -0.008639379795751335, 0.005497787142750851, 0.012566370612001944, -0.013744467856877126, -0.005890486224375911, 0.009817477040626518, 0.0)","(0.0, 0.0, -14.72, 10.916, 0.248, 5.068, 0.076, -2.636, 0.288, 6.892, -16.044, -0.152, -28.996, -0.016, 0.188, -0.148, -20.48)",2091643,1522670822,546886961,robotiq_force_torque_frame_id,-0.945000123978,-0.0409999847412,0.193999862671,-0.054999999702,-0.20800000429200002,-0.12800000607999998,14.0,15.0,22.0,25.0,50.0,59.0,60.0,69.0,77.0,92.0,3,"(0.7304051285822, -0.14688998502857, 0.0002745182705378574, 0.8234686073436988, -0.5671722198665323, -0.010370151381278211, 0.01037235226110811)",0.0,0.0,0.0,0.0,0.0,0.0
1522699622.58,23441,1522670822,567596912,,2109677,1522670819,807134267,,0.794500793493,-0.449044471342,0.129609807182,0.030379010984900003,0.999459062489,-0.0106307036259,0.006759159780100001,0.006756642413270001,0.0006716201780419999,0.0109911588592,-0.029048653428099997,-0.0137297747239,0.0318097852863,0.769429922104,-0.393328934908,6.96337509155,0.3925986588,0.39523512125,0.229093551636,834459,1522670819,808999936,,['l_gripper_l_finger_joint'],"(0.0032494800670444966,)","(0.0,)","(0.0,)",2091645,1522670822,567237590,robotiq_force_torque_frame_id,-0.48500008583099996,-0.890999889374,0.263999557495,-0.0460000000894,-0.215000003576,-0.11500000208599999,14.0,15.0,17.0,25.0,50.0,59.0,60.0,69.0,83.0,84.0,3,"(0.7304051285822, -0.14688998502857, 0.0002745182705378574, 0.8234686073436988, -0.5671722198665323, -0.010370151381278211, 0.01037235226110811)",0.4600000381470001,-0.8499999046328,0.06999969482399998,0.0089999996126,-0.006999999283999969,0.01300000399399999
1522699622.62,23442,1522670822,577099084,,2109677,1522670819,807134267,,0.794500793493,-0.449044471342,0.129609807182,0.030379010984900003,0.999459062489,-0.0106307036259,0.006759159780100001,0.006756642413270001,0.0006716201780419999,0.0109911588592,-0.029048653428099997,-0.0137297747239,0.0318097852863,0.769429922104,-0.393328934908,6.96337509155,0.3925986588,0.39523512125,0.229093551636,2110027,1522670819,805240359,,"['head_nod', 'head_pan', 'left_e0', 'left_e1', 'left_s0', 'left_s1', 'left_w0', 'left_w1', 'left_w2', 'right_e0', 'right_e1', 'right_s0', 'right_s1', 'right_w0', 'right_w1', 'right_w2', 'torso_t0']","(0.0, -0.10085923680346595, -0.9061991504433081, 1.5021506865367915, 0.27880100819817394, 0.6446554261088451, 2.3420051679040554, -0.48742239535059023, -0.03259709174256504, 0.46594666432019444, 0.9219224535191337, 0.3148495567134812, -0.7079321336091184, -0.3727573314561555, 1.4093448488697238, -0.03259709174256504, -12.565987119160338)","(0.0, -0.003926990816250607, -0.0019634954081253035, -0.01767145867312773, -0.015707963265002428, 0.018849555918002914, 0.012959069693627005, 0.0047123889795007284, 0.006675884387626033, -0.0019634954081253035, -0.001570796326500243, 0.01649336142825255, -0.015707963265002428, -0.02042035224450316, -0.0011780972448751821, -0.014137166938502187, 0.0)","(0.0, 0.0, -14.72, 10.98, 0.216, 5.004, 0.104, -2.636, 0.28, 6.924, -16.044, -0.06, -28.996, -0.016, 0.22, -0.12, -20.48)",2091645,1522670822,567237590,robotiq_force_torque_frame_id,-0.48500008583099996,-0.890999889374,0.263999557495,-0.0460000000894,-0.215000003576,-0.11500000208599999,11.0,13.0,21.0,28.0,69.0,60.0,62.0,70.0,82.0,83.0,3,"(0.7304051285822, -0.14688998502857, 0.0002745182705378574, 0.8234686073436988, -0.5671722198665323, -0.010370151381278211, 0.01037235226110811)",0.0,0.0,0.0,0.0,0.0,0.0
1522699622.62,23443,1522670822,587105989,,2109678,1522670819,817133119,,0.7945721244889999,-0.448111449142,0.129174917915,0.0302438274217,0.999470784814,-0.00988506208918,0.0067636346538900004,0.00408840581413,0.0162689249398,-0.00422477920759,0.0193794810632,-0.0022545881840900003,0.0265682779447,0.783726215363,-0.495350182056,6.9473624229399995,0.415936112404,0.39323842525499997,0.25836703181299997,2110029,1522670819,825232094,,"['head_nod', 'head_pan', 'left_e0', 'left_e1', 'left_s0', 'left_s1', 'left_w0', 'left_w1', 'left_w2', 'right_e0', 'right_e1', 'right_s0', 'right_s1', 'right_w0', 'right_w1', 'right_w2', 'torso_t0']","(0.0, -0.10085923680346595, -0.9065826456402796, 1.5010002009458774, 0.2791845033951453, 0.6450389213058165, 2.3420051679040554, -0.4881893857445329, -0.033364082136507746, 0.4655631691232231, 0.9219224535191337, 0.3144660615165098, -0.7079321336091184, -0.3723738362591842, 1.408577858475781, -0.032213596545593685, -12.565987119160338)","(0.0, 0.004319689897875668, 0.01727875959150267, 0.02081305132612822, 0.001570796326500243, 0.003141592653000486, 0.013351768775252066, -0.003141592653000486, 0.00510508806112579, -0.01021017612225158, 0.01021017612225158, -0.008639379795751335, 0.0007853981632501215, 0.0027488935713754254, -0.005890486224375911, 0.013351768775252066, 0.0)","(0.0, 0.0, -14.652, 10.916, 0.308, 5.004, 0.084, -2.676, 0.288, 6.86, -16.044, -0.124, -28.996, -0.016, 0.208, -0.14, -20.48)",2091646,1522670822,579448528,robotiq_force_torque_frame_id,-0.404999923706,-0.7710000038150001,0.39400062561,-0.046999998390699994,-0.20999999344300002,-0.11299999803300001,13.0,19.0,21.0,28.0,69.0,66.0,66.0,76.0,82.0,95.0,3,"(0.7304051285822, -0.14688998502857, 0.0002745182705378574, 0.8234686073436988, -0.5671722198665323, -0.010370151381278211, 0.01037235226110811)",0.08000016212499994,0.11999988555899987,0.130001068115,-0.0009999983012999938,0.005000010132999971,0.002000004052999979
1522699622.62,23444,1522670822,597110033,,2109680,1522670819,837126458,,0.7939873696009999,-0.448330977404,0.128940026593,0.030265107942099998,0.9994741770990001,-0.009916523787680001,0.00608729076089,-0.00671686849619,-0.014917903335400001,-0.00589285420836,-0.00987668428451,0.0141431265237,-0.0205831936777,0.93413746357,-0.35880979895599996,6.99535179138,0.331796556711,0.46145132183999993,0.242273062468,2110029,1522670819,825232094,,"['head_nod', 'head_pan', 'left_e0', 'left_e1', 'left_s0', 'left_s1', 'left_w0', 'left_w1', 'left_w2', 'right_e0', 'right_e1', 'right_s0', 'right_s1', 'right_w0', 'right_w1', 'right_w2', 'torso_t0']","(0.0, -0.10085923680346595, -0.9065826456402796, 1.5010002009458774, 0.2791845033951453, 0.6450389213058165, 2.3420051679040554, -0.4881893857445329, -0.033364082136507746, 0.4655631691232231, 0.9219224535191337, 0.3144660615165098, -0.7079321336091184, -0.3723738362591842, 1.408577858475781, -0.032213596545593685, -12.565987119160338)","(0.0, 0.004319689897875668, 0.01727875959150267, 0.02081305132612822, 0.001570796326500243, 0.003141592653000486, 0.013351768775252066, -0.003141592653000486, 0.00510508806112579, -0.01021017612225158, 0.01021017612225158, -0.008639379795751335, 0.0007853981632501215, 0.0027488935713754254, -0.005890486224375911, 0.013351768775252066, 0.0)","(0.0, 0.0, -14.652, 10.916, 0.308, 5.004, 0.084, -2.676, 0.288, 6.86, -16.044, -0.124, -28.996, -0.016, 0.208, -0.14, -20.48)",2091648,1522670822,595725280,robotiq_force_torque_frame_id,0.0449998855591,-0.17100009918200001,0.464000320435,-0.05099999904630001,-0.221000000834,-0.149000003934,16.0,18.0,19.0,23.0,52.0,72.0,74.0,76.0,87.0,95.0,3,"(0.7304051285822, -0.14688998502857, 0.0002745182705378574, 0.8234686073436988, -0.5671722198665323, -0.010370151381278211, 0.01037235226110811)",0.4499998092651,0.5999999046330001,0.06999969482500001,-0.004000000655600015,-0.011000007390999988,-0.036000005901
1522699622.62,23445,1522670822,607110023,,2109680,1522670819,837126458,,0.7939873696009999,-0.448330977404,0.128940026593,0.030265107942099998,0.9994741770990001,-0.009916523787680001,0.00608729076089,-0.00671686849619,-0.014917903335400001,-0.00589285420836,-0.00987668428451,0.0141431265237,-0.0205831936777,0.93413746357,-0.35880979895599996,6.99535179138,0.331796556711,0.46145132183999993,0.242273062468,2110031,1522670819,845221825,,"['head_nod', 'head_pan', 'left_e0', 'left_e1', 'left_s0', 'left_s1', 'left_w0', 'left_w1', 'left_w2', 'right_e0', 'right_e1', 'right_s0', 'right_s1', 'right_w0', 'right_w1', 'right_w2', 'torso_t0']","(0.0, -0.1004757416064946, -0.9069661408372509, 1.5021506865367915, 0.27880100819817394, 0.6446554261088451, 2.3420051679040554, -0.48780589054756157, -0.03298058693953639, 0.4663301595171658, 0.9226894439130764, 0.31523305191045253, -0.7079321336091184, -0.37160684586524145, 1.4093448488697238, -0.032213596545593685, -12.565987119160338)","(0.0, -0.009424777959001457, -0.009032078877376396, 0.009424777959001457, 0.01727875959150267, -0.0027488935713754254, 0.01688606050987761, -0.0011780972448751821, 0.0019634954081253035, 0.003141592653000486, -0.0011780972448751821, -0.01021017612225158, -0.023169245815878585, 0.0035342917346255468, 0.01610066234662749, 0.004319689897875668, 0.0)","(0.0, 0.0, -14.588, 10.916, 0.184, 5.068, 0.076, -2.664, 0.268, 7.02, -16.012, -0.092, -28.968, -0.032, 0.208, -0.148, -20.48)",2091648,1522670822,595725280,robotiq_force_torque_frame_id,0.0449998855591,-0.17100009918200001,0.464000320435,-0.05099999904630001,-0.221000000834,-0.149000003934,16.0,18.0,18.0,23.0,43.0,70.0,74.0,85.0,87.0,96.0,3,"(0.7304051285822, -0.14688998502857, 0.0002745182705378574, 0.8234686073436988, -0.5671722198665323, -0.010370151381278211, 0.01037235226110811)",0.0,0.0,0.0,0.0,0.0,0.0
1522699622.66,23446,1522670822,617110013,,2109682,1522670819,857139703,,0.794206780949,-0.44792159984700003,0.129152836045,0.029976902799299997,0.999478170586,-0.010315485503999999,0.006193753317229999,0.0118768239836,0.0198598778367,0.00425493789107,0.00307228042863,-0.0139854102265,0.0381703089109,0.49634787440300004,-0.404370009899,6.85280895233,0.409988641739,0.24781924486200002,0.266275465488,834461,1522670819,860000000,,['l_gripper_l_finger_joint'],"(0.0032494800670444966,)","(0.0,)","(0.0,)",2091650,1522670822,616070092,robotiq_force_torque_frame_id,-1.33499999046,-1.46100006104,-0.115997695923,-0.0540000014007,-0.21799999475499998,-0.115999996662,13.0,18.0,23.0,43.0,51.0,68.0,70.0,73.0,84.0,85.0,3,"(0.7304051285822, -0.14688998502857, 0.0002745182705378574, 0.8234686073436988, -0.5671722198665323, -0.010370151381278211, 0.01037235226110811)",-1.3799998760191001,-1.289999961858,-0.579998016358,-0.00300000235439999,0.0030000060790000282,0.033000007272000004
1522699622.66,23447,1522670822,627099037,,2109683,1522670819,867133782,,0.794196207953,-0.44901136800499997,0.129169130903,0.0304633955167,0.999460819323,-0.0104712277859,0.00635653679419,0.0063419916753,0.010534372368100002,-0.00482698513408,0.0329288057989,-0.0113738355492,-0.0151320110721,0.675211429596,-0.39414477348300003,6.7984933853100005,0.39315751195,0.310784995556,0.258194983006,834461,1522670819,860000000,,['l_gripper_l_finger_joint'],"(0.0032494800670444966,)","(0.0,)","(0.0,)",2091650,1522670822,616070092,robotiq_force_torque_frame_id,-1.33499999046,-1.46100006104,-0.115997695923,-0.0540000014007,-0.21799999475499998,-0.115999996662,13.0,18.0,23.0,24.0,45.0,65.0,66.0,69.0,73.0,82.0,3,"(0.7304051285822, -0.14688998502857, 0.0002745182705378574, 0.8234686073436988, -0.5671722198665323, -0.010370151381278211, 0.01037235226110811)",0.0,0.0,0.0,0.0,0.0,0.0
