time,.header.seq,.header.stamp.secs,.header.stamp.nsecs,.header.frame_id,.endpoint_state.header.seq,.endpoint_state.header.stamp.secs,.endpoint_state.header.stamp.nsecs,.endpoint_state.header.frame_id,.endpoint_state.pose.position.x,.endpoint_state.pose.position.y,.endpoint_state.pose.position.z,.endpoint_state.pose.orientation.x,.endpoint_state.pose.orientation.y,.endpoint_state.pose.orientation.z,.endpoint_state.pose.orientation.w,.endpoint_state.twist.linear.x,.endpoint_state.twist.linear.y,.endpoint_state.twist.linear.z,.endpoint_state.twist.angular.x,.endpoint_state.twist.angular.y,.endpoint_state.twist.angular.z,.endpoint_state.wrench.force.x,.endpoint_state.wrench.force.y,.endpoint_state.wrench.force.z,.endpoint_state.wrench.torque.x,.endpoint_state.wrench.torque.y,.endpoint_state.wrench.torque.z,.joint_state.header.seq,.joint_state.header.stamp.secs,.joint_state.header.stamp.nsecs,.joint_state.header.frame_id,.joint_state.name,.joint_state.position,.joint_state.velocity,.joint_state.effort,.wrench_stamped.header.seq,.wrench_stamped.header.stamp.secs,.wrench_stamped.header.stamp.nsecs,.wrench_stamped.header.frame_id,.wrench_stamped.wrench.force.x,.wrench_stamped.wrench.force.y,.wrench_stamped.wrench.force.z,.wrench_stamped.wrench.torque.x,.wrench_stamped.wrench.torque.y,.wrench_stamped.wrench.torque.z,.tactile_values.tactile_values_0,.tactile_values.tactile_values_1,.tactile_values.tactile_values_2,.tactile_values.tactile_values_3,.tactile_values.tactile_values_4,.tactile_values.tactile_values_5,.tactile_values.tactile_values_6,.tactile_values.tactile_values_7,.tactile_values.tactile_values_8,.tactile_values.tactile_values_9,.tag,.goal_vector,.delta_wrench.force.x,.delta_wrench.force.y,.delta_wrench.force.z,.delta_wrench.torque.x,.delta_wrench.torque.y,.delta_wrench.torque.z
1522706362.21,28352,1522677562,187474966,,2783618,1522677559,217333898,,0.794421958973,-0.45009925611699997,0.129166477824,0.0312789551732,0.999429393832,-0.010571298859200001,0.00712469980586,0.0037727485103800002,0.0242296646533,-0.0045536038936800005,0.023313633742,0.005296750632260001,0.00851268814716,0.7779602408409999,-0.13642045855499998,6.92223262787,0.415234327316,0.36046972870800004,0.25525027513500004,2783968,1522677559,215427174,,"['head_nod', 'head_pan', 'left_e0', 'left_e1', 'left_s0', 'left_s1', 'left_w0', 'left_w1', 'left_w2', 'right_e0', 'right_e1', 'right_s0', 'right_s1', 'right_w0', 'right_w1', 'right_w2', 'torso_t0']","(0.0, -0.1004757416064946, -0.9065826456402796, 1.5021506865367915, 0.27880100819817394, 0.6450389213058165, 2.341621672707084, -0.48742239535059023, -0.03259709174256504, 0.4655631691232231, 0.9230729391100477, 0.3133155759255958, -0.7079321336091184, -0.3723738362591842, 1.4074273728848672, -0.032213596545593685, -12.565987119160338)","(0.0, -0.003141592653000486, 0.007461282550876154, 0.0023561944897503642, 0.005890486224375911, 0.001570796326500243, 0.001570796326500243, 0.0011780972448751821, 0.01649336142825255, 0.022383847652628464, -0.008639379795751335, 0.012959069693627005, 0.01531526418337737, 0.001570796326500243, 0.007853981632501214, 0.015707963265002428, 0.0)","(0.0, 0.0, -14.652, 10.916, 0.248, 5.036, 0.084, -2.648, 0.252, 7.268, -16.012, 0.092, -28.908, -0.008, 0.208, -0.1, -20.48)",2764897,1522677562,186309378,robotiq_force_torque_frame_id,0.00899996757507,0.690000104904,-0.268001937866,-0.0410000011325,-0.23499999940400002,-0.123999997973,0.0,0.0,0.0,0.0,0.0,0.0,0.0,0.0,0.0,0.0,3,"(0.5282605997723452, -0.8173976392976043, 0.13420757995327057, 0.9999377972961766, -0.004352227397904551, -0.009388168303914837, 0.004161964805753001)",0.0,0.0,0.0,0.0,0.0,0.0
1522706362.21,28353,1522677562,197508096,,2783618,1522677559,217333898,,0.794421958973,-0.45009925611699997,0.129166477824,0.0312789551732,0.999429393832,-0.010571298859200001,0.00712469980586,0.0037727485103800002,0.0242296646533,-0.0045536038936800005,0.023313633742,0.005296750632260001,0.00851268814716,0.7779602408409999,-0.13642045855499998,6.92223262787,0.415234327316,0.36046972870800004,0.25525027513500004,1101084,1522677559,219000064,,['l_gripper_l_finger_joint'],"(0.0032494800670444966,)","(0.0,)","(0.0,)",2764898,1522677562,194457017,robotiq_force_torque_frame_id,0.139000082016,0.44999985694899997,-0.368000411987,-0.0419999994338,-0.231999993324,-0.119999997318,0.0,0.0,0.0,0.0,0.0,0.0,0.0,0.0,0.0,0.0,3,"(0.5282605997723452, -0.8173976392976043, 0.13420757995327057, 0.9999377972961766, -0.004352227397904551, -0.009388168303914837, 0.004161964805753001)",0.13000011444093001,-0.24000024795500002,-0.09999847412099999,-0.0009999983013000008,0.003000006080000006,0.004000000655000002
1522706362.21,28354,1522677562,207451105,,2783621,1522677559,247331678,,0.794754254264,-0.45019314827,0.12903201552500002,0.031485443591100004,0.999423843236,-0.010034542852,0.00774314936386,0.00659728557056,0.0124451810632,0.00439043439485,0.005276183026,-0.0126193616948,0.0197398849946,1.20615339279,-0.0509119033813,6.94889211655,0.3515188694,0.517530083656,0.258297681808,2783971,1522677559,245445070,,"['head_nod', 'head_pan', 'left_e0', 'left_e1', 'left_s0', 'left_s1', 'left_w0', 'left_w1', 'left_w2', 'right_e0', 'right_e1', 'right_s0', 'right_s1', 'right_w0', 'right_w1', 'right_w2', 'torso_t0']","(0.0, -0.1012427320004373, -0.9065826456402796, 1.50176719133982, 0.2784175130012026, 0.6446554261088451, 2.3420051679040554, -0.4881893857445329, -0.03298058693953639, 0.4655631691232231, 0.9234564343070191, 0.31254858553165304, -0.7079321336091184, -0.3712233506682701, 1.4058933920969816, -0.03259709174256504, -12.565987119160338)","(0.0, 0.009032078877376396, 0.011780972448751823, -0.0011780972448751821, -0.007853981632501214, -0.012959069693627005, -0.0200276531628781, -0.003926990816250607, 0.004319689897875668, 0.012173671530376884, 0.0007853981632501215, 0.007853981632501214, -0.0047123889795007284, -0.00039269908162506076, -0.00510508806112579, -0.0035342917346255468, 0.0)","(0.0, 0.0, -14.684, 10.884, 0.308, 5.036, 0.076, -2.656, 0.232, 7.3, -16.044, 0.248, -28.908, -0.016, 0.188, -0.112, -20.48)",2764899,1522677562,206660016,robotiq_force_torque_frame_id,0.508999967575,-0.0199999332428,-0.377998733521,-0.0399999991059,-0.23000000417199998,-0.126000002027,0.0,0.0,0.0,0.0,0.0,0.0,0.0,0.0,0.0,0.0,3,"(0.5282605997723452, -0.8173976392976043, 0.13420757995327057, 0.9999377972961766, -0.004352227397904551, -0.009388168303914837, 0.004161964805753001)",0.369999885559,-0.46999979019179994,-0.009998321533999988,0.0020000003279000006,0.0019999891520000312,-0.006000004709000015
1522706362.22,28355,1522677562,217438936,,2783621,1522677559,247331678,,0.794754254264,-0.45019314827,0.12903201552500002,0.031485443591100004,0.999423843236,-0.010034542852,0.00774314936386,0.00659728557056,0.0124451810632,0.00439043439485,0.005276183026,-0.0126193616948,0.0197398849946,1.20615339279,-0.0509119033813,6.94889211655,0.3515188694,0.517530083656,0.258297681808,2783971,1522677559,245445070,,"['head_nod', 'head_pan', 'left_e0', 'left_e1', 'left_s0', 'left_s1', 'left_w0', 'left_w1', 'left_w2', 'right_e0', 'right_e1', 'right_s0', 'right_s1', 'right_w0', 'right_w1', 'right_w2', 'torso_t0']","(0.0, -0.1012427320004373, -0.9065826456402796, 1.50176719133982, 0.2784175130012026, 0.6446554261088451, 2.3420051679040554, -0.4881893857445329, -0.03298058693953639, 0.4655631691232231, 0.9234564343070191, 0.31254858553165304, -0.7079321336091184, -0.3712233506682701, 1.4058933920969816, -0.03259709174256504, -12.565987119160338)","(0.0, 0.009032078877376396, 0.011780972448751823, -0.0011780972448751821, -0.007853981632501214, -0.012959069693627005, -0.0200276531628781, -0.003926990816250607, 0.004319689897875668, 0.012173671530376884, 0.0007853981632501215, 0.007853981632501214, -0.0047123889795007284, -0.00039269908162506076, -0.00510508806112579, -0.0035342917346255468, 0.0)","(0.0, 0.0, -14.684, 10.884, 0.308, 5.036, 0.076, -2.656, 0.232, 7.3, -16.044, 0.248, -28.908, -0.016, 0.188, -0.112, -20.48)",2764900,1522677562,214813003,robotiq_force_torque_frame_id,0.55900015831,-0.190000009537,-0.368000411987,-0.0399999991059,-0.229000002146,-0.119000002742,0.0,0.0,0.0,0.0,0.0,0.0,0.0,0.0,0.0,0.0,3,"(0.5282605997723452, -0.8173976392976043, 0.13420757995327057, 0.9999377972961766, -0.004352227397904551, -0.009388168303914837, 0.004161964805753001)",0.05000019073500006,-0.1700000762942,0.009998321533999988,0.0,0.0010000020259999798,0.0069999992850000164
1522706362.26,28356,1522677562,227483034,,2783623,1522677559,267337263,,0.794709125306,-0.449637864063,0.12882539350299999,0.030728198758900004,0.9994483493999999,-0.0101855656062,0.00741814914968,0.0013335345663599998,-0.0034567683413800005,-0.00737129739742,-0.005724143024149999,0.0030943351579000005,0.0035696061686499997,1.13257396221,-0.249266207218,6.8937287330600014,0.43334329128300003,0.48726165294600005,0.254385024309,1101085,1522677559,260000000,,['r_gripper_l_finger_joint'],"(0.019983251598477365,)","(0.0,)","(0.0,)",2764901,1522677562,222995167,robotiq_force_torque_frame_id,0.0889998912811,0.15000014305099998,-0.0480007171631,-0.0460000000894,-0.221000000834,-0.104999996722,0.0,0.0,0.0,0.0,0.0,0.0,0.0,0.0,0.0,0.0,3,"(0.5282605997723452, -0.8173976392976043, 0.13420757995327057, 0.9999377972961766, -0.004352227397904551, -0.009388168303914837, 0.004161964805753001)",-0.4700002670289001,0.340000152588,0.3199996948239,-0.006000000983500002,0.008000001311999988,0.014000006019999997
1522706362.26,28357,1522677562,237457036,,2783623,1522677559,267337263,,0.794709125306,-0.449637864063,0.12882539350299999,0.030728198758900004,0.9994483493999999,-0.0101855656062,0.00741814914968,0.0013335345663599998,-0.0034567683413800005,-0.00737129739742,-0.005724143024149999,0.0030943351579000005,0.0035696061686499997,1.13257396221,-0.249266207218,6.8937287330600014,0.43334329128300003,0.48726165294600005,0.254385024309,2783974,1522677559,275446659,,"['head_nod', 'head_pan', 'left_e0', 'left_e1', 'left_s0', 'left_s1', 'left_w0', 'left_w1', 'left_w2', 'right_e0', 'right_e1', 'right_s0', 'right_s1', 'right_w0', 'right_w1', 'right_w2', 'torso_t0']","(0.0, -0.1012427320004373, -0.9073496360342223, 1.50176719133982, 0.27880100819817394, 0.6446554261088451, 2.3412381775101125, -0.48742239535059023, -0.033364082136507746, 0.4655631691232231, 0.9230729391100477, 0.3133155759255958, -0.7083156288060898, -0.37199034106221285, 1.4070438776878957, -0.032213596545593685, -12.565987119160338)","(0.0, 0.001570796326500243, -0.006675884387626033, -0.006283185306000972, 0.001570796326500243, -0.0070685834692510935, 0.007853981632501214, 0.006283185306000972, -0.009424777959001457, 0.005890486224375911, 0.01688606050987761, 0.012566370612001944, 0.0035342917346255468, 0.005497787142750851, 0.001570796326500243, -0.011388273367126762, 0.0)","(0.0, 0.0, -14.72, 10.916, 0.34, 5.068, 0.084, -2.664, 0.26, 7.24, -16.104, 0.092, -28.908, -0.016, 0.2, -0.1, -20.48)",2764902,1522677562,235212986,robotiq_force_torque_frame_id,-0.280999994278,-0.0999998569489,0.16199836730999997,-0.0480000004172,-0.21899999678100002,-0.0909999981523,0.0,0.0,0.0,0.0,0.0,0.0,0.0,0.0,0.0,0.0,3,"(0.5282605997723452, -0.8173976392976043, 0.13420757995327057, 0.9999377972961766, -0.004352227397904551, -0.009388168303914837, 0.004161964805753001)",-0.3699998855591,-0.24999999999989997,0.20999908447309998,-0.0020000003277999973,0.002000004052999993,0.013999998569699995
1522706362.26,28358,1522677562,247462034,,2783623,1522677559,267337263,,0.794709125306,-0.449637864063,0.12882539350299999,0.030728198758900004,0.9994483493999999,-0.0101855656062,0.00741814914968,0.0013335345663599998,-0.0034567683413800005,-0.00737129739742,-0.005724143024149999,0.0030943351579000005,0.0035696061686499997,1.13257396221,-0.249266207218,6.8937287330600014,0.43334329128300003,0.48726165294600005,0.254385024309,1101086,1522677559,270000128,,['l_gripper_l_finger_joint'],"(0.0032494800670444966,)","(0.0,)","(0.0,)",2764903,1522677562,243348832,robotiq_force_torque_frame_id,-0.451000070572,-0.0500001430511,-0.0680011749268,-0.0379999987781,-0.22499999403999998,-0.09399999678130001,0.0,0.0,0.0,0.0,0.0,0.0,0.0,0.0,0.0,0.0,3,"(0.5282605997723452, -0.8173976392976043, 0.13420757995327057, 0.9999377972961766, -0.004352227397904551, -0.009388168303914837, 0.004161964805753001)",-0.170000076294,0.049999713897799995,-0.22999954223679997,0.010000001639099997,-0.005999997258999967,-0.0029999986290000086
1522706362.3,28359,1522677562,257494926,,2783625,1522677559,287334630,,0.7941094215539999,-0.450006438359,0.12859288474400002,0.0307198427347,0.999451217184,-0.0104054253894,0.00672925355646,-0.003920886454599999,-0.00323370025029,-0.00335337434729,-0.00312582998388,0.00777343698493,-0.0019985193625999998,0.636157751083,-0.45772543549500005,6.967068672180001,0.589414954185,0.27163821458799997,0.293526887894,2783975,1522677559,285406454,,"['head_nod', 'head_pan', 'left_e0', 'left_e1', 'left_s0', 'left_s1', 'left_w0', 'left_w1', 'left_w2', 'right_e0', 'right_e1', 'right_s0', 'right_s1', 'right_w0', 'right_w1', 'right_w2', 'torso_t0']","(0.0, -0.10085923680346595, -0.9065826456402796, 1.5025341817337627, 0.2784175130012026, 0.6450389213058165, 2.3423886631010267, -0.48742239535059023, -0.0337475773334791, 0.4651796739262517, 0.9238399295039904, 0.3133155759255958, -0.7075486384121471, -0.37199034106221285, 1.4070438776878957, -0.033364082136507746, -12.565987119160338)","(0.0, -0.003141592653000486, -0.0035342917346255468, 0.023169245815878585, 0.011780972448751823, 0.005890486224375911, -0.0011780972448751821, 0.011780972448751823, 0.01060287520387664, 0.006283185306000972, 0.006675884387626033, -0.006675884387626033, 0.0027488935713754254, -0.009817477040626518, 0.00039269908162506076, 0.003141592653000486, 0.0)","(0.0, 0.0, -14.556, 10.916, 0.308, 5.036, 0.104, -2.648, 0.224, 7.268, -16.072, -0.152, -28.936, 0.0, 0.188, -0.12, -20.48)",2764904,1522677562,255547486,robotiq_force_torque_frame_id,-1.02100000381,-0.570000123978,-0.27800025939899997,-0.029999999329400003,-0.226999998093,-0.101999998093,0.0,0.0,0.0,0.0,0.0,0.0,0.0,0.0,0.0,0.0,3,"(0.5282605997723452, -0.8173976392976043, 0.13420757995327057, 0.9999377972961766, -0.004352227397904551, -0.009388168303914837, 0.004161964805753001)",-0.569999933238,-0.5199999809269,-0.20999908447219998,0.007999999448699998,-0.0020000040530000207,-0.008000001311699992
1522706362.3,28360,1522677562,267453908,,2783627,1522677559,306582323,,0.793975982644,-0.45037145238399995,0.128543521016,0.031256296756500004,0.9994355119689999,-0.010348693643,0.006678762498350001,0.00790847436561,0.000529903314409,0.00578452038437,0.00835077385395,-0.0268386039903,-0.000546033233782,1.15156686306,-0.23102220892900002,6.92626333237,0.433731913567,0.5018574595449999,0.252366244793,2783977,1522677559,304659360,,"['head_nod', 'head_pan', 'left_e0', 'left_e1', 'left_s0', 'left_s1', 'left_w0', 'left_w1', 'left_w2', 'right_e0', 'right_e1', 'right_s0', 'right_s1', 'right_w0', 'right_w1', 'right_w2', 'torso_t0']","(0.0, -0.10085923680346595, -0.9065826456402796, 1.5013836961428486, 0.2784175130012026, 0.6446554261088451, 2.3412381775101125, -0.48780589054756157, -0.0337475773334791, 0.46479617872928036, 0.9238399295039904, 0.3129320807286244, -0.7075486384121471, -0.37160684586524145, 1.4070438776878957, -0.03298058693953639, -12.565987119160338)","(0.0, 0.0019634954081253035, 0.005890486224375911, -0.012959069693627005, -0.015707963265002428, -0.007461282550876154, -0.012959069693627005, -0.009424777959001457, -0.014137166938502187, 0.005890486224375911, 0.004319689897875668, -0.008246680714126275, -0.009817477040626518, 0.01021017612225158, -0.019242254999627974, -0.0035342917346255468, 0.0)","(0.0, 0.0, -14.684, 10.948, 0.28, 5.068, 0.084, -2.648, 0.26, 7.24, -16.044, 0.092, -28.88, -0.024, 0.208, -0.1, -20.48)",2764905,1522677562,263692623,robotiq_force_torque_frame_id,-1.5810000658,-0.380000066757,-0.357998275757,-0.0370000004768,-0.226999998093,-0.103000000119,0.0,0.0,0.0,0.0,0.0,0.0,0.0,0.0,0.0,0.0,3,"(0.5282605997723452, -0.8173976392976043, 0.13420757995327057, 0.9999377972961766, -0.004352227397904551, -0.009388168303914837, 0.004161964805753001)",-0.5600000619900001,0.19000005722100005,-0.07999801635800002,-0.007000001147399997,0.0,-0.0010000020259999937
1522706362.3,28361,1522677562,277513027,,2783627,1522677559,306582323,,0.793975982644,-0.45037145238399995,0.128543521016,0.031256296756500004,0.9994355119689999,-0.010348693643,0.006678762498350001,0.00790847436561,0.000529903314409,0.00578452038437,0.00835077385395,-0.0268386039903,-0.000546033233782,1.15156686306,-0.23102220892900002,6.92626333237,0.433731913567,0.5018574595449999,0.252366244793,2783977,1522677559,304659360,,"['head_nod', 'head_pan', 'left_e0', 'left_e1', 'left_s0', 'left_s1', 'left_w0', 'left_w1', 'left_w2', 'right_e0', 'right_e1', 'right_s0', 'right_s1', 'right_w0', 'right_w1', 'right_w2', 'torso_t0']","(0.0, -0.10085923680346595, -0.9065826456402796, 1.5013836961428486, 0.2784175130012026, 0.6446554261088451, 2.3412381775101125, -0.48780589054756157, -0.0337475773334791, 0.46479617872928036, 0.9238399295039904, 0.3129320807286244, -0.7075486384121471, -0.37160684586524145, 1.4070438776878957, -0.03298058693953639, -12.565987119160338)","(0.0, 0.0019634954081253035, 0.005890486224375911, -0.012959069693627005, -0.015707963265002428, -0.007461282550876154, -0.012959069693627005, -0.009424777959001457, -0.014137166938502187, 0.005890486224375911, 0.004319689897875668, -0.008246680714126275, -0.009817477040626518, 0.01021017612225158, -0.019242254999627974, -0.0035342917346255468, 0.0)","(0.0, 0.0, -14.684, 10.948, 0.28, 5.068, 0.084, -2.648, 0.26, 7.24, -16.044, 0.092, -28.88, -0.024, 0.208, -0.1, -20.48)",2764906,1522677562,275893718,robotiq_force_torque_frame_id,-1.2510000228899998,0.119999933243,-0.41799964904799997,-0.0340000018477,-0.22499999403999998,-0.11400000006,0.0,0.0,0.0,0.0,0.0,0.0,0.0,0.0,0.0,0.0,3,"(0.5282605997723452, -0.8173976392976043, 0.13420757995327057, 0.9999377972961766, -0.004352227397904551, -0.009388168303914837, 0.004161964805753001)",0.3300000429100003,0.5,-0.06000137329099997,0.002999998629099998,0.0020000040530000207,-0.010999999940999997
1522706362.3,28362,1522677562,287465095,,2783629,1522677559,326607419,,0.7951014530830001,-0.449609105777,0.129275024473,0.0311913421929,0.9994316982979999,-0.0101043402375,0.00782834072092,-0.0021664274721100002,-0.00425494665172,-0.00264682071533,-0.015395432066299999,0.0016377450622400002,-0.0009341043142929999,0.9047095775599999,-0.241738691926,6.890754222869999,0.44049963355099997,0.41906195879,0.27299106121100003,2783979,1522677559,324676925,,"['head_nod', 'head_pan', 'left_e0', 'left_e1', 'left_s0', 'left_s1', 'left_w0', 'left_w1', 'left_w2', 'right_e0', 'right_e1', 'right_s0', 'right_s1', 'right_w0', 'right_w1', 'right_w2', 'torso_t0']","(0.0, -0.1012427320004373, -0.9073496360342223, 1.5013836961428486, 0.27880100819817394, 0.6454224165027879, 2.341621672707084, -0.48780589054756157, -0.03298058693953639, 0.4663301595171658, 0.922305948716105, 0.3133155759255958, -0.7075486384121471, -0.37199034106221285, 1.4066603824909245, -0.032213596545593685, -12.565987119160338)","(0.0, -0.006675884387626033, -0.007853981632501214, 0.0, 0.031415926530004856, 0.0027488935713754254, 0.0070685834692510935, 0.007461282550876154, 0.003141592653000486, -0.007461282550876154, 0.01727875959150267, 0.0023561944897503642, -0.006283185306000972, -0.009032078877376396, -0.012173671530376884, 0.005890486224375911, 0.0)","(0.0, 0.0, -14.72, 11.012, 0.152, 5.1, 0.068, -2.664, 0.26, 7.24, -16.012, 0.06, -28.88, -0.016, 0.208, -0.12, -20.48)",2764907,1522677562,284038900,robotiq_force_torque_frame_id,-0.951000070572,0.23000006675700002,-0.49800148010300005,-0.0309999994934,-0.226999998093,-0.123999997973,0.0,0.0,0.0,0.0,0.0,0.0,0.0,0.0,0.0,0.0,3,"(0.5282605997723452, -0.8173976392976043, 0.13420757995327057, 0.9999377972961766, -0.004352227397904551, -0.009388168303914837, 0.004161964805753001)",0.2999999523179998,0.11000013351400002,-0.08000183105500008,0.0030000023543000007,-0.0020000040530000207,-0.009999997913000006
1522706362.34,28363,1522677562,297451972,,2783630,1522677559,336586638,,0.794306519296,-0.450780880785,0.12812891991699998,0.0315995999152,0.99942017401,-0.0105659026716,0.00701019027671,0.00610603221106,0.00582804768863,0.0012398362685099998,0.0011755298139000002,-0.00576721796034,0.00289152682912,1.17319369316,-0.25428968668,6.964433670039999,0.45374193787600003,0.5257833600039999,0.262817978859,2783979,1522677559,324676925,,"['head_nod', 'head_pan', 'left_e0', 'left_e1', 'left_s0', 'left_s1', 'left_w0', 'left_w1', 'left_w2', 'right_e0', 'right_e1', 'right_s0', 'right_s1', 'right_w0', 'right_w1', 'right_w2', 'torso_t0']","(0.0, -0.1012427320004373, -0.9073496360342223, 1.5013836961428486, 0.27880100819817394, 0.6454224165027879, 2.341621672707084, -0.48780589054756157, -0.03298058693953639, 0.4663301595171658, 0.922305948716105, 0.3133155759255958, -0.7075486384121471, -0.37199034106221285, 1.4066603824909245, -0.032213596545593685, -12.565987119160338)","(0.0, -0.006675884387626033, -0.007853981632501214, 0.0, 0.031415926530004856, 0.0027488935713754254, 0.0070685834692510935, 0.007461282550876154, 0.003141592653000486, -0.007461282550876154, 0.01727875959150267, 0.0023561944897503642, -0.006283185306000972, -0.009032078877376396, -0.012173671530376884, 0.005890486224375911, 0.0)","(0.0, 0.0, -14.72, 11.012, 0.152, 5.1, 0.068, -2.664, 0.26, 7.24, -16.012, 0.06, -28.88, -0.016, 0.208, -0.12, -20.48)",2764908,1522677562,296249919,robotiq_force_torque_frame_id,-0.8209999561310001,0.32999997139000004,-0.557999038696,-0.0419999994338,-0.22599999606600002,-0.115999996662,0.0,0.0,0.0,0.0,0.0,0.0,0.0,0.0,0.0,0.0,3,"(0.5282605997723452, -0.8173976392976043, 0.13420757995327057, 0.9999377972961766, -0.004352227397904551, -0.009388168303914837, 0.004161964805753001)",0.1300001144409999,0.09999990463300001,-0.05999755859299993,-0.010999999940399997,0.0010000020269999854,0.008000001310999996
1522706362.34,28364,1522677562,307441949,,2783633,1522677559,366594689,,0.793903673365,-0.45069592342799997,0.128589828164,0.0317079524602,0.9994222322380001,-0.010216708221299999,0.00673990602875,0.0017968022680899998,0.0009330002531930001,0.010040746269299999,-0.0028248385085700004,-0.00432520016521,-0.00378941162528,1.0242885351200002,-0.19257268309599998,6.94979429245,0.39896944165200005,0.48219722509400004,0.255008220673,2783983,1522677559,364690512,,"['head_nod', 'head_pan', 'left_e0', 'left_e1', 'left_s0', 'left_s1', 'left_w0', 'left_w1', 'left_w2', 'right_e0', 'right_e1', 'right_s0', 'right_s1', 'right_w0', 'right_w1', 'right_w2', 'torso_t0']","(0.0, -0.1012427320004373, -0.9073496360342223, 1.5025341817337627, 0.2784175130012026, 0.6450389213058165, 2.3431556534949696, -0.48742239535059023, -0.03259709174256504, 0.4651796739262517, 0.9238399295039904, 0.3121650903346817, -0.7075486384121471, -0.37160684586524145, 1.4070438776878957, -0.03259709174256504, -12.565987119160338)","(0.0, -0.01021017612225158, 0.01021017612225158, -0.0019634954081253035, -0.0011780972448751821, 0.00039269908162506076, 0.0007853981632501215, 0.0, 0.005497787142750851, -0.004319689897875668, -0.01021017612225158, 0.005890486224375911, -0.01060287520387664, 0.00510508806112579, 0.013744467856877126, 0.0023561944897503642, 0.0)","(0.0, 0.0, -14.588, 10.98, 0.436, 5.004, 0.104, -2.616, 0.26, 7.176, -16.012, 0.124, -28.908, 0.0, 0.228, -0.12, -20.48)",2764909,1522677562,304394258,robotiq_force_torque_frame_id,-0.7410000324250001,-0.0199999332428,-0.5880016326899999,-0.035999998450300004,-0.229000002146,-0.11299999803300001,0.0,0.0,0.0,0.0,0.0,0.0,0.0,0.0,0.0,0.0,3,"(0.5282605997723452, -0.8173976392976043, 0.13420757995327057, 0.9999377972961766, -0.004352227397904551, -0.009388168303914837, 0.004161964805753001)",0.07999992370599995,-0.34999990463280006,-0.03000259399399996,0.006000000983499995,-0.0030000060799999784,0.0029999986289999947
1522706362.34,28365,1522677562,317457914,,2783634,1522677559,376588467,,0.7948775065129999,-0.44990176149800004,0.129077955318,0.0311659506111,0.9994283279180001,-0.0106819827755,0.00758921087262,-0.00391812063884,0.0131675317789,-0.00518131600648,0.0128369860822,0.010889127361399999,0.009055359810680001,0.651461303234,-0.100444242358,6.974559783939999,0.391304880381,0.319635123014,0.281217187643,2783984,1522677559,374675641,,"['head_nod', 'head_pan', 'left_e0', 'left_e1', 'left_s0', 'left_s1', 'left_w0', 'left_w1', 'left_w2', 'right_e0', 'right_e1', 'right_s0', 'right_s1', 'right_w0', 'right_w1', 'right_w2', 'torso_t0']","(0.0, -0.10085923680346595, -0.9073496360342223, 1.5021506865367915, 0.2784175130012026, 0.6446554261088451, 2.3412381775101125, -0.48742239535059023, -0.033364082136507746, 0.46479617872928036, 0.9230729391100477, 0.31408256631953846, -0.7079321336091184, -0.37199034106221285, 1.406276887293953, -0.032213596545593685, -12.565987119160338)","(0.0, 0.003926990816250607, 0.0023561944897503642, 0.00510508806112579, 0.018456856836377853, 0.0027488935713754254, 0.009424777959001457, -0.00039269908162506076, 0.005497787142750851, 0.014137166938502187, 0.018064157754752792, 0.0011780972448751821, 0.0007853981632501215, 0.00039269908162506076, -0.001570796326500243, 0.007461282550876154, 0.0)","(0.0, 0.0, -14.72, 10.916, 0.28, 4.968, 0.096, -2.656, 0.252, 7.268, -16.012, 0.124, -28.968, -0.016, 0.208, -0.128, -20.48)",2764910,1522677562,316612034,robotiq_force_torque_frame_id,-0.0409999847412,0.480000066757,-0.737999343872,-0.035999998450300004,-0.221000000834,-0.118000000715,0.0,0.0,0.0,0.0,0.0,0.0,0.0,0.0,0.0,0.0,3,"(0.5282605997723452, -0.8173976392976043, 0.13420757995327057, 0.9999377972961766, -0.004352227397904551, -0.009388168303914837, 0.004161964805753001)",0.7000000476838001,0.49999999999980005,-0.149997711182,0.0,0.008000001311999988,-0.005000002681999988
1522706362.34,28366,1522677562,327465057,,2783635,1522677559,386591583,,0.794582322517,-0.45001764634400004,0.128862239719,0.031265008254299995,0.999431748459,-0.010270570182799999,0.00729347786239,0.005386586119500001,0.0287817727585,0.00139840575006,0.00046408350424699996,-0.00298207192094,0.0409051199241,0.854302167892,-0.160568922758,6.91166353226,0.376306653023,0.39547431469000005,0.264453589916,2783984,1522677559,374675641,,"['head_nod', 'head_pan', 'left_e0', 'left_e1', 'left_s0', 'left_s1', 'left_w0', 'left_w1', 'left_w2', 'right_e0', 'right_e1', 'right_s0', 'right_s1', 'right_w0', 'right_w1', 'right_w2', 'torso_t0']","(0.0, -0.10085923680346595, -0.9073496360342223, 1.5021506865367915, 0.2784175130012026, 0.6446554261088451, 2.3412381775101125, -0.48742239535059023, -0.033364082136507746, 0.46479617872928036, 0.9230729391100477, 0.31408256631953846, -0.7079321336091184, -0.37199034106221285, 1.406276887293953, -0.032213596545593685, -12.565987119160338)","(0.0, 0.003926990816250607, 0.0023561944897503642, 0.00510508806112579, 0.018456856836377853, 0.0027488935713754254, 0.009424777959001457, -0.00039269908162506076, 0.005497787142750851, 0.014137166938502187, 0.018064157754752792, 0.0011780972448751821, 0.0007853981632501215, 0.00039269908162506076, -0.001570796326500243, 0.007461282550876154, 0.0)","(0.0, 0.0, -14.72, 10.916, 0.28, 4.968, 0.096, -2.656, 0.252, 7.268, -16.012, 0.124, -28.968, -0.016, 0.208, -0.128, -20.48)",2764911,1522677562,324760583,robotiq_force_torque_frame_id,0.628999853134,0.429999876022,-0.897999191284,-0.035999998450300004,-0.219999998808,-0.125,0.0,0.0,0.0,0.0,0.0,0.0,0.0,0.0,0.0,0.0,3,"(0.5282605997723452, -0.8173976392976043, 0.13420757995327057, 0.9999377972961766, -0.004352227397904551, -0.009388168303914837, 0.004161964805753001)",0.6699998378752,-0.050000190735000005,-0.15999984741200002,0.0,0.0010000020260000075,-0.006999999285000003
1522706362.38,28367,1522677562,337449073,,2783636,1522677559,396582205,,0.794729732995,-0.449502680306,0.12890872817600002,0.0307585335109,0.99944835456,-0.010138211291100001,0.00735634798571,0.00695497603208,0.0121723236742,-0.0070190302399,-0.0016057232499900001,-0.00418332593725,0.0240517163793,0.494177341461,-0.22226844728,6.931774616239999,0.425670415163,0.24931269884100002,0.273267090321,2783984,1522677559,374675641,,"['head_nod', 'head_pan', 'left_e0', 'left_e1', 'left_s0', 'left_s1', 'left_w0', 'left_w1', 'left_w2', 'right_e0', 'right_e1', 'right_s0', 'right_s1', 'right_w0', 'right_w1', 'right_w2', 'torso_t0']","(0.0, -0.10085923680346595, -0.9073496360342223, 1.5021506865367915, 0.2784175130012026, 0.6446554261088451, 2.3412381775101125, -0.48742239535059023, -0.033364082136507746, 0.46479617872928036, 0.9230729391100477, 0.31408256631953846, -0.7079321336091184, -0.37199034106221285, 1.406276887293953, -0.032213596545593685, -12.565987119160338)","(0.0, 0.003926990816250607, 0.0023561944897503642, 0.00510508806112579, 0.018456856836377853, 0.0027488935713754254, 0.009424777959001457, -0.00039269908162506076, 0.005497787142750851, 0.014137166938502187, 0.018064157754752792, 0.0011780972448751821, 0.0007853981632501215, 0.00039269908162506076, -0.001570796326500243, 0.007461282550876154, 0.0)","(0.0, 0.0, -14.72, 10.916, 0.28, 4.968, 0.096, -2.656, 0.252, 7.268, -16.012, 0.124, -28.968, -0.016, 0.208, -0.128, -20.48)",2764912,1522677562,332900305,robotiq_force_torque_frame_id,0.419000053406,-0.0700001239777,-0.9580005645749999,-0.0410000011325,-0.21799999475499998,-0.108999997377,0.0,0.0,0.0,0.0,0.0,0.0,0.0,0.0,0.0,0.0,3,"(0.5282605997723452, -0.8173976392976043, 0.13420757995327057, 0.9999377972961766, -0.004352227397904551, -0.009388168303914837, 0.004161964805753001)",-0.20999979972799998,-0.4999999999997,-0.06000137329099997,-0.005000002682199994,0.0020000040530000207,0.016000002622999998
1522706362.38,28368,1522677562,347475051,,2783637,1522677559,406586997,,0.794426938088,-0.449944238036,0.128727160921,0.031198061189200002,0.9994353539309999,-0.0102483159009,0.007115216875689999,-0.00169144070469,-0.000944969123627,-0.00857363720344,0.0161183610711,0.00743917750962,-0.005864306021,0.5902547836300001,-0.174832955003,6.866426944730001,0.426857829094,0.281527042389,0.281158864498,2783987,1522677559,404664374,,"['head_nod', 'head_pan', 'left_e0', 'left_e1', 'left_s0', 'left_s1', 'left_w0', 'left_w1', 'left_w2', 'right_e0', 'right_e1', 'right_s0', 'right_s1', 'right_w0', 'right_w1', 'right_w2', 'torso_t0']","(0.0, -0.10085923680346595, -0.9069661408372509, 1.5013836961428486, 0.2791845033951453, 0.6454224165027879, 2.3412381775101125, -0.4881893857445329, -0.033364082136507746, 0.4651796739262517, 0.9234564343070191, 0.3133155759255958, -0.7075486384121471, -0.37160684586524145, 1.4066603824909245, -0.03259709174256504, -12.565987119160338)","(0.0, 0.011388273367126762, 0.0070685834692510935, -0.0070685834692510935, -0.005497787142750851, 0.0070685834692510935, 0.0007853981632501215, -0.013351768775252066, -0.007461282550876154, -0.008246680714126275, -0.009424777959001457, -0.003141592653000486, 0.01610066234662749, 0.01610066234662749, 0.00039269908162506076, -0.008246680714126275, 0.0)","(0.0, 0.0, -14.556, 10.948, 0.308, 5.036, 0.084, -2.648, 0.232, 7.24, -15.984, 0.06, -28.908, 0.0, 0.2, -0.128, -20.48)",2764913,1522677562,345092637,robotiq_force_torque_frame_id,-0.060999965667699996,-0.269999933243,-1.0079998016399998,-0.0370000004768,-0.21400000155,-0.097999997437,0.0,0.0,0.0,0.0,0.0,0.0,0.0,0.0,0.0,0.0,3,"(0.5282605997723452, -0.8173976392976043, 0.13420757995327057, 0.9999377972961766, -0.004352227397904551, -0.009388168303914837, 0.004161964805753001)",-0.4800000190737,-0.19999980926529998,-0.04999923706499987,0.004000000655699998,0.003999993204999969,0.010999999940000005
1522706362.38,28369,1522677562,357709884,,2783638,1522677559,416581333,,0.7945471098970001,-0.44977352071800003,0.128825973433,0.0307002182262,0.999448883142,-0.0103623553997,0.007214442360470001,-0.0010804070777,0.0165381920912,0.00112366143796,0.026477465230099997,0.00316978300362,0.013200412117500001,0.6771302819249999,-0.23706063628199997,6.88391208649,0.454083681107,0.30154439806899996,0.287885665894,2783988,1522677559,414681070,,"['head_nod', 'head_pan', 'left_e0', 'left_e1', 'left_s0', 'left_s1', 'left_w0', 'left_w1', 'left_w2', 'right_e0', 'right_e1', 'right_s0', 'right_s1', 'right_w0', 'right_w1', 'right_w2', 'torso_t0']","(0.0, -0.10085923680346595, -0.9065826456402796, 1.5013836961428486, 0.2791845033951453, 0.6454224165027879, 2.3420051679040554, -0.48703890015361884, -0.03298058693953639, 0.46594666432019444, 0.9234564343070191, 0.3133155759255958, -0.7075486384121471, -0.3723738362591842, 1.4066603824909245, -0.03298058693953639, -12.565987119160338)","(0.0, 0.006283185306000972, 0.0011780972448751821, -0.01060287520387664, -0.0027488935713754254, 0.0047123889795007284, -0.014137166938502187, -0.03180862561162992, -0.003926990816250607, 0.02631083846887907, 0.0070685834692510935, -0.005497787142750851, -0.0007853981632501215, 0.007461282550876154, 0.0070685834692510935, -0.00039269908162506076, 0.0)","(0.0, 0.0, -14.72, 10.916, 0.184, 5.004, 0.104, -2.636, 0.252, 7.268, -16.012, 0.028, -28.908, -0.016, 0.188, -0.128, -20.48)",2764914,1522677562,353185091,robotiq_force_torque_frame_id,0.0589999198914,0.110000181198,-0.9980014801029999,-0.0439999997616,-0.209000006318,-0.107000000775,0.0,0.0,0.0,0.0,0.0,0.0,0.0,0.0,0.0,0.0,3,"(0.5282605997723452, -0.8173976392976043, 0.13420757995327057, 0.9999377972961766, -0.004352227397904551, -0.009388168303914837, 0.004161964805753001)",0.11999988555909999,0.38000011444099996,0.009998321536999866,-0.006999999284800003,0.00499999523200001,-0.00900000333800001
1522706362.38,28370,1522677562,367441892,,2783639,1522677559,426586082,,0.7947622392910001,-0.45068255162,0.129377852949,0.0318404035416,0.999407702815,-0.0104459594221,0.00783033765573,-0.00046039384604900003,-0.013929415551499999,0.0035565649608200003,-0.008194571471770001,-0.00538965368547,-0.015737129291,0.31376960873599996,-0.162101715803,6.9270234108,0.436192065477,0.165319889784,0.276698946953,2783989,1522677559,424683770,,"['head_nod', 'head_pan', 'left_e0', 'left_e1', 'left_s0', 'left_s1', 'left_w0', 'left_w1', 'left_w2', 'right_e0', 'right_e1', 'right_s0', 'right_s1', 'right_w0', 'right_w1', 'right_w2', 'torso_t0']","(0.0, -0.1012427320004373, -0.9069661408372509, 1.5021506865367915, 0.2791845033951453, 0.6446554261088451, 2.3408546823131413, -0.48703890015361884, -0.03298058693953639, 0.4651796739262517, 0.9230729391100477, 0.31254858553165304, -0.7083156288060898, -0.37160684586524145, 1.406276887293953, -0.032213596545593685, -12.565987119160338)","(0.0, -0.006675884387626033, 0.004319689897875668, 0.022776546734253524, 0.003926990816250607, -0.009424777959001457, 0.01021017612225158, 0.02670353755050413, -0.0047123889795007284, -0.009424777959001457, -0.005890486224375911, -0.009424777959001457, -0.003926990816250607, 0.0007853981632501215, 0.00039269908162506076, -0.0019634954081253035, 0.0)","(0.0, 0.0, -14.752, 10.884, 0.308, 5.004, 0.084, -2.656, 0.232, 7.268, -16.012, 0.0, -28.968, -0.008, 0.188, -0.112, -20.48)",2764915,1522677562,365461508,robotiq_force_torque_frame_id,-0.161000108719,0.540000009537,-0.8380016326899999,-0.04500000178809999,-0.222000002861,-0.12099999934399999,0.0,0.0,0.0,0.0,0.0,0.0,0.0,0.0,0.0,0.0,3,"(0.5282605997723452, -0.8173976392976043, 0.13420757995327057, 0.9999377972961766, -0.004352227397904551, -0.009388168303914837, 0.004161964805753001)",-0.2200000286104,0.429999828339,0.159999847413,-0.0010000020264999895,-0.012999996542999992,-0.013999998568999986
1522706362.42,28371,1522677562,377461910,,2783640,1522677559,436583700,,0.794539753654,-0.45024302438999997,0.128649113103,0.0311357268898,0.9994329758600001,-0.0104968238683,0.0073559474366199995,-0.006975788287109999,-0.010568371424799999,0.00568188273836,-0.018255777619,0.0118331093439,-0.0130886174471,1.15048575401,-0.27521443367,6.894876956939999,0.43825507164,0.49383282661399996,0.271732628345,2783989,1522677559,424683770,,"['head_nod', 'head_pan', 'left_e0', 'left_e1', 'left_s0', 'left_s1', 'left_w0', 'left_w1', 'left_w2', 'right_e0', 'right_e1', 'right_s0', 'right_s1', 'right_w0', 'right_w1', 'right_w2', 'torso_t0']","(0.0, -0.1012427320004373, -0.9069661408372509, 1.5021506865367915, 0.2791845033951453, 0.6446554261088451, 2.3408546823131413, -0.48703890015361884, -0.03298058693953639, 0.4651796739262517, 0.9230729391100477, 0.31254858553165304, -0.7083156288060898, -0.37160684586524145, 1.406276887293953, -0.032213596545593685, -12.565987119160338)","(0.0, -0.006675884387626033, 0.004319689897875668, 0.022776546734253524, 0.003926990816250607, -0.009424777959001457, 0.01021017612225158, 0.02670353755050413, -0.0047123889795007284, -0.009424777959001457, -0.005890486224375911, -0.009424777959001457, -0.003926990816250607, 0.0007853981632501215, 0.00039269908162506076, -0.0019634954081253035, 0.0)","(0.0, 0.0, -14.752, 10.884, 0.308, 5.004, 0.084, -2.656, 0.232, 7.268, -16.012, 0.0, -28.968, -0.008, 0.188, -0.112, -20.48)",2764916,1522677562,373580774,robotiq_force_torque_frame_id,-0.280999994278,0.599999952316,-0.717998886108,-0.0439999997616,-0.222000002861,-0.118000000715,0.0,0.0,0.0,0.0,0.0,0.0,0.0,0.0,0.0,0.0,3,"(0.5282605997723452, -0.8173976392976043, 0.13420757995327057, 0.9999377972961766, -0.004352227397904551, -0.009388168303914837, 0.004161964805753001)",-0.11999988555899999,0.059999942779000004,0.12000274658199994,0.0010000020264999895,0.0,0.0029999986289999947
1522706362.42,28372,1522677562,387447118,,2783641,1522677559,446590083,,0.794960474806,-0.45082941664,0.129215654382,0.0316141681429,0.9994110170559999,-0.010721405310100001,0.00795077528153,0.00115792783275,-0.0098732888599,-0.00032239083821499994,-0.00476897924387,-0.00751338876455,-0.011569839720900001,0.9670013189319999,-0.176637500525,6.90470266342,0.371992826462,0.42538768053099996,0.26005294919,2783989,1522677559,424683770,,"['head_nod', 'head_pan', 'left_e0', 'left_e1', 'left_s0', 'left_s1', 'left_w0', 'left_w1', 'left_w2', 'right_e0', 'right_e1', 'right_s0', 'right_s1', 'right_w0', 'right_w1', 'right_w2', 'torso_t0']","(0.0, -0.1012427320004373, -0.9069661408372509, 1.5021506865367915, 0.2791845033951453, 0.6446554261088451, 2.3408546823131413, -0.48703890015361884, -0.03298058693953639, 0.4651796739262517, 0.9230729391100477, 0.31254858553165304, -0.7083156288060898, -0.37160684586524145, 1.406276887293953, -0.032213596545593685, -12.565987119160338)","(0.0, -0.006675884387626033, 0.004319689897875668, 0.022776546734253524, 0.003926990816250607, -0.009424777959001457, 0.01021017612225158, 0.02670353755050413, -0.0047123889795007284, -0.009424777959001457, -0.005890486224375911, -0.009424777959001457, -0.003926990816250607, 0.0007853981632501215, 0.00039269908162506076, -0.0019634954081253035, 0.0)","(0.0, 0.0, -14.752, 10.884, 0.308, 5.004, 0.084, -2.656, 0.232, 7.268, -16.012, 0.0, -28.968, -0.008, 0.188, -0.112, -20.48)",2764917,1522677562,385790714,robotiq_force_torque_frame_id,-0.181000089645,0.36000018119800004,-0.717998886108,-0.0309999994934,-0.22499999403999998,-0.107000000775,0.0,0.0,0.0,0.0,0.0,0.0,0.0,0.0,0.0,0.0,3,"(0.5282605997723452, -0.8173976392976043, 0.13420757995327057, 0.9999377972961766, -0.004352227397904551, -0.009388168303914837, 0.004161964805753001)",0.09999990463299999,-0.23999977111799997,0.0,0.013000000268200002,-0.002999991178999989,0.010999999939999991
1522706362.42,28373,1522677562,397448062,,2783642,1522677559,456585553,,0.7944945641110001,-0.44991824347599996,0.128909283895,0.031113889292599995,0.999437027807,-0.010314664761899999,0.007152694096539999,0.0121503610536,-0.0076599984739399996,0.00494049463825,-0.00786595716275,-0.0309508804498,-0.010954910351799999,0.9299103617669999,-0.24735891819000003,6.924479961399999,0.465803056955,0.39894023537600004,0.275432765484,2783992,1522677559,454677568,,"['head_nod', 'head_pan', 'left_e0', 'left_e1', 'left_s0', 'left_s1', 'left_w0', 'left_w1', 'left_w2', 'right_e0', 'right_e1', 'right_s0', 'right_s1', 'right_w0', 'right_w1', 'right_w2', 'torso_t0']","(0.0, -0.1012427320004373, -0.9073496360342223, 1.5025341817337627, 0.2784175130012026, 0.6442719309118737, 2.3427721582979983, -0.48857288094150425, -0.03298058693953639, 0.4655631691232231, 0.9230729391100477, 0.3133155759255958, -0.7075486384121471, -0.37199034106221285, 1.4070438776878957, -0.03259709174256504, -12.565987119160338)","(0.0, -0.01688606050987761, -0.007853981632501214, -0.005497787142750851, -0.0023561944897503642, 0.0023561944897503642, 0.023954643979128706, -0.0035342917346255468, 0.011780972448751823, -0.0047123889795007284, -0.01531526418337737, -0.0011780972448751821, 0.0, -0.0007853981632501215, -0.018456856836377853, 0.0019634954081253035, 0.0)","(0.0, 0.0, -14.784, 10.916, 0.216, 5.068, 0.084, -2.648, 0.252, 7.268, -16.044, 0.06, -28.908, 0.0, 0.188, -0.12, -20.48)",2764918,1522677562,393943235,robotiq_force_torque_frame_id,-0.22100005149799998,0.239999818802,-0.737999343872,-0.0240000002086,-0.226999998093,-0.10800000280099999,0.0,0.0,0.0,0.0,0.0,0.0,0.0,0.0,0.0,0.0,3,"(0.5282605997723452, -0.8173976392976043, 0.13420757995327057, 0.9999377972961766, -0.004352227397904551, -0.009388168303914837, 0.004161964805753001)",-0.03999996185299998,-0.12000036239600004,-0.020000457763999946,0.006999999284800003,-0.0020000040530000207,-0.0010000020259999798
1522706362.42,28374,1522677562,407442092,,2783643,1522677559,466589061,,0.7943295197139999,-0.45059176869900003,0.12851600162000001,0.0316718198696,0.9994172622319999,-0.0106424911038,0.006983492165579999,-0.000257224095823,0.0169886235062,-0.006017852333880001,0.017606415553,0.0135602248268,0.018672772544299998,0.9876457452770001,-0.14515131712,6.864341259,0.42778620123899996,0.41845631599399996,0.284340292215,2783993,1522677559,464669586,,"['head_nod', 'head_pan', 'left_e0', 'left_e1', 'left_s0', 'left_s1', 'left_w0', 'left_w1', 'left_w2', 'right_e0', 'right_e1', 'right_s0', 'right_s1', 'right_w0', 'right_w1', 'right_w2', 'torso_t0']","(0.0, -0.10085923680346595, -0.9065826456402796, 1.5021506865367915, 0.27880100819817394, 0.6450389213058165, 2.3408546823131413, -0.48742239535059023, -0.03298058693953639, 0.464412683532309, 0.9230729391100477, 0.3133155759255958, -0.7071651432151758, -0.37199034106221285, 1.4066603824909245, -0.032213596545593685, -12.565987119160338)","(0.0, -0.008639379795751335, 0.0035342917346255468, -0.0047123889795007284, -0.005890486224375911, -0.009032078877376396, -0.00039269908162506076, -0.007853981632501214, 0.0070685834692510935, -0.005890486224375911, -0.007853981632501214, 0.018849555918002914, 0.011780972448751823, 0.01688606050987761, 0.009817477040626518, -0.009032078877376396, 0.0)","(0.0, 0.0, -14.492, 10.916, 0.308, 5.1, 0.084, -2.628, 0.268, 7.3, -16.012, 0.152, -28.88, -0.008, 0.188, -0.128, -20.48)",2764919,1522677562,406144661,robotiq_force_torque_frame_id,-0.121000146866,0.0200000286102,-0.688000106812,-0.0280000008643,-0.223000004888,-0.118000000715,0.0,0.0,0.0,0.0,0.0,0.0,0.0,0.0,0.0,0.0,3,"(0.5282605997723452, -0.8173976392976043, 0.13420757995327057, 0.9999377972961766, -0.004352227397904551, -0.009388168303914837, 0.004161964805753001)",0.09999990463199998,-0.2199997901918,0.04999923705999998,-0.004000000655700001,0.0039999932049999964,-0.009999997914000011
1522706362.46,28375,1522677562,417469978,,2783644,1522677559,476582417,,0.7947301330200001,-0.45003172823700005,0.128864624419,0.0310714460205,0.999436244386,-0.0102842425625,0.00748284733311,0.000323303195274,0.006508156048409999,0.0134040725994,-0.0199983303565,0.000226436136942,0.021617088456799997,0.740401566029,-0.230873703957,6.852583408359999,0.468607872725,0.3259126544,0.273451864719,2783994,1522677559,474675465,,"['head_nod', 'head_pan', 'left_e0', 'left_e1', 'left_s0', 'left_s1', 'left_w0', 'left_w1', 'left_w2', 'right_e0', 'right_e1', 'right_s0', 'right_s1', 'right_w0', 'right_w1', 'right_w2', 'torso_t0']","(0.0, -0.10085923680346595, -0.9073496360342223, 1.50176719133982, 0.2784175130012026, 0.6446554261088451, 2.3427721582979983, -0.48742239535059023, -0.03298058693953639, 0.4651796739262517, 0.9230729391100477, 0.3133155759255958, -0.7075486384121471, -0.37160684586524145, 1.406276887293953, -0.03298058693953639, -12.565987119160338)","(0.0, 0.005497787142750851, 0.0035342917346255468, -0.018064157754752792, -0.005497787142750851, 0.02120575040775328, -0.00039269908162506076, -0.006675884387626033, -0.013351768775252066, 0.0007853981632501215, 0.005497787142750851, 0.01649336142825255, -0.022776546734253524, -0.012566370612001944, 0.014529866020127248, -0.0011780972448751821, 0.0)","(0.0, 0.0, -14.72, 10.916, 0.152, 5.004, 0.104, -2.664, 0.232, 7.268, -16.012, 0.028, -28.88, 0.0, 0.188, -0.112, -20.48)",2764920,1522677562,414294538,robotiq_force_torque_frame_id,0.0489999294281,-0.0500001430511,-0.49800148010300005,-0.0250000003725,-0.221000000834,-0.119999997318,0.0,0.0,0.0,0.0,0.0,0.0,0.0,0.0,0.0,0.0,3,"(0.5282605997723452, -0.8173976392976043, 0.13420757995327057, 0.9999377972961766, -0.004352227397904551, -0.009388168303914837, 0.004161964805753001)",0.1700000762941,-0.0700001716613,0.18999862670899992,0.0030000004917999992,0.0020000040539999986,-0.001999996603000001
1522706362.46,28376,1522677562,427468061,,2783645,1522677559,486588518,,0.794871139135,-0.450254784434,0.129002789066,0.0313001533476,0.9994256561210001,-0.0104940711492,0.00765067043044,0.0037757166679699998,-0.006486906665470001,0.00189597945576,0.00157654519101,-0.018523445598400003,0.00395502916961,0.880293369293,-0.199376836419,6.86075592041,0.478738337755,0.387581288815,0.27090510726,2783994,1522677559,474675465,,"['head_nod', 'head_pan', 'left_e0', 'left_e1', 'left_s0', 'left_s1', 'left_w0', 'left_w1', 'left_w2', 'right_e0', 'right_e1', 'right_s0', 'right_s1', 'right_w0', 'right_w1', 'right_w2', 'torso_t0']","(0.0, -0.10085923680346595, -0.9073496360342223, 1.50176719133982, 0.2784175130012026, 0.6446554261088451, 2.3427721582979983, -0.48742239535059023, -0.03298058693953639, 0.4651796739262517, 0.9230729391100477, 0.3133155759255958, -0.7075486384121471, -0.37160684586524145, 1.406276887293953, -0.03298058693953639, -12.565987119160338)","(0.0, 0.005497787142750851, 0.0035342917346255468, -0.018064157754752792, -0.005497787142750851, 0.02120575040775328, -0.00039269908162506076, -0.006675884387626033, -0.013351768775252066, 0.0007853981632501215, 0.005497787142750851, 0.01649336142825255, -0.022776546734253524, -0.012566370612001944, 0.014529866020127248, -0.0011780972448751821, 0.0)","(0.0, 0.0, -14.72, 10.916, 0.152, 5.004, 0.104, -2.664, 0.232, 7.268, -16.012, 0.028, -28.88, 0.0, 0.188, -0.112, -20.48)",2764921,1522677562,426497943,robotiq_force_torque_frame_id,-0.141000127792,0.239999818802,-0.467998886108,-0.0270000007004,-0.219999998808,-0.11400000006,0.0,0.0,0.0,0.0,0.0,0.0,0.0,0.0,0.0,0.0,3,"(0.5282605997723452, -0.8173976392976043, 0.13420757995327057, 0.9999377972961766, -0.004352227397904551, -0.009388168303914837, 0.004161964805753001)",-0.1900000572201,0.2899999618531,0.03000259399500005,-0.0020000003279000006,0.0010000020260000075,0.005999997258000003
1522706362.46,28377,1522677562,437453031,,2783646,1522677559,496594690,,0.7939108193000001,-0.451714050014,0.128891645305,0.0323760837111,0.999393495083,-0.010774160304700001,0.00695332000795,0.006021403905979999,0.00803929986902,0.00044190532385000007,0.0206803367586,-0.012967166872900001,0.00645896622478,0.7981299757960001,-0.315112411976,6.850792884830001,0.461340785027,0.364747107029,0.27247375249899997,2783994,1522677559,474675465,,"['head_nod', 'head_pan', 'left_e0', 'left_e1', 'left_s0', 'left_s1', 'left_w0', 'left_w1', 'left_w2', 'right_e0', 'right_e1', 'right_s0', 'right_s1', 'right_w0', 'right_w1', 'right_w2', 'torso_t0']","(0.0, -0.10085923680346595, -0.9073496360342223, 1.50176719133982, 0.2784175130012026, 0.6446554261088451, 2.3427721582979983, -0.48742239535059023, -0.03298058693953639, 0.4651796739262517, 0.9230729391100477, 0.3133155759255958, -0.7075486384121471, -0.37160684586524145, 1.406276887293953, -0.03298058693953639, -12.565987119160338)","(0.0, 0.005497787142750851, 0.0035342917346255468, -0.018064157754752792, -0.005497787142750851, 0.02120575040775328, -0.00039269908162506076, -0.006675884387626033, -0.013351768775252066, 0.0007853981632501215, 0.005497787142750851, 0.01649336142825255, -0.022776546734253524, -0.012566370612001944, 0.014529866020127248, -0.0011780972448751821, 0.0)","(0.0, 0.0, -14.72, 10.916, 0.152, 5.004, 0.104, -2.664, 0.232, 7.268, -16.012, 0.028, -28.88, 0.0, 0.188, -0.112, -20.48)",2764922,1522677562,434636906,robotiq_force_torque_frame_id,0.179000043869,0.809999990463,-0.607998275757,-0.0340000018477,-0.215000003576,-0.104999996722,0.0,0.0,0.0,0.0,0.0,0.0,0.0,0.0,0.0,0.0,3,"(0.5282605997723452, -0.8173976392976043, 0.13420757995327057, 0.9999377972961766, -0.004352227397904551, -0.009388168303914837, 0.004161964805753001)",0.32000017166100003,0.5700001716609999,-0.13999938964900005,-0.007000001147300001,0.00499999523200001,0.009000003337999996
1522706362.46,28378,1522677562,447437047,,2783647,1522677559,506585335,,0.794909006917,-0.450122503183,0.12937791455,0.031265490142599994,0.9994258473980001,-0.0104451375416,0.00783222702109,-0.00882158402488,-0.00520972904163,-0.010108622064099999,0.00735898326383,0.017962845549400003,-0.009937592945489999,1.01007282734,-0.10003540664899999,6.918075561519999,0.392811238766,0.461329877377,0.26699924469,2783997,1522677559,504668959,,"['head_nod', 'head_pan', 'left_e0', 'left_e1', 'left_s0', 'left_s1', 'left_w0', 'left_w1', 'left_w2', 'right_e0', 'right_e1', 'right_s0', 'right_s1', 'right_w0', 'right_w1', 'right_w2', 'torso_t0']","(0.0, -0.1012427320004373, -0.9069661408372509, 1.5021506865367915, 0.27880100819817394, 0.6454224165027879, 2.3423886631010267, -0.48780589054756157, -0.03298058693953639, 0.4651796739262517, 0.9230729391100477, 0.3133155759255958, -0.7083156288060898, -0.37160684586524145, 1.406276887293953, -0.03259709174256504, -12.565987119160338)","(0.0, -0.006675884387626033, -0.018064157754752792, 0.009032078877376396, -0.01727875959150267, 0.005890486224375911, 0.01021017612225158, -0.0007853981632501215, -0.011388273367126762, -0.0023561944897503642, 0.011388273367126762, -0.011388273367126762, 0.008639379795751335, 0.0035342917346255468, -0.0007853981632501215, 0.00039269908162506076, 0.0)","(0.0, 0.0, -14.684, 10.852, 0.184, 5.036, 0.104, -2.648, 0.268, 7.268, -16.012, 0.184, -28.88, 0.0, 0.208, -0.12, -20.48)",2764923,1522677562,446825789,robotiq_force_torque_frame_id,0.219000005722,0.909999895096,-0.537998580933,-0.0309999994934,-0.221000000834,-0.107000000775,0.0,0.0,0.0,0.0,0.0,0.0,0.0,0.0,0.0,0.0,3,"(0.5282605997723452, -0.8173976392976043, 0.13420757995327057, 0.9999377972961766, -0.004352227397904551, -0.009388168303914837, 0.004161964805753001)",0.039999961853000005,0.09999990463300001,0.06999969482400004,0.0030000023543000007,-0.005999997258000017,-0.002000004053000007
1522706362.5,28379,1522677562,457441091,,2783648,1522677559,516601655,,0.794918379941,-0.450508156836,0.12889096094799998,0.0314727622428,0.999421622389,-0.0102192734251,0.00783915737437,-0.0077801537505,0.023248235753599997,-0.0142391027091,0.021049001192099997,0.0311736527518,0.0192309544537,0.723683655262,-0.225294351578,6.932000637050001,0.446467429399,0.340335130692,0.294711649418,2783998,1522677559,514676031,,"['head_nod', 'head_pan', 'left_e0', 'left_e1', 'left_s0', 'left_s1', 'left_w0', 'left_w1', 'left_w2', 'right_e0', 'right_e1', 'right_s0', 'right_s1', 'right_w0', 'right_w1', 'right_w2', 'torso_t0']","(0.0, -0.10085923680346595, -0.9069661408372509, 1.50176719133982, 0.27803401780423126, 0.6450389213058165, 2.3427721582979983, -0.4881893857445329, -0.0337475773334791, 0.4663301595171658, 0.9226894439130764, 0.3121650903346817, -0.7071651432151758, -0.3723738362591842, 1.4058933920969816, -0.03259709174256504, -12.565987119160338)","(0.0, -0.007853981632501214, -0.01727875959150267, -0.019242254999627974, 0.008639379795751335, -0.006283185306000972, -0.0035342917346255468, 0.0, 0.005890486224375911, 0.003926990816250607, 0.01531526418337737, 0.01688606050987761, 0.013744467856877126, 0.009424777959001457, 0.0070685834692510935, 0.003926990816250607, 0.0)","(0.0, 0.0, -14.784, 10.916, 0.28, 5.004, 0.084, -2.656, 0.26, 7.268, -16.012, 0.06, -28.936, -0.008, 0.2, -0.14, -20.48)",2764924,1522677562,454967728,robotiq_force_torque_frame_id,-0.0909999370575,0.349999952316,-0.408001327515,-0.029999999329400003,-0.215000003576,-0.12800000607999998,0.0,0.0,0.0,0.0,0.0,0.0,0.0,0.0,0.0,0.0,3,"(0.5282605997723452, -0.8173976392976043, 0.13420757995327057, 0.9999377972961766, -0.004352227397904551, -0.009388168303914837, 0.004161964805753001)",-0.3099999427795,-0.55999994278,0.129997253418,0.0010000001639999985,0.005999997258000017,-0.021000005304999972
1522706362.5,28380,1522677562,467453002,,2783649,1522677559,526593958,,0.794551678312,-0.44984191872699997,0.12860868507099998,0.0308506012201,0.999444849981,-0.010378737782,0.007107323909,0.0101722356954,-0.00302612439334,0.00953655636668,-0.008658177120950001,-0.018442281116400002,-0.00313248672577,0.542498290539,-0.187369480729,6.903350353239999,0.384976059198,0.282289147377,0.276509821415,2783999,1522677559,524655834,,"['head_nod', 'head_pan', 'left_e0', 'left_e1', 'left_s0', 'left_s1', 'left_w0', 'left_w1', 'left_w2', 'right_e0', 'right_e1', 'right_s0', 'right_s1', 'right_w0', 'right_w1', 'right_w2', 'torso_t0']","(0.0, -0.1012427320004373, -0.9065826456402796, 1.5013836961428486, 0.2784175130012026, 0.6450389213058165, 2.3412381775101125, -0.48742239535059023, -0.03259709174256504, 0.4651796739262517, 0.9230729391100477, 0.3136990711225671, -0.7071651432151758, -0.37199034106221285, 1.4066603824909245, -0.03298058693953639, -12.565987119160338)","(0.0, 0.0007853981632501215, 0.019242254999627974, -0.0200276531628781, -0.01649336142825255, -0.01610066234662749, 0.0019634954081253035, -0.006675884387626033, 0.01060287520387664, -0.014137166938502187, -0.031415926530004856, 0.012959069693627005, -0.00039269908162506076, 0.00510508806112579, 0.006675884387626033, -0.0047123889795007284, 0.0)","(0.0, 0.0, -14.684, 10.948, 0.28, 5.068, 0.096, -2.648, 0.252, 7.144, -15.984, 0.06, -28.968, -0.008, 0.208, -0.14, -20.48)",2764925,1522677562,463099419,robotiq_force_torque_frame_id,-0.441000080109,0.0799999713898,-0.5280002593990001,-0.029999999329400003,-0.21799999475499998,-0.152999997139,0.0,0.0,0.0,0.0,0.0,0.0,0.0,0.0,0.0,0.0,3,"(0.5282605997723452, -0.8173976392976043, 0.13420757995327057, 0.9999377972961766, -0.004352227397904551, -0.009388168303914837, 0.004161964805753001)",-0.3500001430515,-0.26999998092620003,-0.11999893188400007,0.0,-0.002999991178999989,-0.024999991059000026
1522706362.5,28381,1522677562,477432966,,2783650,1522677559,536590929,,0.794635603258,-0.45083203439400005,0.128948173769,0.0312587006348,0.9994235066889999,-0.0108671740695,0.0075797387239100004,0.00564170335967,-0.0117945769235,0.00899130642199,-0.017864530674599997,-0.0210369258476,-0.0018804659627,0.524933934212,-0.211981549859,6.854819774630001,0.46631246805200005,0.261784076691,0.279220014811,2783999,1522677559,524655834,,"['head_nod', 'head_pan', 'left_e0', 'left_e1', 'left_s0', 'left_s1', 'left_w0', 'left_w1', 'left_w2', 'right_e0', 'right_e1', 'right_s0', 'right_s1', 'right_w0', 'right_w1', 'right_w2', 'torso_t0']","(0.0, -0.1012427320004373, -0.9065826456402796, 1.5013836961428486, 0.2784175130012026, 0.6450389213058165, 2.3412381775101125, -0.48742239535059023, -0.03259709174256504, 0.4651796739262517, 0.9230729391100477, 0.3136990711225671, -0.7071651432151758, -0.37199034106221285, 1.4066603824909245, -0.03298058693953639, -12.565987119160338)","(0.0, 0.0007853981632501215, 0.019242254999627974, -0.0200276531628781, -0.01649336142825255, -0.01610066234662749, 0.0019634954081253035, -0.006675884387626033, 0.01060287520387664, -0.014137166938502187, -0.031415926530004856, 0.012959069693627005, -0.00039269908162506076, 0.00510508806112579, 0.006675884387626033, -0.0047123889795007284, 0.0)","(0.0, 0.0, -14.684, 10.948, 0.28, 5.068, 0.096, -2.648, 0.252, 7.144, -15.984, 0.06, -28.968, -0.008, 0.208, -0.14, -20.48)",2764926,1522677562,475321376,robotiq_force_torque_frame_id,-0.560999965668,-0.0300001621246,-0.537998580933,-0.0270000007004,-0.21899999678100002,-0.155000001192,0.0,0.0,0.0,0.0,0.0,0.0,0.0,0.0,0.0,0.0,3,"(0.5282605997723452, -0.8173976392976043, 0.13420757995327057, 0.9999377972961766, -0.004352227397904551, -0.009388168303914837, 0.004161964805753001)",-0.11999988555900004,-0.1100001335144,-0.009998321533999932,0.0029999986290000016,-0.0010000020260000353,-0.002000004052999993
1522706362.5,28382,1522677562,487468957,,2783651,1522677559,546589822,,0.794339197064,-0.449844860143,0.128774254069,0.031238519841999997,0.9994346289180001,-0.0102911074811,0.006976424917670001,-0.00455919152938,0.0045422826829899995,-0.00390387030017,-0.0119260362396,0.0122320839096,0.0160274480871,0.8339291810989999,-0.18216557800799998,6.90579509735,0.422416359186,0.376181602478,0.268506467342,2783999,1522677559,524655834,,"['head_nod', 'head_pan', 'left_e0', 'left_e1', 'left_s0', 'left_s1', 'left_w0', 'left_w1', 'left_w2', 'right_e0', 'right_e1', 'right_s0', 'right_s1', 'right_w0', 'right_w1', 'right_w2', 'torso_t0']","(0.0, -0.1012427320004373, -0.9065826456402796, 1.5013836961428486, 0.2784175130012026, 0.6450389213058165, 2.3412381775101125, -0.48742239535059023, -0.03259709174256504, 0.4651796739262517, 0.9230729391100477, 0.3136990711225671, -0.7071651432151758, -0.37199034106221285, 1.4066603824909245, -0.03298058693953639, -12.565987119160338)","(0.0, 0.0007853981632501215, 0.019242254999627974, -0.0200276531628781, -0.01649336142825255, -0.01610066234662749, 0.0019634954081253035, -0.006675884387626033, 0.01060287520387664, -0.014137166938502187, -0.031415926530004856, 0.012959069693627005, -0.00039269908162506076, 0.00510508806112579, 0.006675884387626033, -0.0047123889795007284, 0.0)","(0.0, 0.0, -14.684, 10.948, 0.28, 5.068, 0.096, -2.648, 0.252, 7.144, -15.984, 0.06, -28.968, -0.008, 0.208, -0.14, -20.48)",2764927,1522677562,483452321,robotiq_force_torque_frame_id,-0.751000022888,0.0900002002716,-0.518001937866,-0.0289999991655,-0.224000006914,-0.14499999582800002,0.0,0.0,0.0,0.0,0.0,0.0,0.0,0.0,0.0,0.0,3,"(0.5282605997723452, -0.8173976392976043, 0.13420757995327057, 0.9999377972961766, -0.004352227397904551, -0.009388168303914837, 0.004161964805753001)",-0.19000005722000002,0.12000036239619999,0.019996643066999997,-0.0019999984650999995,-0.005000010132999971,0.010000005363999975
