time,.header.seq,.header.stamp.secs,.header.stamp.nsecs,.header.frame_id,.endpoint_state.header.seq,.endpoint_state.header.stamp.secs,.endpoint_state.header.stamp.nsecs,.endpoint_state.header.frame_id,.endpoint_state.pose.position.x,.endpoint_state.pose.position.y,.endpoint_state.pose.position.z,.endpoint_state.pose.orientation.x,.endpoint_state.pose.orientation.y,.endpoint_state.pose.orientation.z,.endpoint_state.pose.orientation.w,.endpoint_state.twist.linear.x,.endpoint_state.twist.linear.y,.endpoint_state.twist.linear.z,.endpoint_state.twist.angular.x,.endpoint_state.twist.angular.y,.endpoint_state.twist.angular.z,.endpoint_state.wrench.force.x,.endpoint_state.wrench.force.y,.endpoint_state.wrench.force.z,.endpoint_state.wrench.torque.x,.endpoint_state.wrench.torque.y,.endpoint_state.wrench.torque.z,.joint_state.header.seq,.joint_state.header.stamp.secs,.joint_state.header.stamp.nsecs,.joint_state.header.frame_id,.joint_state.name,.joint_state.position,.joint_state.velocity,.joint_state.effort,.wrench_stamped.header.seq,.wrench_stamped.header.stamp.secs,.wrench_stamped.header.stamp.nsecs,.wrench_stamped.header.frame_id,.wrench_stamped.wrench.force.x,.wrench_stamped.wrench.force.y,.wrench_stamped.wrench.force.z,.wrench_stamped.wrench.torque.x,.wrench_stamped.wrench.torque.y,.wrench_stamped.wrench.torque.z,.tactile_values.tactile_values_0,.tactile_values.tactile_values_1,.tactile_values.tactile_values_2,.tactile_values.tactile_values_3,.tactile_values.tactile_values_4,.tactile_values.tactile_values_5,.tactile_values.tactile_values_6,.tactile_values.tactile_values_7,.tactile_values.tactile_values_8,.tactile_values.tactile_values_9,.tag,.goal_vector,.delta_wrench.force.x,.delta_wrench.force.y,.delta_wrench.force.z,.delta_wrench.torque.x,.delta_wrench.torque.y,.delta_wrench.torque.z
1522705303.88,27469,1522676503,882462024,,2677793,1522676500,966901268,,0.795298566703,-0.44889577176600004,0.128611270428,0.0304916825241,0.999453412374,-0.00987749565257,0.00809746078154,0.0076353617286299994,0.015213707403599999,0.00279364584112,0.0191684996152,-0.006726790097060001,0.00977030374467,-0.779189944267,-0.0483615249395,7.505120754239999,0.64989054203,-0.310992270708,0.38263875246,2678143,1522676500,964963269,,"['head_nod', 'head_pan', 'left_e0', 'left_e1', 'left_s0', 'left_s1', 'left_w0', 'left_w1', 'left_w2', 'right_e0', 'right_e1', 'right_s0', 'right_s1', 'right_w0', 'right_w1', 'right_w2', 'torso_t0']","(0.0, -0.1012427320004373, -0.9073496360342223, 1.5013836961428486, 0.2795679985921167, 0.6446554261088451, 2.3412381775101125, -0.48703890015361884, -0.033364082136507746, 0.4663301595171658, 0.9242234247009617, 0.3136990711225671, -0.7075486384121471, -0.37160684586524145, 1.4043594113090963, -0.03259709174256504, -12.565987119160338)","(0.0, 0.007853981632501214, 0.0011780972448751821, 0.00510508806112579, 0.0027488935713754254, 0.003926990816250607, -0.01610066234662749, -0.0047123889795007284, -0.005497787142750851, 0.0200276531628781, -0.02513274122400389, 0.006675884387626033, 0.012566370612001944, 0.0023561944897503642, 0.012566370612001944, 0.0007853981632501215, 0.0)","(0.0, 0.0, -14.556, 10.948, 0.248, 5.132, 0.084, -2.664, 0.344, 7.9, -16.132, -0.152, -29.32, 0.0, 0.188, -0.112, -20.48)",2659177,1522676503,877038825,robotiq_force_torque_frame_id,-0.0099999666214,0.685000014305,-0.20200042724599998,-0.0340000018477,-0.19900000095400003,-0.170000001788,420.0,516.0,568.0,601.0,608.0,440.0,467.0,496.0,674.0,731.0,3,"(0.7750257697136417, -0.057739069177687695, 0.06805985866624431, 0.9805558951286351, 0.19113576665877677, 0.04314736971911707, 0.010749870630145394)",0.0,0.0,0.0,0.0,0.0,0.0
1522705303.92,27470,1522676503,892498970,,2677793,1522676500,966901268,,0.795298566703,-0.44889577176600004,0.128611270428,0.0304916825241,0.999453412374,-0.00987749565257,0.00809746078154,0.0076353617286299994,0.015213707403599999,0.00279364584112,0.0191684996152,-0.006726790097060001,0.00977030374467,-0.779189944267,-0.0483615249395,7.505120754239999,0.64989054203,-0.310992270708,0.38263875246,2678143,1522676500,964963269,,"['head_nod', 'head_pan', 'left_e0', 'left_e1', 'left_s0', 'left_s1', 'left_w0', 'left_w1', 'left_w2', 'right_e0', 'right_e1', 'right_s0', 'right_s1', 'right_w0', 'right_w1', 'right_w2', 'torso_t0']","(0.0, -0.1012427320004373, -0.9073496360342223, 1.5013836961428486, 0.2795679985921167, 0.6446554261088451, 2.3412381775101125, -0.48703890015361884, -0.033364082136507746, 0.4663301595171658, 0.9242234247009617, 0.3136990711225671, -0.7075486384121471, -0.37160684586524145, 1.4043594113090963, -0.03259709174256504, -12.565987119160338)","(0.0, 0.007853981632501214, 0.0011780972448751821, 0.00510508806112579, 0.0027488935713754254, 0.003926990816250607, -0.01610066234662749, -0.0047123889795007284, -0.005497787142750851, 0.0200276531628781, -0.02513274122400389, 0.006675884387626033, 0.012566370612001944, 0.0023561944897503642, 0.012566370612001944, 0.0007853981632501215, 0.0)","(0.0, 0.0, -14.556, 10.948, 0.248, 5.132, 0.084, -2.664, 0.344, 7.9, -16.132, -0.152, -29.32, 0.0, 0.188, -0.112, -20.48)",2659178,1522676503,885203121,robotiq_force_torque_frame_id,1.50000002384,-0.675,-0.402001190186,-0.0430000014603,-0.181999996305,-0.143000006676,420.0,516.0,568.0,601.0,608.0,440.0,467.0,496.0,674.0,731.0,3,"(0.7750257697136417, -0.057739069177687695, 0.06805985866624431, 0.9805558951286351, 0.19113576665877677, 0.04314736971911707, 0.010749870630145394)",1.5099999904613999,-1.3600000143050002,-0.20000076294000002,-0.0089999996126,0.017000004649000033,0.02699999511200002
1522705303.92,27471,1522676503,902508974,,2677795,1522676500,986879239,,0.795381192533,-0.449249445469,0.128746525334,0.030750333462799997,0.999443810921,-0.00990096166397,0.00827386012904,0.0025925423204699997,-0.0170000022695,0.0103555569317,-0.007420212824829999,-0.0201738826247,-0.019151002104900002,0.059742435813,-0.048767834901800006,7.64219760895,0.6689383387569999,0.0346568934619,0.405605047941,2678143,1522676500,964963269,,"['head_nod', 'head_pan', 'left_e0', 'left_e1', 'left_s0', 'left_s1', 'left_w0', 'left_w1', 'left_w2', 'right_e0', 'right_e1', 'right_s0', 'right_s1', 'right_w0', 'right_w1', 'right_w2', 'torso_t0']","(0.0, -0.1012427320004373, -0.9073496360342223, 1.5013836961428486, 0.2795679985921167, 0.6446554261088451, 2.3412381775101125, -0.48703890015361884, -0.033364082136507746, 0.4663301595171658, 0.9242234247009617, 0.3136990711225671, -0.7075486384121471, -0.37160684586524145, 1.4043594113090963, -0.03259709174256504, -12.565987119160338)","(0.0, 0.007853981632501214, 0.0011780972448751821, 0.00510508806112579, 0.0027488935713754254, 0.003926990816250607, -0.01610066234662749, -0.0047123889795007284, -0.005497787142750851, 0.0200276531628781, -0.02513274122400389, 0.006675884387626033, 0.012566370612001944, 0.0023561944897503642, 0.012566370612001944, 0.0007853981632501215, 0.0)","(0.0, 0.0, -14.556, 10.948, 0.248, 5.132, 0.084, -2.664, 0.344, 7.9, -16.132, -0.152, -29.32, 0.0, 0.188, -0.112, -20.48)",2659179,1522676503,897420528,robotiq_force_torque_frame_id,1.3000002145799998,-1.12500004768,-0.531998443604,-0.0379999987781,-0.17700000107299999,-0.128999993205,420.0,516.0,568.0,601.0,608.0,440.0,467.0,496.0,674.0,731.0,3,"(0.7750257697136417, -0.057739069177687695, 0.06805985866624431, 0.9805558951286351, 0.19113576665877677, 0.04314736971911707, 0.010749870630145394)",-0.19999980926000016,-0.4500000476799999,-0.12999725341799995,0.005000002682200001,0.00499999523200001,0.014000013470999995
1522705303.92,27472,1522676503,912584066,,2677796,1522676500,996884675,,0.795430015601,-0.44848491977399996,0.128614167384,0.030078230175,0.999464148327,-0.010064037162500001,0.0080889699837,0.00887886735751,-0.012939118644,0.0167361021196,-0.0129834811841,-0.0338667814983,-0.015770893398200002,1.0052701234799999,-0.249157205224,7.78137016296,0.747784495354,0.442627042532,0.363378852606,1059205,1522676501,999936,,['l_gripper_l_finger_joint'],"(0.0032494800670444966,)","(0.0,)","(0.0,)",2659180,1522676503,905600451,robotiq_force_torque_frame_id,1.1199999094,-0.8850000381470001,-0.39199905395499995,-0.0340000018477,-0.180999994278,-0.135000005364,420.0,516.0,568.0,601.0,608.0,440.0,467.0,496.0,674.0,731.0,3,"(0.7750257697136417, -0.057739069177687695, 0.06805985866624431, 0.9805558951286351, 0.19113576665877677, 0.04314736971911707, 0.010749870630145394)",-0.18000030517999988,0.24000000953299983,0.139999389649,0.003999996930399999,-0.003999993205000024,-0.006000012159000007
1522705303.96,27473,1522676503,922477960,,2677797,1522676501,6884944,,0.796016448005,-0.44854129555,0.129364988563,0.0302859654417,0.999455436137,-0.00957241056892,0.00894205957243,0.013121757488599999,-0.0111534290117,0.00880739991359,-0.015478900659700002,-0.0322425220015,-0.0145670921652,0.25106182694400003,-0.0691444128752,7.6372642517100005,0.68284291029,0.134771987796,0.385790944099,2678147,1522676501,4977074,,"['head_nod', 'head_pan', 'left_e0', 'left_e1', 'left_s0', 'left_s1', 'left_w0', 'left_w1', 'left_w2', 'right_e0', 'right_e1', 'right_s0', 'right_s1', 'right_w0', 'right_w1', 'right_w2', 'torso_t0']","(0.0, -0.1012427320004373, -0.9065826456402796, 1.50176719133982, 0.2791845033951453, 0.6450389213058165, 2.3412381775101125, -0.48857288094150425, -0.033364082136507746, 0.4670971499111085, 0.9230729391100477, 0.3136990711225671, -0.7079321336091184, -0.3712233506682701, 1.4043594113090963, -0.03298058693953639, -12.565987119160338)","(0.0, -0.004319689897875668, -0.0035342917346255468, -0.0047123889795007284, 0.009032078877376396, -0.00039269908162506076, 0.009817477040626518, -0.003141592653000486, -0.008639379795751335, 0.005497787142750851, -0.024740042142378828, -0.0047123889795007284, 0.0011780972448751821, -0.015707963265002428, -0.009817477040626518, 0.007461282550876154, 0.0)","(0.0, 0.0, -14.752, 10.948, 0.28, 5.168, 0.076, -2.608, 0.344, 7.992, -16.192, 0.028, -29.232, 0.016, 0.228, -0.12, -20.48)",2659181,1522676503,913768058,robotiq_force_torque_frame_id,1.28999998569,-0.925,-0.242001342773,-0.0460000000894,-0.194000005722,-0.14000000059599998,420.0,516.0,568.0,601.0,608.0,440.0,467.0,496.0,674.0,731.0,3,"(0.7750257697136417, -0.057739069177687695, 0.06805985866624431, 0.9805558951286351, 0.19113576665877677, 0.04314736971911707, 0.010749870630145394)",0.17000007629000002,-0.03999996185299992,0.14999771118199995,-0.011999998241699998,-0.013000011443999981,-0.004999995231999982
1522705303.96,27474,1522676503,932445049,,2677798,1522676501,16886866,,0.795848384211,-0.449047658724,0.12944507446599998,0.030474675179699998,0.999444898983,-0.010140553319,0.008851962909530001,0.0172777644914,-0.00949767798286,0.0198064461499,-0.0135983513118,-0.0445362780147,0.000889027613117,-0.401540517807,0.160870790482,7.47598791122,0.557342529297,-0.10767285525800001,0.37531438469899997,2678148,1522676501,14984698,,"['head_nod', 'head_pan', 'left_e0', 'left_e1', 'left_s0', 'left_s1', 'left_w0', 'left_w1', 'left_w2', 'right_e0', 'right_e1', 'right_s0', 'right_s1', 'right_w0', 'right_w1', 'right_w2', 'torso_t0']","(0.0, -0.1012427320004373, -0.9069661408372509, 1.5010002009458774, 0.2791845033951453, 0.6454224165027879, 2.3423886631010267, -0.48742239535059023, -0.03298058693953639, 0.4667136547141371, 0.9234564343070191, 0.3136990711225671, -0.7083156288060898, -0.37199034106221285, 1.4043594113090963, -0.03259709174256504, -12.565987119160338)","(0.0, -0.00510508806112579, -0.0007853981632501215, -0.01610066234662749, -0.0019634954081253035, 0.003926990816250607, -0.014922565101752308, 0.0, 0.006675884387626033, 0.0027488935713754254, -0.03259402377488004, -0.0019634954081253035, -0.011780972448751823, -0.00510508806112579, -0.0035342917346255468, -0.011388273367126762, 0.0)","(0.0, 0.0, -14.684, 10.916, 0.216, 5.168, 0.084, -2.636, 0.316, 7.9, -16.072, 0.092, -29.232, 0.032, 0.228, -0.128, -20.48)",2659182,1522676503,926001113,robotiq_force_torque_frame_id,1.32999994755,-0.795000123978,-0.362000274658,-0.035999998450300004,-0.21400000155,-0.157000005245,420.0,516.0,568.0,601.0,608.0,440.0,467.0,496.0,674.0,731.0,3,"(0.7750257697136417, -0.057739069177687695, 0.06805985866624431, 0.9805558951286351, 0.19113576665877677, 0.04314736971911707, 0.010749870630145394)",0.03999996185999999,0.12999987602200003,-0.119998931885,0.010000001639099997,-0.019999995828000022,-0.017000004649000006
1522705303.96,27475,1522676503,942442893,,2677798,1522676501,16886866,,0.795848384211,-0.449047658724,0.12944507446599998,0.030474675179699998,0.999444898983,-0.010140553319,0.008851962909530001,0.0172777644914,-0.00949767798286,0.0198064461499,-0.0135983513118,-0.0445362780147,0.000889027613117,-0.401540517807,0.160870790482,7.47598791122,0.557342529297,-0.10767285525800001,0.37531438469899997,2678148,1522676501,14984698,,"['head_nod', 'head_pan', 'left_e0', 'left_e1', 'left_s0', 'left_s1', 'left_w0', 'left_w1', 'left_w2', 'right_e0', 'right_e1', 'right_s0', 'right_s1', 'right_w0', 'right_w1', 'right_w2', 'torso_t0']","(0.0, -0.1012427320004373, -0.9069661408372509, 1.5010002009458774, 0.2791845033951453, 0.6454224165027879, 2.3423886631010267, -0.48742239535059023, -0.03298058693953639, 0.4667136547141371, 0.9234564343070191, 0.3136990711225671, -0.7083156288060898, -0.37199034106221285, 1.4043594113090963, -0.03259709174256504, -12.565987119160338)","(0.0, -0.00510508806112579, -0.0007853981632501215, -0.01610066234662749, -0.0019634954081253035, 0.003926990816250607, -0.014922565101752308, 0.0, 0.006675884387626033, 0.0027488935713754254, -0.03259402377488004, -0.0019634954081253035, -0.011780972448751823, -0.00510508806112579, -0.0035342917346255468, -0.011388273367126762, 0.0)","(0.0, 0.0, -14.684, 10.916, 0.216, 5.168, 0.084, -2.636, 0.316, 7.9, -16.072, 0.092, -29.232, 0.032, 0.228, -0.128, -20.48)",2659183,1522676503,934136600,robotiq_force_torque_frame_id,1.15999987125,-0.905000019073,-0.382000732422,-0.0230000000447,-0.20999999344300002,-0.146999999881,420.0,516.0,568.0,601.0,608.0,440.0,467.0,496.0,674.0,731.0,3,"(0.7750257697136417, -0.057739069177687695, 0.06805985866624431, 0.9805558951286351, 0.19113576665877677, 0.04314736971911707, 0.010749870630145394)",-0.17000007630000002,-0.10999989509499997,-0.020000457764,0.012999998405600004,0.0040000081069999915,0.010000005364000003
1522705303.96,27476,1522676503,952502012,,2677800,1522676501,36884272,,0.796235233014,-0.447844353441,0.12915538235500001,0.029806979909099997,0.9994726665029999,-0.0091817556064,0.009034833983209999,0.00402045914742,0.020928745773200003,0.00331636236568,0.0405624645115,-0.00345691875484,0.010156892011,-1.0808246135700001,0.301767110825,7.11861658096,0.445882320404,-0.39086800813699996,0.351890265942,2678150,1522676501,34986200,,"['head_nod', 'head_pan', 'left_e0', 'left_e1', 'left_s0', 'left_s1', 'left_w0', 'left_w1', 'left_w2', 'right_e0', 'right_e1', 'right_s0', 'right_s1', 'right_w0', 'right_w1', 'right_w2', 'torso_t0']","(0.0, -0.1012427320004373, -0.9069661408372509, 1.50176719133982, 0.27803401780423126, 0.6450389213058165, 2.3423886631010267, -0.48742239535059023, -0.0337475773334791, 0.46748064510807985, 0.9230729391100477, 0.31408256631953846, -0.7075486384121471, -0.3708398554712988, 1.403975916112125, -0.033364082136507746, -12.565987119160338)","(0.0, 0.007853981632501214, -0.0070685834692510935, 0.023561944897503646, -0.005497787142750851, -0.0019634954081253035, -0.001570796326500243, 0.009032078877376396, -0.0019634954081253035, 0.029845130203504617, -0.01531526418337737, -0.003926990816250607, 0.008246680714126275, 0.01767145867312773, 0.01531526418337737, -0.0027488935713754254, 0.0)","(0.0, 0.0, -14.588, 10.916, 0.308, 5.132, 0.076, -2.656, 0.344, 7.804, -15.924, 0.06, -29.144, 0.024, 0.2, -0.112, -20.48)",2659184,1522676503,946337694,robotiq_force_torque_frame_id,1.0299999952299999,-1.175,-0.39199905395499995,-0.0379999987781,-0.188999995589,-0.136000007391,420.0,516.0,568.0,601.0,608.0,440.0,467.0,496.0,674.0,731.0,3,"(0.7750257697136417, -0.057739069177687695, 0.06805985866624431, 0.9805558951286351, 0.19113576665877677, 0.04314736971911707, 0.010749870630145394)",-0.12999987602000007,-0.26999998092700006,-0.009998321532999954,-0.014999998733400001,0.02099999785400003,0.010999992489999999
1522705304.0,27477,1522676503,962501049,,2677801,1522676501,46883334,,0.796246800889,-0.44929409103900003,0.129669558915,0.0303766059199,0.999443353917,-0.010144466367299999,0.00934526225932,0.00130147716502,0.0057694540395,-0.00337070721738,0.007021651729210001,0.000380503537247,0.0194469740765,-1.4140342474,0.407975852489,7.07413244247,0.39397659897799997,-0.493664592505,0.366841286421,1059207,1522676501,51000064,,['l_gripper_l_finger_joint'],"(0.0032494800670444966,)","(0.0,)","(0.0,)",2659185,1522676503,954504226,robotiq_force_torque_frame_id,1.92999985218,-0.24499993324299998,-0.5220001220699999,-0.035000000148999996,-0.184000000358,-0.134000003338,420.0,516.0,568.0,601.0,608.0,440.0,467.0,496.0,674.0,731.0,3,"(0.7750257697136417, -0.057739069177687695, 0.06805985866624431, 0.9805558951286351, 0.19113576665877677, 0.04314736971911707, 0.010749870630145394)",0.8999998569500001,0.9300000667570001,-0.13000106811499995,0.002999998629100005,0.004999995231000004,0.002000004052999993
1522705304.0,27478,1522676503,972455024,,2677802,1522676501,56892429,,0.796307822386,-0.44925363728699996,0.129765913761,0.030292186157499998,0.9994456261489999,-0.0100692560418,0.009456950429959999,0.020064707454,-0.00494374186229,0.0172868014962,-0.0156550553331,-0.052475202997199995,-0.00660248465628,-0.655067205429,0.393353104591,7.247110843660001,0.46843963861500004,-0.16373026371,0.352589070797,2678152,1522676501,54954923,,"['head_nod', 'head_pan', 'left_e0', 'left_e1', 'left_s0', 'left_s1', 'left_w0', 'left_w1', 'left_w2', 'right_e0', 'right_e1', 'right_s0', 'right_s1', 'right_w0', 'right_w1', 'right_w2', 'torso_t0']","(0.0, -0.1012427320004373, -0.9065826456402796, 1.50176719133982, 0.2784175130012026, 0.6446554261088451, 2.3423886631010267, -0.48742239535059023, -0.033364082136507746, 0.4670971499111085, 0.9226894439130764, 0.3133155759255958, -0.7083156288060898, -0.37199034106221285, 1.403975916112125, -0.033364082136507746, -12.565987119160338)","(0.0, -0.009817477040626518, -0.0027488935713754254, 0.009817477040626518, -0.014529866020127248, -0.011388273367126762, 0.01688606050987761, -0.01060287520387664, 0.0011780972448751821, -0.009032078877376396, -0.018064157754752792, 0.007853981632501214, -0.01767145867312773, 0.003141592653000486, -0.022776546734253524, 0.0023561944897503642, 0.0)","(0.0, 0.0, -14.752, 10.916, 0.28, 5.1, 0.084, -2.628, 0.336, 7.932, -15.924, 0.184, -29.084, 0.024, 0.268, -0.1, -20.48)",2659186,1522676503,966722657,robotiq_force_torque_frame_id,1.78999998569,0.255000066757,-0.042000579834000004,-0.035000000148999996,-0.179000005126,-0.143999993801,420.0,516.0,568.0,601.0,608.0,440.0,467.0,496.0,674.0,731.0,3,"(0.7750257697136417, -0.057739069177687695, 0.06805985866624431, 0.9805558951286351, 0.19113576665877677, 0.04314736971911707, 0.010749870630145394)",-0.13999986648999996,0.5,0.4799995422359999,0.0,0.004999995231999982,-0.009999990463000014
1522705304.0,27479,1522676503,982484102,,2677802,1522676501,56892429,,0.796307822386,-0.44925363728699996,0.129765913761,0.030292186157499998,0.9994456261489999,-0.0100692560418,0.009456950429959999,0.020064707454,-0.00494374186229,0.0172868014962,-0.0156550553331,-0.052475202997199995,-0.00660248465628,-0.655067205429,0.393353104591,7.247110843660001,0.46843963861500004,-0.16373026371,0.352589070797,1059208,1522676501,72999936,,['r_gripper_l_finger_joint'],"(0.019983251598477365,)","(0.0,)","(0.0,)",2659187,1522676503,974875071,robotiq_force_torque_frame_id,0.960000061989,-0.684999990463,0.058001708984400005,-0.05099999904630001,-0.187999993563,-0.153999999166,420.0,516.0,568.0,601.0,608.0,440.0,467.0,496.0,674.0,731.0,3,"(0.7750257697136417, -0.057739069177687695, 0.06805985866624431, 0.9805558951286351, 0.19113576665877677, 0.04314736971911707, 0.010749870630145394)",-0.829999923701,-0.94000005722,0.10000228881840001,-0.015999998897300013,-0.008999988437000006,-0.010000005364999981
1522705304.0,27480,1522676503,992475986,,2677804,1522676501,76878680,,0.7957661163680001,-0.44954628841399996,0.129230377549,0.0304034966196,0.999446016168,-0.010350506575799999,0.00872669316677,0.000365352065173,0.00413366809465,0.0008172901357700001,0.011480183227999999,-0.0046280753846700004,0.004960058743180001,-0.625306725502,0.210399240255,7.108212471010001,0.49853926897,-0.148350417614,0.359349578619,1059208,1522676501,72999936,,['r_gripper_l_finger_joint'],"(0.019983251598477365,)","(0.0,)","(0.0,)",2659188,1522676503,987078014,robotiq_force_torque_frame_id,1.01000001431,-0.905000019073,-0.022000122070299995,-0.0410000011325,-0.206000000238,-0.149000003934,420.0,516.0,568.0,601.0,608.0,440.0,467.0,496.0,674.0,731.0,3,"(0.7750257697136417, -0.057739069177687695, 0.06805985866624431, 0.9805558951286351, 0.19113576665877677, 0.04314736971911707, 0.010749870630145394)",0.049999952321000074,-0.22000002861,-0.0800018310547,0.009999997913800011,-0.018000006674999985,0.004999995231999982
1522705304.0,27481,1522676504,2448081,,2677805,1522676501,86878840,,0.79552574086,-0.44999292672799995,0.12919104207,0.0310184943836,0.9994287082200001,-0.0102522626974,0.008660329171200002,0.0018398090146600002,-0.00400589941225,0.0076558861477900005,-0.017857056222599997,-0.00627484942506,0.009283492216379998,-0.715609610081,0.0940875858068,7.0159540176399995,0.56199234724,-0.21068367361999998,0.354243218899,2678155,1522676501,84935168,,"['head_nod', 'head_pan', 'left_e0', 'left_e1', 'left_s0', 'left_s1', 'left_w0', 'left_w1', 'left_w2', 'right_e0', 'right_e1', 'right_s0', 'right_s1', 'right_w0', 'right_w1', 'right_w2', 'torso_t0']","(0.0, -0.10200972239438001, -0.9069661408372509, 1.5021506865367915, 0.27880100819817394, 0.6454224165027879, 2.3412381775101125, -0.48780589054756157, -0.03298058693953639, 0.4667136547141371, 0.9234564343070191, 0.31254858553165304, -0.7079321336091184, -0.3723738362591842, 1.4043594113090963, -0.03259709174256504, -12.565987119160338)","(0.0, -0.0011780972448751821, -0.009817477040626518, 0.001570796326500243, -0.0023561944897503642, 0.005497787142750851, -0.03652101459113065, -0.0035342917346255468, 0.0, 0.0047123889795007284, -0.00039269908162506076, 0.0011780972448751821, -0.01021017612225158, -0.01688606050987761, 0.003141592653000486, -0.0027488935713754254, 0.0)","(0.0, 0.0, -14.62, 10.948, 0.34, 5.168, 0.084, -2.636, 0.336, 7.744, -15.892, -0.028, -28.968, 0.032, 0.248, -0.112, -20.48)",2659189,1522676503,995216817,robotiq_force_torque_frame_id,1.2300000429200002,-0.545000123978,-0.07199935913089998,-0.0460000000894,-0.203999996185,-0.15099999308599998,420.0,516.0,568.0,601.0,608.0,440.0,467.0,496.0,674.0,731.0,3,"(0.7750257697136417, -0.057739069177687695, 0.06805985866624431, 0.9805558951286351, 0.19113576665877677, 0.04314736971911707, 0.010749870630145394)",0.22000002861000012,0.35999989509499997,-0.049999237060599985,-0.004999998956900002,0.002000004052999993,-0.0019999891519999757
1522705304.01,27482,1522676504,12666940,,2677806,1522676501,96880134,,0.796514470287,-0.449136454872,0.129771832376,0.030068663683500002,0.9994486161920001,-0.0102689255681,0.009637853698430001,-0.008191841780459999,-0.0203730095322,0.00391079534525,-0.021949380049700002,0.012798845692,-0.021165997623400004,-1.0400967598,0.311111688614,6.871306896209999,0.439994454384,-0.35897836089100005,0.36260330677,1059209,1522676501,102000128,,['l_gripper_l_finger_joint'],"(0.0032494800670444966,)","(0.0,)","(0.0,)",2659190,1522676504,7409389,robotiq_force_torque_frame_id,0.940000081062,-0.545000123978,-0.612000274658,-0.0439999997616,-0.204999998212,-0.157000005245,420.0,516.0,568.0,601.0,608.0,440.0,467.0,496.0,674.0,731.0,3,"(0.7750257697136417, -0.057739069177687695, 0.06805985866624431, 0.9805558951286351, 0.19113576665877677, 0.04314736971911707, 0.010749870630145394)",-0.28999996185800025,0.0,-0.5400009155271001,0.0020000003277999973,-0.0010000020269999854,-0.006000012159000007
1522705304.02,27483,1522676504,22476911,,2677807,1522676501,106902534,,0.796446836167,-0.44890157536799996,0.12990153908399998,0.030331209854099997,0.9994426524240001,-0.0102617452904,0.00943921650998,0.008281165386560001,0.0160506590522,0.0125740776394,0.000706060049338,-0.0119256811334,0.0205400998892,-0.822038590908,0.318026006222,6.95767641068,0.47811496257799996,-0.2724609375,0.365203142166,2678157,1522676501,104952694,,"['head_nod', 'head_pan', 'left_e0', 'left_e1', 'left_s0', 'left_s1', 'left_w0', 'left_w1', 'left_w2', 'right_e0', 'right_e1', 'right_s0', 'right_s1', 'right_w0', 'right_w1', 'right_w2', 'torso_t0']","(0.0, -0.1012427320004373, -0.9073496360342223, 1.50176719133982, 0.27880100819817394, 0.6450389213058165, 2.3408546823131413, -0.48780589054756157, -0.03259709174256504, 0.4670971499111085, 0.922305948716105, 0.31408256631953846, -0.7083156288060898, -0.3723738362591842, 1.4043594113090963, -0.03259709174256504, -12.565987119160338)","(0.0, -0.0047123889795007284, -0.010995574285501701, -0.01060287520387664, 0.01727875959150267, 0.009817477040626518, 0.028274333877004374, 0.008639379795751335, 0.0007853981632501215, 0.005890486224375911, -0.013744467856877126, 0.02042035224450316, -0.01060287520387664, 0.0023561944897503642, 0.012566370612001944, -0.001570796326500243, 0.0)","(0.0, 0.0, -14.652, 10.948, 0.248, 5.132, 0.084, -2.656, 0.336, 7.836, -15.864, 0.124, -28.968, 0.032, 0.22, -0.12, -20.48)",2659191,1522676504,15560328,robotiq_force_torque_frame_id,1.17000010014,-0.184999990463,-0.7819984436040001,-0.0370000004768,-0.195999994874,-0.149000003934,420.0,516.0,568.0,601.0,608.0,440.0,467.0,496.0,674.0,731.0,3,"(0.7750257697136417, -0.057739069177687695, 0.06805985866624431, 0.9805558951286351, 0.19113576665877677, 0.04314736971911707, 0.010749870630145394)",0.23000001907800005,0.36000013351500004,-0.16999816894600006,0.006999999284800003,0.009000003337999996,0.008000001310999982
1522705304.03,27484,1522676504,32473087,,2677808,1522676501,116879076,,0.7961436106550001,-0.448913923935,0.129506039386,0.0304846813901,0.999444095069,-0.00997083294915,0.00909766580397,-0.00311336413552,-0.00402670904538,0.0067189678857900005,0.00658742708293,-0.000924214890305,-0.0100641441642,-0.6192842721940001,0.205222442746,6.899077415469999,0.49828052520800004,-0.215667814016,0.341123998165,1059210,1522676501,123000064,,['r_gripper_l_finger_joint'],"(0.019983251598477365,)","(0.0,)","(0.0,)",2659192,1522676504,27763009,robotiq_force_torque_frame_id,1.40000011921,-0.474999952316,-0.742001342773,-0.046999998390699994,-0.186000004411,-0.15099999308599998,420.0,516.0,568.0,601.0,608.0,440.0,467.0,496.0,674.0,731.0,3,"(0.7750257697136417, -0.057739069177687695, 0.06805985866624431, 0.9805558951286351, 0.19113576665877677, 0.04314736971911707, 0.010749870630145394)",0.23000001907,-0.28999996185300003,0.039997100831000054,-0.009999997913899994,0.009999990462999986,-0.0019999891519999757
1522705304.05,27485,1522676504,42741060,,2677809,1522676501,126880467,,0.795723586735,-0.44915035237499995,0.129563496877,0.0306303651866,0.999441384288,-0.010011998570799999,0.00885776417033,-0.0044772683243900005,0.0149226033959,-0.010130984017499999,0.0236407345445,0.0133477263425,0.00377549309908,-0.106565304101,-0.06890267133710001,7.01932239532,0.625430583954,0.0180899351835,0.362529098988,1059210,1522676501,123000064,,['r_gripper_l_finger_joint'],"(0.019983251598477365,)","(0.0,)","(0.0,)",2659193,1522676504,35903920,robotiq_force_torque_frame_id,1.5700001955,-0.36500005721999995,-0.77200012207,-0.052999999374199996,-0.187000006437,-0.143000006676,420.0,516.0,568.0,601.0,608.0,440.0,467.0,496.0,674.0,731.0,3,"(0.7750257697136417, -0.057739069177687695, 0.06805985866624431, 0.9805558951286351, 0.19113576665877677, 0.04314736971911707, 0.010749870630145394)",0.17000007629000002,0.10999989509600006,-0.02999877929700001,-0.006000000983500002,-0.0010000020259999798,0.007999986409999993
1522705304.05,27486,1522676504,52639007,,2677810,1522676501,136885020,,0.795412649429,-0.448842058248,0.129348086732,0.030509823469099997,0.999451680396,-0.00977379214733,0.0083643417781,-0.0026210735503600004,0.010103344782200001,-0.00193226007594,0.015244162059799999,0.00369528550197,0.00534942591336,0.44459354877499996,-0.0863334089518,7.084085941310001,0.616429567337,0.216459453106,0.35637059807800003,2678160,1522676501,134970336,,"['head_nod', 'head_pan', 'left_e0', 'left_e1', 'left_s0', 'left_s1', 'left_w0', 'left_w1', 'left_w2', 'right_e0', 'right_e1', 'right_s0', 'right_s1', 'right_w0', 'right_w1', 'right_w2', 'torso_t0']","(0.0, -0.10162622719740866, -0.9069661408372509, 1.5021506865367915, 0.27880100819817394, 0.6450389213058165, 2.343539148691941, -0.48780589054756157, -0.03298058693953639, 0.4670971499111085, 0.9238399295039904, 0.3133155759255958, -0.7083156288060898, -0.37160684586524145, 1.405126401703039, -0.03259709174256504, -12.565987119160338)","(0.0, 0.0027488935713754254, 0.011780972448751823, 0.01649336142825255, 0.006283185306000972, -0.012173671530376884, -0.001570796326500243, -0.003141592653000486, -0.001570796326500243, 0.013744467856877126, 0.01688606050987761, -0.004319689897875668, -0.0035342917346255468, 0.005497787142750851, -0.0035342917346255468, 0.004319689897875668, 0.0)","(0.0, 0.0, -14.652, 10.916, 0.28, 5.2, 0.084, -2.656, 0.324, 7.772, -16.012, 0.06, -28.88, 0.016, 0.228, -0.12, -20.48)",2659194,1522676504,44116271,robotiq_force_torque_frame_id,1.73000004292,-0.36500005721999995,-0.672001647949,-0.0439999997616,-0.193000003695,-0.14000000059599998,420.0,516.0,568.0,601.0,608.0,440.0,467.0,496.0,674.0,731.0,3,"(0.7750257697136417, -0.057739069177687695, 0.06805985866624431, 0.9805558951286351, 0.19113576665877677, 0.04314736971911707, 0.010749870630145394)",0.15999984741999995,0.0,0.09999847412100005,0.008999999612599993,-0.005999997258000017,0.003000006080000006
1522705304.06,27487,1522676504,62483072,,2677811,1522676501,146892087,,0.795992218702,-0.448056591599,0.129232304683,0.0296139790192,0.9994756419390001,-0.009738210563729999,0.00875332354752,0.00366530715355,-0.00254624003283,0.0015338082849400002,-0.000566734137826,-0.00868024440862,0.00525656411748,0.881752967834,-0.27165785431899997,7.150744438169999,0.666260957718,0.40819388628,0.33707058429700004,1059211,1522676501,152000000,,['l_gripper_l_finger_joint'],"(0.0032494800670444966,)","(0.0,)","(0.0,)",2659195,1522676504,56325079,robotiq_force_torque_frame_id,1.36000015736,-0.8850000381470001,-0.461998748779,-0.039000000804699994,-0.19699999690099998,-0.146999999881,420.0,516.0,568.0,601.0,608.0,440.0,467.0,496.0,674.0,731.0,3,"(0.7750257697136417, -0.057739069177687695, 0.06805985866624431, 0.9805558951286351, 0.19113576665877677, 0.04314736971911707, 0.010749870630145394)",-0.36999988555999996,-0.5199999809270002,0.21000289916999998,0.004999998956900009,-0.003999993205999974,-0.006999999285000003
1522705304.08,27488,1522676504,72446107,,2677812,1522676501,156893118,,0.795951753839,-0.4489433394,0.129699069749,0.0303140746996,0.999449206639,-0.0100345298455,0.00903595235129,-0.0022902378589099996,-0.0128542450587,0.000521041860004,-0.020349219068200003,0.00619646709466,-0.00921433016295,0.772415220737,-0.05054248869419999,7.07940816879,0.563466370106,0.34010103344899995,0.33894205093400004,2678162,1522676501,154976223,,"['head_nod', 'head_pan', 'left_e0', 'left_e1', 'left_s0', 'left_s1', 'left_w0', 'left_w1', 'left_w2', 'right_e0', 'right_e1', 'right_s0', 'right_s1', 'right_w0', 'right_w1', 'right_w2', 'torso_t0']","(0.0, -0.10085923680346595, -0.9069661408372509, 1.5013836961428486, 0.27880100819817394, 0.6454224165027879, 2.341621672707084, -0.48780589054756157, -0.0337475773334791, 0.4667136547141371, 0.9234564343070191, 0.3136990711225671, -0.7086991240030611, -0.37160684586524145, 1.4043594113090963, -0.03298058693953639, -12.565987119160338)","(0.0, -0.003926990816250607, -0.0070685834692510935, -0.012959069693627005, -0.003926990816250607, -0.001570796326500243, -0.0035342917346255468, -0.01649336142825255, 0.0, -0.01767145867312773, -0.009032078877376396, 0.0035342917346255468, 0.0007853981632501215, -0.008246680714126275, 0.0070685834692510935, -0.0007853981632501215, 0.0)","(0.0, 0.0, -14.556, 10.98, 0.248, 5.132, 0.096, -2.636, 0.344, 7.712, -16.044, 0.152, -28.88, 0.016, 0.208, -0.12, -20.48)",2659196,1522676504,64467357,robotiq_force_torque_frame_id,1.17999985218,-0.8250000953669999,-0.29200057983399996,-0.035000000148999996,-0.203999996185,-0.142000004649,420.0,516.0,568.0,601.0,608.0,440.0,467.0,496.0,674.0,731.0,3,"(0.7750257697136417, -0.057739069177687695, 0.06805985866624431, 0.9805558951286351, 0.19113576665877677, 0.04314736971911707, 0.010749870630145394)",-0.1800003051800001,0.059999942780000204,0.16999816894500003,0.004000000655699998,-0.006999999284000025,0.004999995231999982
1522705304.08,27489,1522676504,82462072,,2677813,1522676501,166890044,,0.7961000896170001,-0.44932540488600003,0.129713331817,0.0308303415625,0.9994321170139999,-0.00999733229754,0.00921883217647,-0.0020472655839000003,0.014759660103899999,-0.004182992634110001,-0.00875707474884,0.015353719104799999,0.0318334788947,0.273423761129,-0.0964518934488,7.06696987152,0.564900159836,0.162328958511,0.342012465,1059212,1522676501,174000128,,['r_gripper_l_finger_joint'],"(0.019983251598477365,)","(0.0,)","(0.0,)",2659197,1522676504,76676493,robotiq_force_torque_frame_id,0.760000014305,-1.21499996185,-0.5220001220699999,-0.035999998450300004,-0.206000000238,-0.133000001311,420.0,516.0,568.0,601.0,608.0,440.0,467.0,496.0,674.0,731.0,3,"(0.7750257697136417, -0.057739069177687695, 0.06805985866624431, 0.9805558951286351, 0.19113576665877677, 0.04314736971911707, 0.010749870630145394)",-0.41999983787499995,-0.3899998664830001,-0.22999954223599994,-0.0009999983013000077,-0.002000004052999993,0.009000003337999996
1522705304.09,27490,1522676504,92461109,,2677814,1522676501,176885171,,0.795739853782,-0.449476026498,0.129820280071,0.0304397660269,0.9994448388220001,-0.0100981268925,0.00902566500436,0.00120144963545,0.0108721564013,0.00474312272441,0.015159662115,0.00143423442875,0.00451615839582,-0.282115995884,0.0161551237106,7.06327676773,0.511711597443,-0.06607002019880001,0.33799818158100003,1059212,1522676501,174000128,,['r_gripper_l_finger_joint'],"(0.019983251598477365,)","(0.0,)","(0.0,)",2659198,1522676504,84828217,robotiq_force_torque_frame_id,-0.410000061989,-0.254999923706,-0.5019996643069999,-0.0460000000894,-0.19699999690099998,-0.14499999582800002,420.0,516.0,568.0,601.0,608.0,440.0,467.0,496.0,674.0,731.0,3,"(0.7750257697136417, -0.057739069177687695, 0.06805985866624431, 0.9805558951286351, 0.19113576665877677, 0.04314736971911707, 0.010749870630145394)",-1.170000076294,0.960000038144,0.020000457762999968,-0.010000001639099997,0.009000003337000018,-0.011999994517000012
1522705304.1,27491,1522676504,102427005,,2677815,1522676501,186885221,,0.7956864970819999,-0.44918341776299997,0.129445192072,0.0302549429408,0.9994515466670001,-0.0103191165499,0.00864639386246,-0.00550251792622,-0.024206016839400005,0.00333004777023,-0.007725487103949999,-0.00427075741613,-0.0382463197671,0.623701274395,-0.037199407815900004,7.127614498139999,0.554310202599,0.277843058109,0.36442327499399996,2678165,1522676501,184940966,,"['head_nod', 'head_pan', 'left_e0', 'left_e1', 'left_s0', 'left_s1', 'left_w0', 'left_w1', 'left_w2', 'right_e0', 'right_e1', 'right_s0', 'right_s1', 'right_w0', 'right_w1', 'right_w2', 'torso_t0']","(0.0, -0.10085923680346595, -0.9073496360342223, 1.5013836961428486, 0.2784175130012026, 0.6450389213058165, 2.3423886631010267, -0.48780589054756157, -0.03259709174256504, 0.4667136547141371, 0.9234564343070191, 0.3136990711225671, -0.7083156288060898, -0.3723738362591842, 1.4047429065060677, -0.03298058693953639, -12.565987119160338)","(0.0, -0.0019634954081253035, 0.008639379795751335, -0.0011780972448751821, -0.0011780972448751821, -0.009032078877376396, 0.019634954081253035, 0.012959069693627005, 0.011388273367126762, -0.012566370612001944, 0.0070685834692510935, -0.02513274122400389, -0.010995574285501701, 0.00510508806112579, -0.0047123889795007284, 0.006675884387626033, 0.0)","(0.0, 0.0, -14.588, 10.916, 0.28, 5.168, 0.096, -2.656, 0.336, 7.744, -16.044, 0.152, -28.936, -0.008, 0.208, -0.14, -20.48)",2659199,1522676504,97035252,robotiq_force_torque_frame_id,0.149999880791,0.624999952316,-0.492001342773,-0.0439999997616,-0.187000006437,-0.143000006676,420.0,516.0,568.0,601.0,608.0,440.0,467.0,496.0,674.0,731.0,3,"(0.7750257697136417, -0.057739069177687695, 0.06805985866624431, 0.9805558951286351, 0.19113576665877677, 0.04314736971911707, 0.010749870630145394)",0.55999994278,0.879999876022,0.009998321533999932,0.0020000003277999973,0.009999990463999991,0.0019999891520000312
1522705304.11,27492,1522676504,112456083,,2677816,1522676501,196881585,,0.795951753839,-0.4489433394,0.129699069749,0.0303140746996,0.999449206639,-0.0100345298455,0.00903595235129,-0.00381705793582,-0.00871404492491,-0.009963490920379998,-0.009618366653440001,0.00957632608776,-0.00393575994957,0.00781304389238,0.0642325431108,7.13606786728,0.5388420224189999,0.0387312658131,0.354972064495,1059213,1522676501,204000000,,['l_gripper_l_finger_joint'],"(0.0032494800670444966,)","(0.0,)","(0.0,)",2659200,1522676504,105180535,robotiq_force_torque_frame_id,1.00000002384,-0.11500005722000001,-0.72200088501,-0.035999998450300004,-0.184000000358,-0.135000005364,420.0,516.0,568.0,601.0,608.0,440.0,467.0,496.0,674.0,731.0,3,"(0.7750257697136417, -0.057739069177687695, 0.06805985866624431, 0.9805558951286351, 0.19113576665877677, 0.04314736971911707, 0.010749870630145394)",0.850000143049,-0.740000009536,-0.22999954223700003,0.0080000013113,0.0030000060790000005,0.008000001311999988
1522705304.12,27493,1522676504,122864961,,2677817,1522676501,206878506,,0.7957661323999999,-0.449161223745,0.12906403826500001,0.030952942200599996,0.9994348677279999,-0.00981095892314,0.00869514948006,-0.00338847258327,0.0112737734329,-0.013519286225299998,0.012261403808299999,0.0168587261427,0.021963032458700002,0.45706397295,-0.09355423599479999,7.2225198745700006,0.57662987709,0.252924233675,0.34697329998000004,2678167,1522676501,204966167,,"['head_nod', 'head_pan', 'left_e0', 'left_e1', 'left_s0', 'left_s1', 'left_w0', 'left_w1', 'left_w2', 'right_e0', 'right_e1', 'right_s0', 'right_s1', 'right_w0', 'right_w1', 'right_w2', 'torso_t0']","(0.0, -0.1012427320004373, -0.9065826456402796, 1.5013836961428486, 0.2784175130012026, 0.6450389213058165, 2.341621672707084, -0.48780589054756157, -0.03298058693953639, 0.4667136547141371, 0.9230729391100477, 0.3133155759255958, -0.7075486384121471, -0.37160684586524145, 1.4043594113090963, -0.032213596545593685, -12.565987119160338)","(0.0, -0.001570796326500243, -0.011780972448751823, 0.0027488935713754254, -0.003926990816250607, 0.003141592653000486, -0.019634954081253035, -0.004319689897875668, -0.018064157754752792, 0.0023561944897503642, 0.007853981632501214, 0.007461282550876154, 0.01649336142825255, 0.0027488935713754254, -0.004319689897875668, -0.01060287520387664, 0.0)","(0.0, 0.0, -14.684, 10.916, 0.34, 5.232, 0.096, -2.628, 0.336, 7.712, -16.044, 0.06, -28.996, -0.008, 0.248, -0.12, -20.48)",2659201,1522676504,117417267,robotiq_force_torque_frame_id,1.09000017643,-0.345000076294,-0.641999053955,-0.0410000011325,-0.188999995589,-0.138999998569,420.0,516.0,568.0,601.0,608.0,440.0,467.0,496.0,674.0,731.0,3,"(0.7750257697136417, -0.057739069177687695, 0.06805985866624431, 0.9805558951286351, 0.19113576665877677, 0.04314736971911707, 0.010749870630145394)",0.09000015259000005,-0.23000001907399997,0.08000183105500003,-0.005000002682199994,-0.004999995231000004,-0.0039999932049999964
1522705304.13,27494,1522676504,132427930,,2677819,1522676501,226883065,,0.795691624773,-0.44854406226899995,0.129096833415,0.0301218774778,0.999462230311,-0.009717020416649999,0.00857334196467,0.0014400856138499997,0.0008433031130439999,-0.00438513140899,0.0103399954851,-0.000759972224712,-0.0022369397865599997,0.09807955473660002,0.00015637278556799997,7.19132232666,0.49104899168000005,0.10683155059800001,0.344816356897,1059214,1522676501,224000000,,['r_gripper_l_finger_joint'],"(0.019983251598477365,)","(0.0,)","(0.0,)",2659202,1522676504,125553560,robotiq_force_torque_frame_id,1.03999998569,-0.135000038147,-0.492001342773,-0.035000000148999996,-0.195999994874,-0.143999993801,420.0,516.0,568.0,601.0,608.0,440.0,467.0,496.0,674.0,731.0,3,"(0.7750257697136417, -0.057739069177687695, 0.06805985866624431, 0.9805558951286351, 0.19113576665877677, 0.04314736971911707, 0.010749870630145394)",-0.05000019074000006,0.21000003814699997,0.149997711182,0.006000000983500002,-0.006999999285000003,-0.00499999523200001
1522705304.14,27495,1522676504,142463922,,2677819,1522676501,226883065,,0.795691624773,-0.44854406226899995,0.129096833415,0.0301218774778,0.999462230311,-0.009717020416649999,0.00857334196467,0.0014400856138499997,0.0008433031130439999,-0.00438513140899,0.0103399954851,-0.000759972224712,-0.0022369397865599997,0.09807955473660002,0.00015637278556799997,7.19132232666,0.49104899168000005,0.10683155059800001,0.344816356897,1059214,1522676501,224000000,,['r_gripper_l_finger_joint'],"(0.019983251598477365,)","(0.0,)","(0.0,)",2659203,1522676504,140121140,robotiq_force_torque_frame_id,0.549999976158,-0.524999904633,-0.612000274658,-0.0430000014603,-0.202999994159,-0.134000003338,420.0,516.0,568.0,601.0,608.0,440.0,467.0,496.0,674.0,731.0,3,"(0.7750257697136417, -0.057739069177687695, 0.06805985866624431, 0.9805558951286351, 0.19113576665877677, 0.04314736971911707, 0.010749870630145394)",-0.49000000953199996,-0.38999986648599994,-0.119998931885,-0.008000001311300006,-0.006999999285000003,0.009999990463000014
1522705304.15,27496,1522676504,152496099,,2677820,1522676501,236886602,,0.7961451927680001,-0.44912053619,0.12949758027799999,0.0305394813717,0.999439974057,-0.0100333396461,0.00929572101107,0.013163815150099999,0.012620615363799999,0.0041463907452,0.00019657265020800002,-0.021184295721499997,0.013032981803299998,-0.600951015949,0.09620684385299999,7.21001672745,0.520088553429,-0.16967526078200001,0.342200219631,2678170,1522676501,234971193,,"['head_nod', 'head_pan', 'left_e0', 'left_e1', 'left_s0', 'left_s1', 'left_w0', 'left_w1', 'left_w2', 'right_e0', 'right_e1', 'right_s0', 'right_s1', 'right_w0', 'right_w1', 'right_w2', 'torso_t0']","(0.0, -0.1012427320004373, -0.9077331312311936, 1.5021506865367915, 0.2791845033951453, 0.6446554261088451, 2.341621672707084, -0.48780589054756157, -0.033364082136507746, 0.4670971499111085, 0.9234564343070191, 0.3133155759255958, -0.7083156288060898, -0.37199034106221285, 1.4035924209151536, -0.03259709174256504, -12.565987119160338)","(0.0, 0.011388273367126762, -0.014529866020127248, -0.007461282550876154, -0.008246680714126275, -0.005890486224375911, 0.01767145867312773, 0.021598449489378342, 0.004319689897875668, 0.009032078877376396, -0.01727875959150267, 0.01649336142825255, 0.0047123889795007284, -0.00510508806112579, -0.006675884387626033, 0.004319689897875668, 0.0)","(0.0, 0.0, -14.588, 10.916, 0.248, 5.132, 0.096, -2.664, 0.336, 7.712, -15.984, 0.0, -29.112, 0.024, 0.228, -0.112, -20.48)",2659204,1522676504,144213445,robotiq_force_torque_frame_id,0.029999995231599998,-0.105000066757,-0.711998748779,-0.0439999997616,-0.19900000095400003,-0.138999998569,420.0,516.0,568.0,601.0,608.0,440.0,467.0,496.0,674.0,731.0,3,"(0.7750257697136417, -0.057739069177687695, 0.06805985866624431, 0.9805558951286351, 0.19113576665877677, 0.04314736971911707, 0.010749870630145394)",-0.5199999809264,0.4199998378759999,-0.09999847412100005,-0.0009999983013000008,0.003999993204999969,-0.004999995231000004
1522705304.16,27497,1522676504,162451982,,2677821,1522676501,246884314,,0.795890099016,-0.448206033795,0.129025154345,0.029843144953200004,0.999470141622,-0.009712774102149999,0.008630453350219999,-0.010115275830799998,-0.00513540842954,-0.013480784922799999,-0.011625601931100002,0.030443638538599996,-0.0017384333139000001,-0.0948447734118,0.0841208845377,7.308139324189999,0.507034540176,0.0146110244095,0.34300494194,1059215,1522676501,255000064,,['l_gripper_l_finger_joint'],"(0.0032494800670444966,)","(0.0,)","(0.0,)",2659205,1522676504,156420272,robotiq_force_torque_frame_id,0.500000023842,0.575,-0.661999511719,-0.0399999991059,-0.18999999761599998,-0.159999996424,420.0,516.0,568.0,601.0,608.0,440.0,467.0,496.0,674.0,731.0,3,"(0.7750257697136417, -0.057739069177687695, 0.06805985866624431, 0.9805558951286351, 0.19113576665877677, 0.04314736971911707, 0.010749870630145394)",0.4700000286104,0.680000066757,0.04999923706000009,0.004000000655700005,0.009000003338000051,-0.020999997855000008
1522705304.17,27498,1522676504,172425985,,2677822,1522676501,256878784,,0.7963534407359999,-0.447627612667,0.129207683169,0.0298154866902,0.9994697798909999,-0.009421968868809999,0.00907867509939,-0.00271527125338,0.0163474323685,-0.009188905101260001,0.0219363761851,0.013517059312700001,0.009205322854700002,-0.18676456809,-0.0229603499174,7.302906513210001,0.541935384274,-0.0057282745838199995,0.339565902948,2678172,1522676501,254988942,,"['head_nod', 'head_pan', 'left_e0', 'left_e1', 'left_s0', 'left_s1', 'left_w0', 'left_w1', 'left_w2', 'right_e0', 'right_e1', 'right_s0', 'right_s1', 'right_w0', 'right_w1', 'right_w2', 'torso_t0']","(0.0, -0.10085923680346595, -0.9069661408372509, 1.5013836961428486, 0.2795679985921167, 0.6446554261088451, 2.341621672707084, -0.48742239535059023, -0.033364082136507746, 0.4678641403050512, 0.9230729391100477, 0.3144660615165098, -0.7075486384121471, -0.37160684586524145, 1.403975916112125, -0.03259709174256504, -12.565987119160338)","(0.0, 0.0011780972448751821, -0.001570796326500243, 0.003926990816250607, 0.004319689897875668, 0.006675884387626033, -0.007461282550876154, -0.01649336142825255, 0.010995574285501701, 0.011388273367126762, 0.007461282550876154, 0.0047123889795007284, 0.011780972448751823, 0.007853981632501214, 0.0007853981632501215, 0.004319689897875668, 0.0)","(0.0, 0.0, -14.652, 10.948, 0.308, 5.1, 0.084, -2.648, 0.336, 7.68, -16.044, 0.0, -29.144, 0.024, 0.228, -0.12, -20.48)",2659206,1522676504,164557145,robotiq_force_torque_frame_id,1.36000015736,-0.345000076294,-0.45200042724600004,-0.052000001072899996,-0.187999993563,-0.153999999166,420.0,516.0,568.0,601.0,608.0,440.0,467.0,496.0,674.0,731.0,3,"(0.7750257697136417, -0.057739069177687695, 0.06805985866624431, 0.9805558951286351, 0.19113576665877677, 0.04314736971911707, 0.010749870630145394)",0.860000133518,-0.9200000762939999,0.20999908447299992,-0.012000001966999997,0.002000004052999965,0.005999997258000017
1522705304.18,27499,1522676504,182501077,,2677823,1522676501,266896801,,0.795834227272,-0.44881221688100004,0.129281849648,0.030035804630999998,0.999462068328,-0.00979843597811,0.00879858316749,-0.00621646275998,0.0019990148698699997,-0.015149663004900001,0.006613831749270001,0.018635181948,0.00804495934466,0.361637353897,0.105472996831,7.468993663789999,0.507047891617,0.214655682445,0.327442526817,1059216,1522676501,275000064,,['r_gripper_l_finger_joint'],"(0.019983251598477365,)","(0.0,)","(0.0,)",2659207,1522676504,176769183,robotiq_force_torque_frame_id,1.38999989033,-0.7449999332430001,-0.20200042724599998,-0.054999999702,-0.184000000358,-0.134000003338,420.0,516.0,568.0,601.0,608.0,440.0,467.0,496.0,674.0,731.0,3,"(0.7750257697136417, -0.057739069177687695, 0.06805985866624431, 0.9805558951286351, 0.19113576665877677, 0.04314736971911707, 0.010749870630145394)",0.029999732969999915,-0.3999998569490001,0.25000000000000006,-0.002999998629100005,0.003999993205000024,0.019999995827999995
1522705304.19,27500,1522676504,192473888,,2677824,1522676501,276884538,,0.795909221035,-0.449106495079,0.129284640497,0.0308005535091,0.999436974076,-0.009806796605249999,0.00899374742559,-0.0167411837736,-0.0216036709878,-0.0123218078458,-0.0077823309051599995,0.0313563365453,-0.0187378787207,0.653580784798,-0.104306809604,7.549415111539999,0.593578279018,0.336607664824,0.337882578373,1059216,1522676501,275000064,,['r_gripper_l_finger_joint'],"(0.019983251598477365,)","(0.0,)","(0.0,)",2659208,1522676504,184917692,robotiq_force_torque_frame_id,0.779999995232,-0.20499997139000004,-0.0519989013672,-0.0480000004172,-0.19699999690099998,-0.142000004649,420.0,516.0,568.0,601.0,608.0,440.0,467.0,496.0,674.0,731.0,3,"(0.7750257697136417, -0.057739069177687695, 0.06805985866624431, 0.9805558951286351, 0.19113576665877677, 0.04314736971911707, 0.010749870630145394)",-0.6099998950979999,0.539999961853,0.15000152587879997,0.006999999284800003,-0.012999996542999992,-0.00800000131100001
1522705304.2,27501,1522676504,202431917,,2677825,1522676501,286883698,,0.7958350945460001,-0.449341749367,0.129237774955,0.030348687993299997,0.9994500499410001,-0.00994474660016,0.00892506727692,-0.00676523828071,-0.00574715219812,-0.00112098375397,-0.0048817230621,0.00961608912251,-0.00746205819358,1.02535092831,-0.0624937415123,7.5368142127999995,0.540667116642,0.460901141167,0.340359807014,2678175,1522676501,284947391,,"['head_nod', 'head_pan', 'left_e0', 'left_e1', 'left_s0', 'left_s1', 'left_w0', 'left_w1', 'left_w2', 'right_e0', 'right_e1', 'right_s0', 'right_s1', 'right_w0', 'right_w1', 'right_w2', 'torso_t0']","(0.0, -0.10085923680346595, -0.9061991504433081, 1.5021506865367915, 0.27880100819817394, 0.6446554261088451, 2.3420051679040554, -0.48742239535059023, -0.03298058693953639, 0.4670971499111085, 0.9234564343070191, 0.3129320807286244, -0.7079321336091184, -0.37199034106221285, 1.403975916112125, -0.033364082136507746, -12.565987119160338)","(0.0, -0.007853981632501214, 0.004319689897875668, -0.0047123889795007284, -0.018064157754752792, -0.0023561944897503642, 0.00510508806112579, 0.0019634954081253035, 0.01610066234662749, -0.012959069693627005, 0.015707963265002428, -0.0027488935713754254, -0.009032078877376396, 0.005890486224375911, -0.0007853981632501215, 0.0007853981632501215, 0.0)","(0.0, 0.0, -14.72, 10.884, 0.34, 5.132, 0.112, -2.676, 0.364, 7.712, -16.192, 0.216, -29.172, 0.024, 0.22, -0.14, -20.48)",2659209,1522676504,197114078,robotiq_force_torque_frame_id,0.8599999189380001,0.0150000572205,0.117999267578,-0.04500000178809999,-0.19799999892700001,-0.15099999308599998,420.0,516.0,568.0,601.0,608.0,440.0,467.0,496.0,674.0,731.0,3,"(0.7750257697136417, -0.057739069177687695, 0.06805985866624431, 0.9805558951286351, 0.19113576665877677, 0.04314736971911707, 0.010749870630145394)",0.07999992370600006,0.22000002861050003,0.1699981689452,0.002999998629100005,-0.0010000020260000353,-0.008999988436999978
1522705304.21,27502,1522676504,212445974,,2677827,1522676501,306880908,,0.795929606813,-0.44897135100599994,0.129367688661,0.030447610970799996,0.999448809293,-0.0097627700404,0.00892798471584,0.00786740586793,-0.0112337064806,0.00823604030796,-0.00917821500765,-0.0197159274175,-0.0189717990192,0.739439368248,-0.28597515821499997,7.455635547639999,0.6473574042319999,0.33368360996199997,0.34988528490099996,2678177,1522676501,304976105,,"['head_nod', 'head_pan', 'left_e0', 'left_e1', 'left_s0', 'left_s1', 'left_w0', 'left_w1', 'left_w2', 'right_e0', 'right_e1', 'right_s0', 'right_s1', 'right_w0', 'right_w1', 'right_w2', 'torso_t0']","(0.0, -0.10162622719740866, -0.9069661408372509, 1.5021506865367915, 0.2791845033951453, 0.6446554261088451, 2.341621672707084, -0.48742239535059023, -0.03298058693953639, 0.4670971499111085, 0.9230729391100477, 0.3133155759255958, -0.7079321336091184, -0.37160684586524145, 1.4043594113090963, -0.03298058693953639, -12.565987119160338)","(0.0, -0.0070685834692510935, 0.005890486224375911, 0.007853981632501214, 0.013744467856877126, -0.0027488935713754254, -0.01727875959150267, 0.003926990816250607, -0.005497787142750851, -0.004319689897875668, -0.02552544030562895, -0.0035342917346255468, 0.00039269908162506076, -0.003141592653000486, 0.0019634954081253035, 0.004319689897875668, 0.0)","(0.0, 0.0, -14.588, 10.916, 0.404, 5.132, 0.096, -2.648, 0.372, 7.648, -16.192, 0.0, -29.144, 0.032, 0.208, -0.14, -20.48)",2659210,1522676504,205241232,robotiq_force_torque_frame_id,0.159999871254,0.614999961853,0.03800125122069999,-0.0419999994338,-0.20800000429200002,-0.166999995708,420.0,516.0,568.0,601.0,608.0,440.0,467.0,496.0,674.0,731.0,3,"(0.7750257697136417, -0.057739069177687695, 0.06805985866624431, 0.9805558951286351, 0.19113576665877677, 0.04314736971911707, 0.010749870630145394)",-0.700000047684,0.5999999046325,-0.0799980163573,0.0030000023542999937,-0.010000005365000009,-0.01600000262200002
1522705304.25,27503,1522676504,222462892,,2677827,1522676501,306880908,,0.795929606813,-0.44897135100599994,0.129367688661,0.030447610970799996,0.999448809293,-0.0097627700404,0.00892798471584,0.00786740586793,-0.0112337064806,0.00823604030796,-0.00917821500765,-0.0197159274175,-0.0189717990192,0.739439368248,-0.28597515821499997,7.455635547639999,0.6473574042319999,0.33368360996199997,0.34988528490099996,2678177,1522676501,304976105,,"['head_nod', 'head_pan', 'left_e0', 'left_e1', 'left_s0', 'left_s1', 'left_w0', 'left_w1', 'left_w2', 'right_e0', 'right_e1', 'right_s0', 'right_s1', 'right_w0', 'right_w1', 'right_w2', 'torso_t0']","(0.0, -0.10162622719740866, -0.9069661408372509, 1.5021506865367915, 0.2791845033951453, 0.6446554261088451, 2.341621672707084, -0.48742239535059023, -0.03298058693953639, 0.4670971499111085, 0.9230729391100477, 0.3133155759255958, -0.7079321336091184, -0.37160684586524145, 1.4043594113090963, -0.03298058693953639, -12.565987119160338)","(0.0, -0.0070685834692510935, 0.005890486224375911, 0.007853981632501214, 0.013744467856877126, -0.0027488935713754254, -0.01727875959150267, 0.003926990816250607, -0.005497787142750851, -0.004319689897875668, -0.02552544030562895, -0.0035342917346255468, 0.00039269908162506076, -0.003141592653000486, 0.0019634954081253035, 0.004319689897875668, 0.0)","(0.0, 0.0, -14.588, 10.916, 0.404, 5.132, 0.096, -2.648, 0.372, 7.648, -16.192, 0.0, -29.144, 0.032, 0.208, -0.14, -20.48)",2659211,1522676504,217450209,robotiq_force_torque_frame_id,0.119999909401,0.79500002861,-0.0820014953613,-0.035999998450300004,-0.20000000298,-0.187999993563,420.0,516.0,568.0,601.0,608.0,440.0,467.0,496.0,674.0,731.0,3,"(0.7750257697136417, -0.057739069177687695, 0.06805985866624431, 0.9805558951286351, 0.19113576665877677, 0.04314736971911707, 0.010749870630145394)",-0.039999961853000005,0.18000006675699998,-0.120002746582,0.006000000983499995,0.008000001312000016,-0.020999997855000008
1522705304.25,27504,1522676504,232516050,,2677828,1522676501,316885944,,0.795557435037,-0.44870346638499997,0.129055910209,0.0304116371652,0.999456707005,-0.009599692926889999,0.00832280264662,0.00280554335257,-0.0007129405492180001,0.00806144556328,0.00172692666035,-0.005862572351000001,0.0104835521197,0.9464936256409999,-0.0431196689606,7.437716484069999,0.552816808224,0.38498133420900005,0.32252445817,1059218,1522676501,324999936,,['r_gripper_l_finger_joint'],"(0.019983251598477365,)","(0.0,)","(0.0,)",2659212,1522676504,225593687,robotiq_force_torque_frame_id,0.819999957085,-0.19499998092700002,0.03800125122069999,-0.0460000000894,-0.187999993563,-0.172000005841,420.0,516.0,568.0,601.0,608.0,440.0,467.0,496.0,674.0,731.0,3,"(0.7750257697136417, -0.057739069177687695, 0.06805985866624431, 0.9805558951286351, 0.19113576665877677, 0.04314736971911707, 0.010749870630145394)",0.7000000476839999,-0.990000009537,0.120002746582,-0.010000001639099997,0.012000009416999996,0.01599998772200001
1522705304.25,27505,1522676504,242496967,,2677829,1522676501,326886021,,0.7957676761329999,-0.44910705814499996,0.129367674058,0.0306111011801,0.9994438706450001,-0.009937932632280001,0.00872624834573,-0.0102881762883,0.00477402159841,-0.00668425133679,-0.00799061545363,0.027994605214299997,0.00454901287938,0.558559298515,-0.11638741940300001,7.502369880680001,0.640095174313,0.238178372383,0.35682725906400004,1059218,1522676501,324999936,,['r_gripper_l_finger_joint'],"(0.019983251598477365,)","(0.0,)","(0.0,)",2659213,1522676504,237781437,robotiq_force_torque_frame_id,0.430000090599,-0.925,-0.042000579834000004,-0.0460000000894,-0.181999996305,-0.148000001907,420.0,516.0,568.0,601.0,608.0,440.0,467.0,496.0,674.0,731.0,3,"(0.7750257697136417, -0.057739069177687695, 0.06805985866624431, 0.9805558951286351, 0.19113576665877677, 0.04314736971911707, 0.010749870630145394)",-0.38999986648599994,-0.730000019073,-0.08000183105469999,0.0,0.005999997258000017,0.024000003934000008
1522705304.29,27506,1522676504,252548933,,2677830,1522676501,336885066,,0.795389808837,-0.448887090827,0.12917149501800002,0.0305341158572,0.9994483572930001,-0.0100825525575,0.008306082489369999,0.0027975127221299997,-0.016223808846100002,-0.0013797291356300002,-0.013212906238,-0.0144161735381,-0.0216061528475,1.27487897873,-0.28461590409299997,7.55460500717,0.689340054989,0.525886833668,0.359995186329,2678180,1522676501,334974889,,"['head_nod', 'head_pan', 'left_e0', 'left_e1', 'left_s0', 'left_s1', 'left_w0', 'left_w1', 'left_w2', 'right_e0', 'right_e1', 'right_s0', 'right_s1', 'right_w0', 'right_w1', 'right_w2', 'torso_t0']","(0.0, -0.10085923680346595, -0.9069661408372509, 1.5013836961428486, 0.27803401780423126, 0.6450389213058165, 2.341621672707084, -0.48780589054756157, -0.03259709174256504, 0.4667136547141371, 0.9242234247009617, 0.3136990711225671, -0.7083156288060898, -0.37199034106221285, 1.4047429065060677, -0.032213596545593685, -12.565987119160338)","(0.0, 0.005890486224375911, 0.0011780972448751821, 0.006283185306000972, 0.0019634954081253035, 0.013351768775252066, 0.00039269908162506076, -0.0023561944897503642, -0.003926990816250607, -0.008246680714126275, 0.001570796326500243, -0.011388273367126762, 0.0, -0.006283185306000972, -0.019242254999627974, 0.006675884387626033, 0.0)","(0.0, 0.0, -14.652, 10.948, 0.28, 5.132, 0.104, -2.648, 0.392, 7.772, -16.252, 0.092, -29.112, 0.032, 0.208, -0.14, -20.48)",2659214,1522676504,245918307,robotiq_force_torque_frame_id,0.430000090599,-1.0550001144399999,-0.29200057983399996,-0.0419999994338,-0.187999993563,-0.135000005364,420.0,516.0,568.0,601.0,608.0,440.0,467.0,496.0,674.0,731.0,3,"(0.7750257697136417, -0.057739069177687695, 0.06805985866624431, 0.9805558951286351, 0.19113576665877677, 0.04314736971911707, 0.010749870630145394)",0.0,-0.13000011443999981,-0.24999999999999994,0.0040000006556000015,-0.005999997258000017,0.012999996542999992
