time,.header.seq,.header.stamp.secs,.header.stamp.nsecs,.header.frame_id,.endpoint_state.header.seq,.endpoint_state.header.stamp.secs,.endpoint_state.header.stamp.nsecs,.endpoint_state.header.frame_id,.endpoint_state.pose.position.x,.endpoint_state.pose.position.y,.endpoint_state.pose.position.z,.endpoint_state.pose.orientation.x,.endpoint_state.pose.orientation.y,.endpoint_state.pose.orientation.z,.endpoint_state.pose.orientation.w,.endpoint_state.twist.linear.x,.endpoint_state.twist.linear.y,.endpoint_state.twist.linear.z,.endpoint_state.twist.angular.x,.endpoint_state.twist.angular.y,.endpoint_state.twist.angular.z,.endpoint_state.wrench.force.x,.endpoint_state.wrench.force.y,.endpoint_state.wrench.force.z,.endpoint_state.wrench.torque.x,.endpoint_state.wrench.torque.y,.endpoint_state.wrench.torque.z,.joint_state.header.seq,.joint_state.header.stamp.secs,.joint_state.header.stamp.nsecs,.joint_state.header.frame_id,.joint_state.name,.joint_state.position,.joint_state.velocity,.joint_state.effort,.wrench_stamped.header.seq,.wrench_stamped.header.stamp.secs,.wrench_stamped.header.stamp.nsecs,.wrench_stamped.header.frame_id,.wrench_stamped.wrench.force.x,.wrench_stamped.wrench.force.y,.wrench_stamped.wrench.force.z,.wrench_stamped.wrench.torque.x,.wrench_stamped.wrench.torque.y,.wrench_stamped.wrench.torque.z,.tactile_values.tactile_values_0,.tactile_values.tactile_values_1,.tactile_values.tactile_values_2,.tactile_values.tactile_values_3,.tactile_values.tactile_values_4,.tactile_values.tactile_values_5,.tactile_values.tactile_values_6,.tactile_values.tactile_values_7,.tactile_values.tactile_values_8,.tactile_values.tactile_values_9,.tag,.goal_vector,.delta_wrench.force.x,.delta_wrench.force.y,.delta_wrench.force.z,.delta_wrench.torque.x,.delta_wrench.torque.y,.delta_wrench.torque.z
1522706816.39,27166,1522678016,345448017,,2829035,1522678013,386832888,,0.794829467306,-0.44927597988000006,0.12808846427999998,0.0307377812398,0.999449257527,-0.0101103845822,0.0073587061315500005,0.00628628520253,-0.00036122801547400007,0.0042116335534099995,0.0178043944144,-0.0222869656432,-0.0168501246041,0.540189087391,-0.32339119911200004,6.93852758408,0.736520171165,0.190054804087,0.360052138567,2829384,1522678013,374876006,,"['head_nod', 'head_pan', 'left_e0', 'left_e1', 'left_s0', 'left_s1', 'left_w0', 'left_w1', 'left_w2', 'right_e0', 'right_e1', 'right_s0', 'right_s1', 'right_w0', 'right_w1', 'right_w2', 'torso_t0']","(0.0, -0.10085923680346595, -0.9069661408372509, 1.5013836961428486, 0.2784175130012026, 0.6442719309118737, 2.3420051679040554, -0.48703890015361884, -0.033364082136507746, 0.4636456931383663, 0.9238399295039904, 0.3144660615165098, -0.7075486384121471, -0.37160684586524145, 1.4055098969000104, -0.03259709174256504, -12.565987119160338)","(0.0, 0.006283185306000972, -0.009032078877376396, 0.021991148571003403, -0.0027488935713754254, 0.0007853981632501215, 0.004319689897875668, 0.015707963265002428, -0.008246680714126275, 0.0070685834692510935, -0.04241150081550656, 0.006283185306000972, 0.0070685834692510935, -0.00510508806112579, 0.0019634954081253035, 0.012566370612001944, 0.0)","(0.0, 0.0, -14.684, 10.916, 0.34, 5.036, 0.068, -2.664, 0.28, 7.744, -16.044, -0.028, -28.88, -0.016, 0.16, -0.12, -20.48)",2810263,1522678016,343191059,robotiq_force_torque_frame_id,2.4390001356599997,0.7920001029970001,0.0030017852783199997,-0.0320000015199,-0.18299999833099997,-0.130999997258,0.0,0.0,0.0,0.0,0.0,0.0,0.0,0.0,0.0,0.0,3,"(0.5282605997723452, -0.8173976392976043, 0.13420757995327057, 0.9999377972961767, -0.004352227397899262, -0.0093881683039238, 0.004161964805749191)",0.0,0.0,0.0,0.0,0.0,0.0
1522706816.39,27167,1522678016,355406999,,2829036,1522678013,396841686,,0.7947644079520001,-0.449149272024,0.128467076487,0.030453403086700002,0.99945495741,-0.0104261761037,0.00732619961609,0.0014627325861199998,0.0236391883132,-0.0128210069496,0.0215311583808,0.00815093448372,0.0268954790672,1.219430089,-0.2273401618,7.01175355911,0.6794582009319999,0.446799039841,0.347169309855,2829384,1522678013,374876006,,"['head_nod', 'head_pan', 'left_e0', 'left_e1', 'left_s0', 'left_s1', 'left_w0', 'left_w1', 'left_w2', 'right_e0', 'right_e1', 'right_s0', 'right_s1', 'right_w0', 'right_w1', 'right_w2', 'torso_t0']","(0.0, -0.10085923680346595, -0.9069661408372509, 1.5013836961428486, 0.2784175130012026, 0.6442719309118737, 2.3420051679040554, -0.48703890015361884, -0.033364082136507746, 0.4636456931383663, 0.9238399295039904, 0.3144660615165098, -0.7075486384121471, -0.37160684586524145, 1.4055098969000104, -0.03259709174256504, -12.565987119160338)","(0.0, 0.006283185306000972, -0.009032078877376396, 0.021991148571003403, -0.0027488935713754254, 0.0007853981632501215, 0.004319689897875668, 0.015707963265002428, -0.008246680714126275, 0.0070685834692510935, -0.04241150081550656, 0.006283185306000972, 0.0070685834692510935, -0.00510508806112579, 0.0019634954081253035, 0.012566370612001944, 0.0)","(0.0, 0.0, -14.684, 10.916, 0.34, 5.036, 0.068, -2.664, 0.28, 7.744, -16.044, -0.028, -28.88, -0.016, 0.16, -0.12, -20.48)",2810264,1522678016,351296754,robotiq_force_torque_frame_id,1.9590001165900002,1.63200001717,-0.036999130249,-0.019999999553,-0.18500000238400002,-0.136000007391,0.0,0.0,0.0,0.0,0.0,0.0,0.0,0.0,0.0,0.0,3,"(0.5282605997723452, -0.8173976392976043, 0.13420757995327057, 0.9999377972961767, -0.004352227397899262, -0.0093881683039238, 0.004161964805749191)",-0.48000001906999956,0.8399999141729999,-0.04000091552732,0.012000001966899997,-0.0020000040530000485,-0.005000010132999999
1522706816.39,27168,1522678016,365406990,,2829037,1522678013,406858584,,0.794683021444,-0.449692278888,0.128299181144,0.030642274268900004,0.999448840713,-0.0105024942848,0.0072638446861600005,0.0106670618553,-0.025031468418099997,0.00984577551811,-0.039665554611699995,-0.035372873407300005,-0.0190586614985,1.5534735918,-0.562003850937,7.11265707016,0.8513037562369999,0.5769333243370001,0.354090213776,2829386,1522678013,394908947,,"['head_nod', 'head_pan', 'left_e0', 'left_e1', 'left_s0', 'left_s1', 'left_w0', 'left_w1', 'left_w2', 'right_e0', 'right_e1', 'right_s0', 'right_s1', 'right_w0', 'right_w1', 'right_w2', 'torso_t0']","(0.0, -0.10162622719740866, -0.9069661408372509, 1.5021506865367915, 0.2791845033951453, 0.6454224165027879, 2.341621672707084, -0.48780589054756157, -0.03298058693953639, 0.4651796739262517, 0.9242234247009617, 0.3144660615165098, -0.7075486384121471, -0.37199034106221285, 1.4055098969000104, -0.03259709174256504, -12.565987119160338)","(0.0, -0.0035342917346255468, -0.0027488935713754254, -0.014922565101752308, 0.005497787142750851, -0.0027488935713754254, -0.005497787142750851, -0.02552544030562895, 0.018849555918002914, 0.013744467856877126, 0.011388273367126762, 0.013351768775252066, 0.015707963265002428, 0.0047123889795007284, -0.011388273367126762, -0.0011780972448751821, 0.0)","(0.0, 0.0, -14.684, 10.948, 0.28, 5.036, 0.104, -2.636, 0.268, 7.836, -16.104, 0.06, -28.792, -0.04, 0.18, -0.092, -20.48)",2810265,1522678016,363505299,robotiq_force_torque_frame_id,1.2690000593700002,1.8520000457799999,0.0030017852783199997,-0.0280000008643,-0.19699999690099998,-0.15000000596,0.0,0.0,0.0,0.0,0.0,0.0,0.0,0.0,0.0,0.0,3,"(0.5282605997723452, -0.8173976392976043, 0.13420757995327057, 0.9999377972961767, -0.004352227397899262, -0.0093881683039238, 0.004161964805749191)",-0.69000005722,0.2200000286099999,0.04000091552732,-0.0080000013113,-0.011999994516999957,-0.013999998569
1522706816.39,27169,1522678016,375483036,,2829037,1522678013,406858584,,0.794683021444,-0.449692278888,0.128299181144,0.030642274268900004,0.999448840713,-0.0105024942848,0.0072638446861600005,0.0106670618553,-0.025031468418099997,0.00984577551811,-0.039665554611699995,-0.035372873407300005,-0.0190586614985,1.5534735918,-0.562003850937,7.11265707016,0.8513037562369999,0.5769333243370001,0.354090213776,2829388,1522678013,414890732,,"['head_nod', 'head_pan', 'left_e0', 'left_e1', 'left_s0', 'left_s1', 'left_w0', 'left_w1', 'left_w2', 'right_e0', 'right_e1', 'right_s0', 'right_s1', 'right_w0', 'right_w1', 'right_w2', 'torso_t0']","(0.0, -0.1012427320004373, -0.9065826456402796, 1.5021506865367915, 0.2791845033951453, 0.6446554261088451, 2.3420051679040554, -0.48857288094150425, -0.03298058693953639, 0.4651796739262517, 0.9226894439130764, 0.3144660615165098, -0.7071651432151758, -0.3712233506682701, 1.4055098969000104, -0.03298058693953639, -12.565987119160338)","(0.0, 0.0019634954081253035, -0.0047123889795007284, -0.008246680714126275, -0.005890486224375911, -0.00510508806112579, -0.008639379795751335, 0.003141592653000486, -0.014922565101752308, -0.011388273367126762, -0.011388273367126762, -0.029059732040254495, -0.005890486224375911, -0.018456856836377853, -0.019634954081253035, -0.009424777959001457, 0.0)","(0.0, 0.0, -14.72, 10.884, 0.216, 5.168, 0.096, -2.656, 0.26, 7.836, -16.164, -0.184, -28.732, -0.032, 0.18, -0.12, -20.48)",2810266,1522678016,371695066,robotiq_force_torque_frame_id,1.13899994493,1.79199986458,0.16300163269,-0.0260000005364,-0.202000007033,-0.158000007272,0.0,0.0,0.0,0.0,0.0,0.0,0.0,0.0,0.0,0.0,3,"(0.5282605997723452, -0.8173976392976043, 0.13420757995327057, 0.9999377972961767, -0.004352227397899262, -0.0093881683039238, 0.004161964805749191)",-0.13000011444000026,-0.06000018119999995,0.15999984741168,0.0020000003279000006,-0.005000010132000021,-0.008000001312000016
1522706816.43,27170,1522678016,385416030,,2829038,1522678013,416820928,,0.7953250066650001,-0.449097830905,0.128745299668,0.0305884179449,0.999450335905,-0.010057433690299999,0.007888141386930001,0.00515732874641,-0.0390059159441,0.006843309936479999,-0.0320930527932,-0.0295349073984,-0.027836877950499998,1.4370200634,-0.6489644050600001,7.016554832460001,0.903471946716,0.5243809223179999,0.395601511002,2829389,1522678013,424908578,,"['head_nod', 'head_pan', 'left_e0', 'left_e1', 'left_s0', 'left_s1', 'left_w0', 'left_w1', 'left_w2', 'right_e0', 'right_e1', 'right_s0', 'right_s1', 'right_w0', 'right_w1', 'right_w2', 'torso_t0']","(0.0, -0.10085923680346595, -0.9061991504433081, 1.5025341817337627, 0.2791845033951453, 0.6446554261088451, 2.3423886631010267, -0.48780589054756157, -0.03298058693953639, 0.4651796739262517, 0.9238399295039904, 0.3133155759255958, -0.7071651432151758, -0.3712233506682701, 1.4055098969000104, -0.032213596545593685, -12.565987119160338)","(0.0, 0.0027488935713754254, 0.004319689897875668, 0.005497787142750851, -0.003141592653000486, -0.005497787142750851, -0.006675884387626033, -0.004319689897875668, -0.010995574285501701, -0.003141592653000486, -0.027881634795379313, 0.0070685834692510935, -0.012566370612001944, -0.0007853981632501215, -0.00510508806112579, -0.0007853981632501215, 0.0)","(0.0, 0.0, -14.556, 10.948, 0.308, 5.004, 0.096, -2.636, 0.268, 7.9, -16.132, 0.028, -28.792, -0.032, 0.168, -0.092, -20.48)",2810267,1522678016,383928588,robotiq_force_torque_frame_id,1.1789999067799999,2.15199999809,0.17299995422400002,-0.0309999994934,-0.21099999547000003,-0.146999999881,0.0,0.0,0.0,0.0,0.0,0.0,0.0,0.0,0.0,0.0,3,"(0.5282605997723452, -0.8173976392976043, 0.13420757995327057, 0.9999377972961767, -0.004352227397899262, -0.0093881683039238, 0.004161964805749191)",0.03999996184999999,0.36000013351000004,0.009998321534000015,-0.004999998957000002,-0.008999988437000034,0.011000007391000016
1522706816.43,27171,1522678016,395415067,,2829040,1522678013,436818730,,0.795469582088,-0.449841092273,0.12918969462000002,0.0312401385025,0.999423459975,-0.0104052030259,0.00827847493428,0.0033019167676900003,-0.0042041957034099995,0.00373522280645,0.00894564157002,-0.00331607986294,-0.0092785745137,0.498642653227,-0.112171880901,6.78036355972,0.6162890195849999,0.17128777504,0.34608173370399997,2829389,1522678013,424908578,,"['head_nod', 'head_pan', 'left_e0', 'left_e1', 'left_s0', 'left_s1', 'left_w0', 'left_w1', 'left_w2', 'right_e0', 'right_e1', 'right_s0', 'right_s1', 'right_w0', 'right_w1', 'right_w2', 'torso_t0']","(0.0, -0.10085923680346595, -0.9061991504433081, 1.5025341817337627, 0.2791845033951453, 0.6446554261088451, 2.3423886631010267, -0.48780589054756157, -0.03298058693953639, 0.4651796739262517, 0.9238399295039904, 0.3133155759255958, -0.7071651432151758, -0.3712233506682701, 1.4055098969000104, -0.032213596545593685, -12.565987119160338)","(0.0, 0.0027488935713754254, 0.004319689897875668, 0.005497787142750851, -0.003141592653000486, -0.005497787142750851, -0.006675884387626033, -0.004319689897875668, -0.010995574285501701, -0.003141592653000486, -0.027881634795379313, 0.0070685834692510935, -0.012566370612001944, -0.0007853981632501215, -0.00510508806112579, -0.0007853981632501215, 0.0)","(0.0, 0.0, -14.556, 10.948, 0.308, 5.004, 0.096, -2.636, 0.268, 7.9, -16.132, 0.028, -28.792, -0.032, 0.168, -0.092, -20.48)",2810268,1522678016,392065474,robotiq_force_torque_frame_id,1.3689999640000001,1.76199989319,0.303001022339,-0.0399999991059,-0.20000000298,-0.143999993801,0.0,0.0,0.0,0.0,0.0,0.0,0.0,0.0,0.0,0.0,3,"(0.5282605997723452, -0.8173976392976043, 0.13420757995327057, 0.9999377972961767, -0.004352227397899262, -0.0093881683039238, 0.004161964805749191)",0.19000005722000024,-0.3900001048999999,0.13000106811499998,-0.008999999612499997,0.010999992490000027,0.0030000060799999784
1522706816.43,27172,1522678016,405419111,,2829041,1522678013,446832106,,0.7952149313519999,-0.44957284613000004,0.128571988573,0.030390936123599995,0.9994517813160001,-0.0105596535765,0.00781162864544,0.0011794420439200002,0.014873514288000001,-0.0047837233701,0.00134116382679,0.0115578708531,0.0269857247486,-0.40124556422200003,0.0975795537233,6.74094057083,0.551417648792,-0.18265849351900001,0.36357548832900005,2829390,1522678013,434930392,,"['head_nod', 'head_pan', 'left_e0', 'left_e1', 'left_s0', 'left_s1', 'left_w0', 'left_w1', 'left_w2', 'right_e0', 'right_e1', 'right_s0', 'right_s1', 'right_w0', 'right_w1', 'right_w2', 'torso_t0']","(0.0, -0.10162622719740866, -0.9065826456402796, 1.50176719133982, 0.27880100819817394, 0.6454224165027879, 2.3412381775101125, -0.48742239535059023, -0.03298058693953639, 0.4655631691232231, 0.922305948716105, 0.3136990711225671, -0.7075486384121471, -0.37199034106221285, 1.4055098969000104, -0.032213596545593685, -12.565987119160338)","(0.0, -0.0047123889795007284, 0.0, -0.0047123889795007284, -0.0011780972448751821, -0.011780972448751823, 0.012173671530376884, 0.014529866020127248, 0.011780972448751823, -0.005890486224375911, -0.03180862561162992, -0.0011780972448751821, 0.009817477040626518, 0.011780972448751823, 0.01649336142825255, -0.008639379795751335, 0.0)","(0.0, 0.0, -14.588, 10.884, 0.216, 5.068, 0.096, -2.684, 0.268, 7.744, -15.984, 0.028, -28.76, -0.016, 0.168, -0.1, -20.48)",2810269,1522678016,400199078,robotiq_force_torque_frame_id,1.27900004983,1.4619999408700002,0.26300010681200003,-0.0500000007451,-0.187000006437,-0.149000003934,0.0,0.0,0.0,0.0,0.0,0.0,0.0,0.0,0.0,0.0,3,"(0.5282605997723452, -0.8173976392976043, 0.13420757995327057, 0.9999377972961767, -0.004352227397899262, -0.0093881683039238, 0.004161964805749191)",-0.08999991417000008,-0.2999999523199999,-0.04000091552699997,-0.0100000016392,0.01299999654300002,-0.005000010132999999
1522706816.43,27173,1522678016,415424108,,2829041,1522678013,446832106,,0.7952149313519999,-0.44957284613000004,0.128571988573,0.030390936123599995,0.9994517813160001,-0.0105596535765,0.00781162864544,0.0011794420439200002,0.014873514288000001,-0.0047837233701,0.00134116382679,0.0115578708531,0.0269857247486,-0.40124556422200003,0.0975795537233,6.74094057083,0.551417648792,-0.18265849351900001,0.36357548832900005,1119062,1522678013,454000128,,['r_gripper_l_finger_joint'],"(0.01994938171207905,)","(0.0,)","(0.0,)",2810270,1522678016,412407348,robotiq_force_torque_frame_id,1.31900001168,1.34200005531,0.0030017852783199997,-0.05099999904630001,-0.17599999904599997,-0.143999993801,0.0,0.0,0.0,0.0,0.0,0.0,0.0,0.0,0.0,0.0,3,"(0.5282605997723452, -0.8173976392976043, 0.13420757995327057, 0.9999377972961767, -0.004352227397899262, -0.0093881683039238, 0.004161964805749191)",0.03999996184999999,-0.11999988556000019,-0.25999832153368,-0.0009999983012000113,0.011000007391000016,0.005000010132999999
1522706816.43,27174,1522678016,425404071,,2829042,1522678013,456828580,,0.794905890156,-0.449372150081,0.128605220661,0.0301070427556,0.999461995144,-0.010640222565,0.00748811749331,0.00918887995235,-0.00213794441087,0.0178504057355,0.0029427964615,-0.024504844098799997,6.09073227319e-05,0.130304396152,-0.239855512977,6.813626289369999,0.737836956978,0.015807263553100002,0.370341151953,1119063,1522678013,468000000,,['l_gripper_l_finger_joint'],"(0.0032494800670444966,)","(0.0,)","(0.0,)",2810271,1522678016,420545121,robotiq_force_torque_frame_id,1.8290000021500001,1.72199993134,-0.00700035095215,-0.0500000007451,-0.173999994993,-0.136999994516,0.0,0.0,0.0,0.0,0.0,0.0,0.0,0.0,0.0,0.0,3,"(0.5282605997723452, -0.8173976392976043, 0.13420757995327057, 0.9999377972961767, -0.004352227397899262, -0.0093881683039238, 0.004161964805749191)",0.5099999904700001,0.37999987603000007,-0.010002136230469999,0.0009999983012000113,0.002000004052999965,0.006999999285000003
1522706816.44,27175,1522678016,435446023,,2829043,1522678013,466834623,,0.795517632629,-0.448646416627,0.128844208802,0.0304739936369,0.999451888501,-0.010165471004700001,0.00799509115624,0.004639658641,0.0009596484368980001,0.00289725726953,0.00353278482811,-0.013921627898899998,0.0060958967390200005,0.8806454539299999,-0.221784114838,6.81936645508,0.648604273796,0.329522669315,0.35678052902199997,2829394,1522678013,474930389,,"['head_nod', 'head_pan', 'left_e0', 'left_e1', 'left_s0', 'left_s1', 'left_w0', 'left_w1', 'left_w2', 'right_e0', 'right_e1', 'right_s0', 'right_s1', 'right_w0', 'right_w1', 'right_w2', 'torso_t0']","(0.0, -0.10162622719740866, -0.9065826456402796, 1.5025341817337627, 0.2791845033951453, 0.6446554261088451, 2.3427721582979983, -0.48703890015361884, -0.03298058693953639, 0.4651796739262517, 0.922305948716105, 0.3136990711225671, -0.7075486384121471, -0.37160684586524145, 1.405126401703039, -0.03259709174256504, -12.565987119160338)","(0.0, -0.005890486224375911, 0.01021017612225158, -0.009817477040626518, -0.0023561944897503642, 0.006283185306000972, -0.01531526418337737, 0.014922565101752308, -0.00510508806112579, -0.0023561944897503642, 0.00039269908162506076, -0.01021017612225158, -0.003926990816250607, -0.0027488935713754254, -0.021991148571003403, 0.013744467856877126, 0.0)","(0.0, 0.0, -14.556, 10.948, 0.184, 5.1, 0.084, -2.636, 0.26, 7.68, -16.012, 0.06, -28.672, -0.016, 0.188, -0.112, -20.48)",2810272,1522678016,432748597,robotiq_force_torque_frame_id,1.14899993539,3.1220000267000003,0.242999649048,-0.0430000014603,-0.179000005126,-0.157000005245,0.0,0.0,0.0,0.0,0.0,0.0,0.0,0.0,0.0,0.0,3,"(0.5282605997723452, -0.8173976392976043, 0.13420757995327057, 0.9999377972961767, -0.004352227397899262, -0.0093881683039238, 0.004161964805749191)",-0.6800000667600001,1.4000000953600003,0.25000000000015,0.006999999284799996,-0.005000010132999999,-0.020000010728999984
1522706816.45,27176,1522678016,445425987,,2829045,1522678013,486826842,,0.7956157040649999,-0.449280501813,0.129189754892,0.030665215841299998,0.9994412593459999,-0.0104042951469,0.00828035606868,-0.00649650521493,-0.00198357895067,-0.00030195770471599996,0.0144451554642,0.008323990579199999,-0.0198280442095,0.923469722271,-0.248239636421,6.78047466278,0.7049663066859999,0.33885756135,0.359352350235,2829395,1522678013,484911194,,"['head_nod', 'head_pan', 'left_e0', 'left_e1', 'left_s0', 'left_s1', 'left_w0', 'left_w1', 'left_w2', 'right_e0', 'right_e1', 'right_s0', 'right_s1', 'right_w0', 'right_w1', 'right_w2', 'torso_t0']","(0.0, -0.1012427320004373, -0.9073496360342223, 1.50176719133982, 0.2784175130012026, 0.6442719309118737, 2.3427721582979983, -0.4881893857445329, -0.03259709174256504, 0.4655631691232231, 0.922305948716105, 0.3144660615165098, -0.7075486384121471, -0.37199034106221285, 1.4055098969000104, -0.03259709174256504, -12.565987119160338)","(0.0, -0.00039269908162506076, -0.01649336142825255, 0.008246680714126275, 0.0027488935713754254, 0.014922565101752308, 0.018456856836377853, -0.022776546734253524, 0.0023561944897503642, 0.003141592653000486, 0.008246680714126275, -0.013744467856877126, -0.0035342917346255468, 0.012173671530376884, 0.006283185306000972, 0.009032078877376396, 0.0)","(0.0, 0.0, -14.364, 10.948, 0.152, 5.068, 0.052, -2.636, 0.268, 7.804, -16.012, 0.0, -28.672, -0.024, 0.18, -0.1, -20.48)",2810273,1522678016,440894793,robotiq_force_torque_frame_id,0.479000097513,3.93199996948,0.40299949646,-0.0480000004172,-0.19200000166900003,-0.167999997735,0.0,0.0,0.0,0.0,0.0,0.0,0.0,0.0,0.0,0.0,3,"(0.5282605997723452, -0.8173976392976043, 0.13420757995327057, 0.9999377972961767, -0.004352227397899262, -0.0093881683039238, 0.004161964805749191)",-0.669999837877,0.8099999427799998,0.159999847412,-0.004999998956899995,-0.01299999654300002,-0.010999992489999999
1522706816.49,27177,1522678016,455418109,,2829046,1522678013,496820241,,0.7958693900830001,-0.45056293177199996,0.129673934878,0.0313046652506,0.999412917223,-0.010680565256700001,0.00893108877248,0.022721868252900002,0.00722702191233,0.022974863298299997,-0.00838192876494,-0.0504066741716,0.0125476861255,0.36217156052599997,0.0174173265696,6.5691313743599995,0.6073237657549999,0.11388529837099999,0.362846851349,2829396,1522678013,494929808,,"['head_nod', 'head_pan', 'left_e0', 'left_e1', 'left_s0', 'left_s1', 'left_w0', 'left_w1', 'left_w2', 'right_e0', 'right_e1', 'right_s0', 'right_s1', 'right_w0', 'right_w1', 'right_w2', 'torso_t0']","(0.0, -0.10085923680346595, -0.9061991504433081, 1.5013836961428486, 0.2791845033951453, 0.6450389213058165, 2.3420051679040554, -0.48742239535059023, -0.03259709174256504, 0.4651796739262517, 0.9215389583221623, 0.3133155759255958, -0.7079321336091184, -0.37199034106221285, 1.405126401703039, -0.03298058693953639, -12.565987119160338)","(0.0, 0.0, 0.0, -0.0047123889795007284, 0.006283185306000972, -0.009817477040626518, 0.014922565101752308, -0.02591813938725401, -0.008639379795751335, 0.008246680714126275, -0.0329867228565051, 0.01531526418337737, -0.01531526418337737, -0.0019634954081253035, -0.0035342917346255468, -0.0027488935713754254, 0.0)","(0.0, 0.0, -14.46, 10.916, 0.216, 5.1, 0.096, -2.656, 0.288, 7.836, -15.892, 0.092, -28.616, -0.016, 0.168, -0.1, -20.48)",2810274,1522678016,453101912,robotiq_force_torque_frame_id,1.13899994493,3.19199995995,0.432998275757,-0.0489999987185,-0.194000005722,-0.155000001192,0.0,0.0,0.0,0.0,0.0,0.0,0.0,0.0,0.0,0.0,3,"(0.5282605997723452, -0.8173976392976043, 0.13420757995327057, 0.9999377972961767, -0.004352227397899262, -0.0093881683039238, 0.004161964805749191)",0.6599998474169999,-0.7400000095300001,0.02999877929700001,-0.0009999983013000008,-0.002000004052999965,0.012999996542999992
1522706816.49,27178,1522678016,465396881,,2829047,1522678013,506830589,,0.7955568818019999,-0.44941120064199996,0.129186789632,0.0306951205951,0.9994421921359999,-0.0102181341399,0.00828878062217,0.0142115006575,-0.014486151587100001,0.0143147504037,-0.0259023456391,-0.0328704529302,-0.00388930636935,-0.324356466532,0.126345157623,6.4591345787,0.548095703125,-0.162488713861,0.371966838837,1119064,1522678013,505999872,,['r_gripper_l_finger_joint'],"(0.01994938171207905,)","(0.0,)","(0.0,)",2810275,1522678016,461236596,robotiq_force_torque_frame_id,1.4089999258500001,2.66199998856,0.323001480103,-0.046999998390699994,-0.188999995589,-0.15099999308599998,0.0,0.0,0.0,0.0,0.0,0.0,0.0,0.0,0.0,0.0,3,"(0.5282605997723452, -0.8173976392976043, 0.13420757995327057, 0.9999377972961767, -0.004352227397899262, -0.0093881683039238, 0.004161964805749191)",0.2699999809200002,-0.5299999713900001,-0.109996795654,0.002000000327800004,0.005000010132999999,0.004000008106000014
1522706816.49,27179,1522678016,475447893,,2829048,1522678013,516828461,,0.79566634683,-0.448953349604,0.129515659796,0.0304001655447,0.999449349598,-0.010299407392799999,0.00841128590635,-0.007722793692289999,0.005389611184680001,-0.0018100358484600002,0.0171342454087,0.019182057268400002,-0.0017517325785699998,-0.5122564435010001,0.17206196486900002,6.474388122560001,0.522821724415,-0.202996969223,0.36874768137900005,1119065,1522678013,519000064,,['l_gripper_l_finger_joint'],"(0.0032494800670444966,)","(0.0,)","(0.0,)",2810276,1522678016,473457816,robotiq_force_torque_frame_id,1.39899993539,2.3420000553099998,0.022998428344700002,-0.0419999994338,-0.186000004411,-0.153999999166,0.0,0.0,0.0,0.0,0.0,0.0,0.0,0.0,0.0,0.0,3,"(0.5282605997723452, -0.8173976392976043, 0.13420757995327057, 0.9999377972961767, -0.004352227397899262, -0.0093881683039238, 0.004161964805749191)",-0.009999990460000108,-0.3199999332500001,-0.3000030517583,0.004999998956899995,0.0029999911779999833,-0.003000006080000006
1522706816.53,27180,1522678016,485420942,,2829049,1522678013,526827686,,0.795407953874,-0.449352136556,0.129137706474,0.0304368318075,0.999450924079,-0.010339082299,0.00803448844698,-0.012452512774799999,0.00369013755305,-0.0131059038387,0.013701188913,0.027798939300000002,0.006599651725840001,0.25262597203299997,-0.10688982904,6.45575237274,0.645636558533,0.0622389428318,0.35681039094899997,2829399,1522678013,524887437,,"['head_nod', 'head_pan', 'left_e0', 'left_e1', 'left_s0', 'left_s1', 'left_w0', 'left_w1', 'left_w2', 'right_e0', 'right_e1', 'right_s0', 'right_s1', 'right_w0', 'right_w1', 'right_w2', 'torso_t0']","(0.0, -0.1004757416064946, -0.9069661408372509, 1.5033011721277054, 0.2791845033951453, 0.6450389213058165, 2.341621672707084, -0.4881893857445329, -0.033364082136507746, 0.4651796739262517, 0.922305948716105, 0.3144660615165098, -0.7075486384121471, -0.37160684586524145, 1.4058933920969816, -0.033364082136507746, -12.565987119160338)","(0.0, -0.01021017612225158, -0.011780972448751823, -0.0035342917346255468, 0.005890486224375911, 0.0027488935713754254, 0.005890486224375911, -0.010995574285501701, 0.0007853981632501215, -0.0007853981632501215, 0.02552544030562895, -0.006283185306000972, 0.005890486224375911, 0.008246680714126275, -0.0007853981632501215, -0.005890486224375911, 0.0)","(0.0, 0.0, -14.556, 10.916, 0.28, 5.1, 0.112, -2.656, 0.26, 7.772, -15.864, -0.028, -28.556, -0.024, 0.168, -0.092, -20.48)",2810277,1522678016,481629872,robotiq_force_torque_frame_id,1.0989999830700001,1.9519999504099999,-0.196998977661,-0.0489999987185,-0.184000000358,-0.14000000059599998,0.0,0.0,0.0,0.0,0.0,0.0,0.0,0.0,0.0,0.0,3,"(0.7226984606173945, -0.09620984566567221, 0.0007815661447113653, 0.985632352252714, 0.16661909790587473, 0.015820836219591468, 0.02272979426056297)",-0.2999999523199999,-0.3900001048999999,-0.2199974060057,-0.0069999992846999995,0.0020000040530000207,0.013999998570000005
1522706816.53,27181,1522678016,495637893,,2829050,1522678013,536834012,,0.795225465311,-0.450008138494,0.129222017823,0.030787829181599998,0.9994328731730001,-0.0110946616197,0.0079341085959,0.00633018555958,-0.00291682945785,0.00298737062169,-0.000469808128756,-0.0186723728418,-0.0130495280238,0.166860982776,-0.23971904814199999,6.58868789673,0.7650098800660001,0.011209215968799998,0.39084389805799996,2829400,1522678013,534898175,,"['head_nod', 'head_pan', 'left_e0', 'left_e1', 'left_s0', 'left_s1', 'left_w0', 'left_w1', 'left_w2', 'right_e0', 'right_e1', 'right_s0', 'right_s1', 'right_w0', 'right_w1', 'right_w2', 'torso_t0']","(0.0, -0.1012427320004373, -0.9073496360342223, 1.50176719133982, 0.2784175130012026, 0.6442719309118737, 2.3420051679040554, -0.48780589054756157, -0.03298058693953639, 0.46479617872928036, 0.9226894439130764, 0.3144660615165098, -0.7079321336091184, -0.3727573314561555, 1.4058933920969816, -0.03259709174256504, -12.565987119160338)","(0.0, 0.0, -0.010995574285501701, 0.007853981632501214, -0.01649336142825255, -0.00039269908162506076, 0.008246680714126275, -0.007461282550876154, -0.0027488935713754254, 0.003926990816250607, -0.003141592653000486, -0.00510508806112579, -0.0019634954081253035, -0.0007853981632501215, -0.012566370612001944, 0.009817477040626518, 0.0)","(0.0, 0.0, -14.524, 10.916, 0.308, 5.068, 0.084, -2.628, 0.288, 7.836, -15.924, -0.124, -28.616, 0.0, 0.16, -0.112, -20.48)",2810278,1522678016,493848620,robotiq_force_torque_frame_id,1.0090000689,1.4219999790200002,0.0730014801025,-0.0489999987185,-0.18000000715300002,-0.137999996543,0.0,0.0,0.0,0.0,0.0,0.0,0.0,0.0,0.0,0.0,3,"(0.7226984606173945, -0.09620984566567221, 0.0007815661447113653, 0.985632352252714, 0.16661909790587473, 0.015820836219591468, 0.02272979426056297)",-0.08999991417000008,-0.5299999713899997,0.2700004577635,0.0,0.003999993204999969,0.002000004052999993
1522706816.53,27182,1522678016,505599975,,2829051,1522678013,546820367,,0.795631635448,-0.44970551104999995,0.129189437637,0.031076495822000002,0.999428679367,-0.010229995906299999,0.00848017981213,0.00816808955874,0.007630249941,0.009984165172540001,0.00335488071038,-0.0165853561464,0.00100744288227,1.91213274002,-0.46766114234899997,6.911149978639999,0.786515176296,0.7294549942020001,0.33962562680200004,2829401,1522678013,544893874,,"['head_nod', 'head_pan', 'left_e0', 'left_e1', 'left_s0', 'left_s1', 'left_w0', 'left_w1', 'left_w2', 'right_e0', 'right_e1', 'right_s0', 'right_s1', 'right_w0', 'right_w1', 'right_w2', 'torso_t0']","(0.0, -0.10085923680346595, -0.9065826456402796, 1.5025341817337627, 0.2795679985921167, 0.6446554261088451, 2.3412381775101125, -0.48742239535059023, -0.033364082136507746, 0.4655631691232231, 0.922305948716105, 0.3136990711225671, -0.7075486384121471, -0.37160684586524145, 1.405126401703039, -0.03259709174256504, -12.565987119160338)","(0.0, 0.001570796326500243, 0.0011780972448751821, -0.007461282550876154, -0.010995574285501701, 0.01688606050987761, -0.009817477040626518, 0.009817477040626518, 0.0070685834692510935, 0.014137166938502187, -0.014529866020127248, 0.004319689897875668, -0.0047123889795007284, -0.0027488935713754254, 0.005890486224375911, 0.007853981632501214, 0.0)","(0.0, 0.0, -14.524, 10.916, 0.248, 5.068, 0.104, -2.648, 0.26, 7.744, -16.132, 0.028, -28.644, 0.008, 0.18, -0.1, -20.48)",2810279,1522678016,501995101,robotiq_force_torque_frame_id,1.0190000593700002,1.29199986458,0.362998580933,-0.0500000007451,-0.179000005126,-0.142000004649,0.0,0.0,0.0,0.0,0.0,0.0,0.0,0.0,0.0,0.0,3,"(0.7226984606173945, -0.09620984566567221, 0.0007815661447113653, 0.985632352252714, 0.16661909790587473, 0.015820836219591468, 0.02272979426056297)",0.009999990470000109,-0.13000011444000026,0.2899971008305,-0.0010000020265999998,0.0010000020270000132,-0.004000008106000014
1522706816.53,27183,1522678016,515403032,,2829052,1522678013,556819306,,0.795496146058,-0.448967348967,0.12918131987700002,0.030918527447200004,0.999438808082,-0.010012603239200002,0.00811549976249,-0.00218072772081,-0.0109570043506,0.00651665353079,-0.0173473975235,-0.000397669606517,0.00624449541035,1.5146608352700002,-0.199225440621,6.78091239929,0.6446757316589999,0.565809130669,0.332221120596,1119066,1522678013,556000000,,['r_gripper_l_finger_joint'],"(0.01994938171207905,)","(0.0,)","(0.0,)",2810280,1522678016,514205979,robotiq_force_torque_frame_id,0.368999963999,1.9619999408700002,0.123000717163,-0.0410000011325,-0.187999993563,-0.155000001192,0.0,0.0,0.0,0.0,0.0,0.0,0.0,0.0,0.0,0.0,3,"(0.7226984606173945, -0.09620984566567221, 0.0007815661447113653, 0.985632352252714, 0.16661909790587473, 0.015820836219591468, 0.02272979426056297)",-0.6500000953710001,0.6700000762900002,-0.23999786377000004,0.0089999996126,-0.008999988437000006,-0.012999996542999992
1522706816.57,27184,1522678016,525401115,,2829053,1522678013,566820243,,0.79555012057,-0.449620212607,0.129322472063,0.0311174368121,0.9994272887350001,-0.010413986988799999,0.00826731711707,0.00025042047184799997,-0.011747460844499999,0.00557362347756,-0.0202784661997,0.00043039881616699995,-0.005060088417949999,0.878314971924,-0.135398566723,6.6130075454699995,0.6184567213059999,0.309755504131,0.35570949316,1119067,1522678013,568999936,,['l_gripper_l_finger_joint'],"(0.0032494800670444966,)","(0.0,)","(0.0,)",2810281,1522678016,522345858,robotiq_force_torque_frame_id,-0.161000007391,2.03199987411,-0.167000198364,-0.0320000015199,-0.190999999642,-0.158000007272,0.0,0.0,0.0,0.0,0.0,0.0,0.0,0.0,0.0,0.0,3,"(0.7226984606173945, -0.09620984566567221, 0.0007815661447113653, 0.985632352252714, 0.16661909790587473, 0.015820836219591468, 0.02272979426056297)",-0.52999997139,0.06999993323999965,-0.290000915527,0.0089999996126,-0.0030000060790000005,-0.003000006080000006
1522706816.57,27185,1522678016,535454034,,2829054,1522678013,576822254,,0.795614598717,-0.449235387101,0.12914331794199999,0.030596627206200003,0.999442485386,-0.0105359134696,0.00821944866088,-0.00308870694211,0.0022170842256500002,-0.00637660249965,0.022317033190599998,0.0111648231712,-0.0183507639787,0.206673026085,-0.130635529757,6.556940555569999,0.631699025631,0.0553462766111,0.36307436227799994,2829404,1522678013,574919437,,"['head_nod', 'head_pan', 'left_e0', 'left_e1', 'left_s0', 'left_s1', 'left_w0', 'left_w1', 'left_w2', 'right_e0', 'right_e1', 'right_s0', 'right_s1', 'right_w0', 'right_w1', 'right_w2', 'torso_t0']","(0.0, -0.1012427320004373, -0.9077331312311936, 1.5013836961428486, 0.27880100819817394, 0.6446554261088451, 2.3412381775101125, -0.48742239535059023, -0.03298058693953639, 0.4651796739262517, 0.922305948716105, 0.3148495567134812, -0.7075486384121471, -0.37199034106221285, 1.4055098969000104, -0.03259709174256504, -12.565987119160338)","(0.0, 0.0011780972448751821, -0.01060287520387664, -0.0035342917346255468, 0.0011780972448751821, 0.009032078877376396, 0.01688606050987761, 0.001570796326500243, -0.009424777959001457, 0.005497787142750851, -0.012566370612001944, -0.007853981632501214, 0.01688606050987761, 0.011780972448751823, 0.010995574285501701, 0.007853981632501214, 0.0)","(0.0, 0.0, -14.588, 10.948, 0.152, 5.036, 0.096, -2.676, 0.26, 7.712, -15.892, -0.028, -28.644, -0.016, 0.168, -0.112, -20.48)",2810282,1522678016,530474140,robotiq_force_torque_frame_id,-0.46099995970700003,1.79199986458,-0.176998519897,-0.0460000000894,-0.188999995589,-0.143999993801,0.0,0.0,0.0,0.0,0.0,0.0,0.0,0.0,0.0,0.0,3,"(0.7226984606173945, -0.09620984566567221, 0.0007815661447113653, 0.985632352252714, 0.16661909790587473, 0.015820836219591468, 0.02272979426056297)",-0.299999952316,-0.2400000095299999,-0.009998321532999982,-0.013999998569500002,0.0020000040530000207,0.014000013470999995
1522706816.57,27186,1522678016,545442104,,2829055,1522678013,586820763,,0.795638888821,-0.450149799917,0.129489246097,0.031362747203599994,0.9994138075519999,-0.0107728972619,0.008506706027149999,0.00283751407231,0.00859257091276,0.00584268284706,0.00970695040096,-0.00606414034734,-0.0030354311318699996,0.37680682539899996,-0.17302101850499998,6.63993549347,0.577871620655,0.162589281797,0.31798478961,2829405,1522678013,584886636,,"['head_nod', 'head_pan', 'left_e0', 'left_e1', 'left_s0', 'left_s1', 'left_w0', 'left_w1', 'left_w2', 'right_e0', 'right_e1', 'right_s0', 'right_s1', 'right_w0', 'right_w1', 'right_w2', 'torso_t0']","(0.0, -0.10085923680346595, -0.9069661408372509, 1.50176719133982, 0.27880100819817394, 0.6450389213058165, 2.3427721582979983, -0.48780589054756157, -0.033364082136507746, 0.46479617872928036, 0.9219224535191337, 0.31408256631953846, -0.7079321336091184, -0.37199034106221285, 1.4055098969000104, -0.032213596545593685, -12.565987119160338)","(0.0, -0.0035342917346255468, -0.003141592653000486, -0.006675884387626033, -0.0011780972448751821, 0.008246680714126275, 0.03887720908088101, -0.0007853981632501215, 0.021991148571003403, 0.003141592653000486, -0.003141592653000486, 0.00510508806112579, -0.006675884387626033, 0.01060287520387664, 0.00510508806112579, 0.007461282550876154, 0.0)","(0.0, 0.0, -14.556, 10.916, 0.28, 5.036, 0.096, -2.656, 0.28, 7.52, -15.924, -0.028, -28.704, -0.008, 0.188, -0.1, -20.48)",2810283,1522678016,542686991,robotiq_force_torque_frame_id,-0.45099996924400004,1.57200007439,-0.0270008087158,-0.046999998390699994,-0.17700000107299999,-0.136999994516,0.0,0.0,0.0,0.0,0.0,0.0,0.0,0.0,0.0,0.0,3,"(0.7226984606173945, -0.09620984566567221, 0.0007815661447113653, 0.985632352252714, 0.16661909790587473, 0.015820836219591468, 0.02272979426056297)",0.009999990462999986,-0.21999979018999993,0.1499977111812,-0.0009999983012999938,0.011999994516000007,0.006999999285000003
1522706816.57,27187,1522678016,555421113,,2829056,1522678013,597101017,,0.7957062059700001,-0.449370915572,0.129493116849,0.030926572066,0.999431758369,-0.010352190696899998,0.00851702123831,0.011841104253,0.00944504484903,0.00442278529583,0.00825906009272,-0.0287230293541,0.014055000961599999,0.42755758762400004,-0.156505271792,6.646130561830001,0.614863932133,0.164779722691,0.345139920712,2829406,1522678013,594931272,,"['head_nod', 'head_pan', 'left_e0', 'left_e1', 'left_s0', 'left_s1', 'left_w0', 'left_w1', 'left_w2', 'right_e0', 'right_e1', 'right_s0', 'right_s1', 'right_w0', 'right_w1', 'right_w2', 'torso_t0']","(0.0, -0.1012427320004373, -0.9069661408372509, 1.5013836961428486, 0.2784175130012026, 0.6442719309118737, 2.341621672707084, -0.4881893857445329, -0.03298058693953639, 0.46594666432019444, 0.922305948716105, 0.31408256631953846, -0.7079321336091184, -0.37199034106221285, 1.4055098969000104, -0.032213596545593685, -12.565987119160338)","(0.0, 0.006283185306000972, 0.00510508806112579, 0.018456856836377853, 0.00039269908162506076, 0.0027488935713754254, 0.003926990816250607, -0.003141592653000486, 0.011780972448751823, 0.013744467856877126, 0.0, 0.001570796326500243, -0.003926990816250607, 0.0027488935713754254, -0.02042035224450316, -0.0035342917346255468, 0.0)","(0.0, 0.0, -14.556, 10.948, 0.184, 5.036, 0.104, -2.664, 0.26, 7.648, -15.924, 0.0, -28.672, 0.0, 0.18, -0.112, -20.48)",2810284,1522678016,550829503,robotiq_force_torque_frame_id,-0.0410000026226,1.15199975967,0.0330005645752,-0.035000000148999996,-0.170000001788,-0.133000001311,0.0,0.0,0.0,0.0,0.0,0.0,0.0,0.0,0.0,0.0,3,"(0.7226984606173945, -0.09620984566567221, 0.0007815661447113653, 0.985632352252714, 0.16661909790587473, 0.015820836219591468, 0.02272979426056297)",0.40999996662140004,-0.42000031472,0.060001373291,0.011999998241699998,0.006999999284999975,0.0039999932049999964
1522706816.61,27188,1522678016,565429925,,2829056,1522678013,597101017,,0.7957062059700001,-0.449370915572,0.129493116849,0.030926572066,0.999431758369,-0.010352190696899998,0.00851702123831,0.011841104253,0.00944504484903,0.00442278529583,0.00825906009272,-0.0287230293541,0.014055000961599999,0.42755758762400004,-0.156505271792,6.646130561830001,0.614863932133,0.164779722691,0.345139920712,2829406,1522678013,594931272,,"['head_nod', 'head_pan', 'left_e0', 'left_e1', 'left_s0', 'left_s1', 'left_w0', 'left_w1', 'left_w2', 'right_e0', 'right_e1', 'right_s0', 'right_s1', 'right_w0', 'right_w1', 'right_w2', 'torso_t0']","(0.0, -0.1012427320004373, -0.9069661408372509, 1.5013836961428486, 0.2784175130012026, 0.6442719309118737, 2.341621672707084, -0.4881893857445329, -0.03298058693953639, 0.46594666432019444, 0.922305948716105, 0.31408256631953846, -0.7079321336091184, -0.37199034106221285, 1.4055098969000104, -0.032213596545593685, -12.565987119160338)","(0.0, 0.006283185306000972, 0.00510508806112579, 0.018456856836377853, 0.00039269908162506076, 0.0027488935713754254, 0.003926990816250607, -0.003141592653000486, 0.011780972448751823, 0.013744467856877126, 0.0, 0.001570796326500243, -0.003926990816250607, 0.0027488935713754254, -0.02042035224450316, -0.0035342917346255468, 0.0)","(0.0, 0.0, -14.556, 10.948, 0.184, 5.036, 0.104, -2.664, 0.26, 7.648, -15.924, 0.0, -28.672, 0.0, 0.18, -0.112, -20.48)",2810285,1522678016,563017468,robotiq_force_torque_frame_id,0.7590000689030001,1.34200005531,0.112998580933,-0.0430000014603,-0.17599999904599997,-0.128999993205,0.0,0.0,0.0,0.0,0.0,0.0,0.0,0.0,0.0,0.0,3,"(0.7226984606173945, -0.09620984566567221, 0.0007815661447113653, 0.985632352252714, 0.16661909790587473, 0.015820836219591468, 0.02272979426056297)",0.8000000715256,0.19000029563999998,0.07999801635779999,-0.008000001311300006,-0.005999997257999962,0.004000008106000014
1522706816.61,27189,1522678016,575428962,,2829057,1522678013,606688328,,0.79630213597,-0.44923388664700004,0.129599066004,0.030864242381400002,0.999428028393,-0.0104798421465,0.00901041137243,0.00664950183948,-0.0209900211429,0.0081321789677,-0.026954419788799998,-0.0322806501229,-0.006796474726869999,0.8086955547329999,-0.210312724113,6.7175259590100005,0.710516214371,0.300079971552,0.351867616177,1119068,1522678013,607000064,,['r_gripper_l_finger_joint'],"(0.01994938171207905,)","(0.0,)","(0.0,)",2810286,1522678016,571162146,robotiq_force_torque_frame_id,1.5090000688999998,1.66199998856,0.123000717163,-0.0419999994338,-0.184000000358,-0.129999995232,0.0,0.0,0.0,0.0,0.0,0.0,0.0,0.0,0.0,0.0,3,"(0.7226984606173945, -0.09620984566567221, 0.0007815661447113653, 0.985632352252714, 0.16661909790587473, 0.015820836219591468, 0.02272979426056297)",0.7499999999969997,0.3199999332500001,0.01000213623,0.0010000020265000034,-0.008000001312000016,-0.0010000020270000132
1522706816.61,27190,1522678016,585416078,,2829058,1522678013,616686422,,0.795856908208,-0.449730848391,0.129196908136,0.0312637871662,0.999419110465,-0.0105967186717,0.00846916781447,-0.00189760829191,-0.011020777774700001,-0.010407017554,-0.000754175826301,0.00300179845754,-0.0214504980625,1.1171314716299998,-0.323342174292,6.69153738022,0.699319601059,0.41308501362800004,0.352828234434,1119069,1522678013,620000000,,['l_gripper_l_finger_joint'],"(0.0032494800670444966,)","(0.0,)","(0.0,)",2810287,1522678016,583507256,robotiq_force_torque_frame_id,1.6589999258500001,1.4319999694799999,0.182998275757,-0.0379999987781,-0.19900000095400003,-0.138999998569,0.0,0.0,0.0,0.0,0.0,0.0,0.0,0.0,0.0,0.0,3,"(0.7226984606173945, -0.09620984566567221, 0.0007815661447113653, 0.985632352252714, 0.16661909790587473, 0.015820836219591468, 0.02272979426056297)",0.1499998569500003,-0.23000001908000023,0.05999755859400001,0.004000000655699998,-0.01500000059600004,-0.00900000333699999
1522706816.61,27191,1522678016,595400094,,2829058,1522678013,616686422,,0.795856908208,-0.449730848391,0.129196908136,0.0312637871662,0.999419110465,-0.0105967186717,0.00846916781447,-0.00189760829191,-0.011020777774700001,-0.010407017554,-0.000754175826301,0.00300179845754,-0.0214504980625,1.1171314716299998,-0.323342174292,6.69153738022,0.699319601059,0.41308501362800004,0.352828234434,2829408,1522678013,614789552,,"['head_nod', 'head_pan', 'left_e0', 'left_e1', 'left_s0', 'left_s1', 'left_w0', 'left_w1', 'left_w2', 'right_e0', 'right_e1', 'right_s0', 'right_s1', 'right_w0', 'right_w1', 'right_w2', 'torso_t0']","(0.0, -0.10085923680346595, -0.9065826456402796, 1.50176719133982, 0.2791845033951453, 0.6446554261088451, 2.3420051679040554, -0.48742239535059023, -0.03259709174256504, 0.464412683532309, 0.9211554631251909, 0.3148495567134812, -0.7071651432151758, -0.37160684586524145, 1.4055098969000104, -0.032213596545593685, -12.565987119160338)","(0.0, -0.0007853981632501215, 0.0200276531628781, -0.0027488935713754254, 0.008639379795751335, -0.009817477040626518, -0.0019634954081253035, 0.0, -0.01060287520387664, -0.007461282550876154, -0.00039269908162506076, -0.009817477040626518, 0.014529866020127248, -0.0011780972448751821, -0.012173671530376884, 0.0070685834692510935, 0.0)","(0.0, 0.0, -14.752, 10.948, 0.216, 5.068, 0.068, -2.616, 0.26, 7.68, -16.012, 0.0, -28.644, -0.016, 0.168, -0.112, -20.48)",2810288,1522678016,591636720,robotiq_force_torque_frame_id,1.5790000021500001,1.45199995041,0.283000564575,-0.0379999987781,-0.207000002265,-0.14499999582800002,0.0,0.0,0.0,0.0,0.0,0.0,0.0,0.0,0.0,0.0,3,"(0.7226984606173945, -0.09620984566567221, 0.0007815661447113653, 0.985632352252714, 0.16661909790587473, 0.015820836219591468, 0.02272979426056297)",-0.07999992369999998,0.019999980930000216,0.100002288818,0.0,-0.008000001310999982,-0.005999997259000023
1522706816.61,27192,1522678016,605438947,,2829059,1522678013,626684786,,0.7961842870110001,-0.449127697377,0.12958187641,0.0307892474633,0.999433443225,-0.0101537922306,0.00903965196363,-0.0030705165634300003,-0.008713969424339999,-0.0048284044013199995,0.00798068762372,0.00296706951101,-0.0155470166233,0.725236535072,-0.29235553741500003,6.75361824036,0.6863300800319999,0.267787009478,0.34390425682099995,2829410,1522678013,634747221,,"['head_nod', 'head_pan', 'left_e0', 'left_e1', 'left_s0', 'left_s1', 'left_w0', 'left_w1', 'left_w2', 'right_e0', 'right_e1', 'right_s0', 'right_s1', 'right_w0', 'right_w1', 'right_w2', 'torso_t0']","(0.0, -0.1012427320004373, -0.9069661408372509, 1.50176719133982, 0.27880100819817394, 0.6446554261088451, 2.341621672707084, -0.48780589054756157, -0.033364082136507746, 0.46594666432019444, 0.9226894439130764, 0.3136990711225671, -0.7079321336091184, -0.37199034106221285, 1.405126401703039, -0.032213596545593685, -12.565987119160338)","(0.0, -0.0027488935713754254, -0.014137166938502187, -0.004319689897875668, -0.0019634954081253035, 0.008639379795751335, -0.0007853981632501215, 0.007853981632501214, 0.0027488935713754254, -0.006675884387626033, 0.019242254999627974, 0.009817477040626518, -0.012566370612001944, -0.00510508806112579, -0.0047123889795007284, -0.0047123889795007284, 0.0)","(0.0, 0.0, -14.556, 10.948, 0.06, 5.068, 0.084, -2.648, 0.26, 7.712, -16.044, 0.028, -28.732, -0.008, 0.18, -0.092, -20.48)",2810289,1522678016,603843827,robotiq_force_torque_frame_id,1.28900004029,1.18199996948,0.312999343872,-0.032999999821200006,-0.202000007033,-0.141000002623,0.0,0.0,0.0,0.0,0.0,0.0,0.0,0.0,0.0,0.0,3,"(0.7226984606173945, -0.09620984566567221, 0.0007815661447113653, 0.985632352252714, 0.16661909790587473, 0.015820836219591468, 0.02272979426056297)",-0.2899999618600002,-0.26999998093,0.02999877929700001,0.004999998956899995,0.00499999523200001,0.003999993205000024
1522706816.62,27193,1522678016,615459918,,2829060,1522678013,636683441,,0.7956257578820001,-0.44959181892,0.129360350601,0.0310492766286,0.9994279491310001,-0.010343442826700001,0.00852819487982,-0.00265402421627,0.0031179728959,0.0008829260509239998,-0.0130262355095,0.00485587095366,0.017579910722000002,1.01428699493,-0.23352727294,6.8623232841499995,0.658555567265,0.388399958611,0.329627335072,2829410,1522678013,634747221,,"['head_nod', 'head_pan', 'left_e0', 'left_e1', 'left_s0', 'left_s1', 'left_w0', 'left_w1', 'left_w2', 'right_e0', 'right_e1', 'right_s0', 'right_s1', 'right_w0', 'right_w1', 'right_w2', 'torso_t0']","(0.0, -0.1012427320004373, -0.9069661408372509, 1.50176719133982, 0.27880100819817394, 0.6446554261088451, 2.341621672707084, -0.48780589054756157, -0.033364082136507746, 0.46594666432019444, 0.9226894439130764, 0.3136990711225671, -0.7079321336091184, -0.37199034106221285, 1.405126401703039, -0.032213596545593685, -12.565987119160338)","(0.0, -0.0027488935713754254, -0.014137166938502187, -0.004319689897875668, -0.0019634954081253035, 0.008639379795751335, -0.0007853981632501215, 0.007853981632501214, 0.0027488935713754254, -0.006675884387626033, 0.019242254999627974, 0.009817477040626518, -0.012566370612001944, -0.00510508806112579, -0.0047123889795007284, -0.0047123889795007284, 0.0)","(0.0, 0.0, -14.556, 10.948, 0.06, 5.068, 0.084, -2.648, 0.26, 7.712, -16.044, 0.028, -28.732, -0.008, 0.18, -0.092, -20.48)",2810290,1522678016,611986580,robotiq_force_torque_frame_id,0.799000030756,0.901999759674,0.272998428345,-0.0340000018477,-0.19699999690099998,-0.141000002623,0.0,0.0,0.0,0.0,0.0,0.0,0.0,0.0,0.0,0.0,3,"(0.7226984606173945, -0.09620984566567221, 0.0007815661447113653, 0.985632352252714, 0.16661909790587473, 0.015820836219591468, 0.02272979426056297)",-0.4900000095339999,-0.28000020980600004,-0.040000915527000025,-0.0010000020264999965,0.005000010132000021,0.0
1522706816.65,27194,1522678016,625401020,,2829060,1522678013,636683441,,0.7956257578820001,-0.44959181892,0.129360350601,0.0310492766286,0.9994279491310001,-0.010343442826700001,0.00852819487982,-0.00265402421627,0.0031179728959,0.0008829260509239998,-0.0130262355095,0.00485587095366,0.017579910722000002,1.01428699493,-0.23352727294,6.8623232841499995,0.658555567265,0.388399958611,0.329627335072,1119070,1522678013,656999936,,['r_gripper_l_finger_joint'],"(0.01994938171207905,)","(0.0,)","(0.0,)",2810291,1522678016,624201962,robotiq_force_torque_frame_id,0.739000087976,0.8619997978210001,0.222999191284,-0.035000000148999996,-0.187000006437,-0.12800000607999998,0.0,0.0,0.0,0.0,0.0,0.0,0.0,0.0,0.0,0.0,3,"(0.7226984606173945, -0.09620984566567221, 0.0007815661447113653, 0.985632352252714, 0.16661909790587473, 0.015820836219591468, 0.02272979426056297)",-0.05999994277999998,-0.03999996185299992,-0.049999237060999985,-0.0009999983012999938,0.009999990463999991,0.01299999654300002
1522706816.65,27195,1522678016,635425090,,2829062,1522678013,656681877,,0.7957783940500001,-0.450042305027,0.129156904702,0.0311406443678,0.999424667766,-0.0103279563511,0.00859808393888,0.00505380476287,0.000435807495518,0.0037598388836599995,0.0005931342029140001,-0.009990830022799999,0.0132750928929,0.889975011349,-0.281190335751,6.8137602806099995,0.676495373249,0.349825650454,0.356558948755,2829413,1522678013,664793393,,"['head_nod', 'head_pan', 'left_e0', 'left_e1', 'left_s0', 'left_s1', 'left_w0', 'left_w1', 'left_w2', 'right_e0', 'right_e1', 'right_s0', 'right_s1', 'right_w0', 'right_w1', 'right_w2', 'torso_t0']","(0.0, -0.10085923680346595, -0.9065826456402796, 1.5013836961428486, 0.2795679985921167, 0.6450389213058165, 2.3408546823131413, -0.4881893857445329, -0.033364082136507746, 0.4655631691232231, 0.922305948716105, 0.3144660615165098, -0.7071651432151758, -0.37199034106221285, 1.4047429065060677, -0.03259709174256504, -12.565987119160338)","(0.0, 0.0019634954081253035, 0.003926990816250607, 0.0047123889795007284, -0.00039269908162506076, -0.003926990816250607, 0.018456856836377853, 0.0019634954081253035, 0.006283185306000972, 0.01021017612225158, 0.004319689897875668, -0.0007853981632501215, 0.004319689897875668, -0.005890486224375911, 0.007853981632501214, -0.00039269908162506076, 0.0)","(0.0, 0.0, -14.652, 10.98, 0.092, 5.068, 0.084, -2.648, 0.252, 7.836, -16.072, -0.06, -28.76, -0.008, 0.18, -0.112, -20.48)",2810292,1522678016,632341763,robotiq_force_torque_frame_id,0.848999983072,0.801999855042,0.112998580933,-0.0340000018477,-0.187000006437,-0.11699999868899999,0.0,0.0,0.0,0.0,0.0,0.0,0.0,0.0,0.0,0.0,3,"(0.7226984606173945, -0.09620984566567221, 0.0007815661447113653, 0.985632352252714, 0.16661909790587473, 0.015820836219591468, 0.02272979426056297)",0.10999989509599994,-0.059999942779000115,-0.110000610351,0.0009999983012999938,0.0,0.011000007390999988
1522706816.65,27196,1522678016,645437955,,2829063,1522678013,666691120,,0.795821840425,-0.44926300902800004,0.128938230753,0.030660199586099997,0.999440250221,-0.010347470280799999,0.0084893025393,-0.004179674164949999,0.005013127864470001,-0.0031904853288899997,0.00440901085245,0.0127673874642,0.00844340194365,0.935889601707,-0.349470674992,6.9340171814,0.774883210659,0.342682689428,0.376693606377,1119071,1522678013,671000064,,['l_gripper_l_finger_joint'],"(0.0032494800670444966,)","(0.0,)","(0.0,)",2810293,1522678016,640460996,robotiq_force_torque_frame_id,0.898999935389,0.732000160217,0.0330005645752,-0.032999999821200006,-0.195999994874,-0.122000001371,0.0,0.0,0.0,0.0,0.0,0.0,0.0,0.0,0.0,0.0,3,"(0.7226984606173945, -0.09620984566567221, 0.0007815661447113653, 0.985632352252714, 0.16661909790587473, 0.015820836219591468, 0.02272979426056297)",0.04999995231700005,-0.06999969482500001,-0.07999801635779999,0.0010000020264999965,-0.008999988437000006,-0.005000002682000015
1522706816.69,27197,1522678016,655467987,,2829063,1522678013,666691120,,0.795821840425,-0.44926300902800004,0.128938230753,0.030660199586099997,0.999440250221,-0.010347470280799999,0.0084893025393,-0.004179674164949999,0.005013127864470001,-0.0031904853288899997,0.00440901085245,0.0127673874642,0.00844340194365,0.935889601707,-0.349470674992,6.9340171814,0.774883210659,0.342682689428,0.376693606377,2829414,1522678013,674799808,,"['head_nod', 'head_pan', 'left_e0', 'left_e1', 'left_s0', 'left_s1', 'left_w0', 'left_w1', 'left_w2', 'right_e0', 'right_e1', 'right_s0', 'right_s1', 'right_w0', 'right_w1', 'right_w2', 'torso_t0']","(0.0, -0.10162622719740866, -0.9069661408372509, 1.5013836961428486, 0.27880100819817394, 0.6450389213058165, 2.341621672707084, -0.48703890015361884, -0.033364082136507746, 0.4655631691232231, 0.922305948716105, 0.3133155759255958, -0.7075486384121471, -0.3712233506682701, 1.405126401703039, -0.03259709174256504, -12.565987119160338)","(0.0, -0.00510508806112579, -0.005890486224375911, 0.0007853981632501215, -0.005497787142750851, -0.0011780972448751821, 0.014922565101752308, -0.008639379795751335, 0.009032078877376396, -0.02042035224450316, -0.001570796326500243, 0.0007853981632501215, 0.013744467856877126, -0.01531526418337737, 0.01649336142825255, 0.009424777959001457, 0.0)","(0.0, 0.0, -14.62, 10.916, 0.308, 5.132, 0.084, -2.656, 0.268, 7.648, -16.164, 0.092, -28.792, -0.016, 0.16, -0.112, -20.48)",2810294,1522678016,652652423,robotiq_force_torque_frame_id,0.809000021219,0.9420001983640001,0.14300117492699999,-0.0340000018477,-0.202000007033,-0.125,0.0,0.0,0.0,0.0,0.0,0.0,0.0,0.0,0.0,0.0,3,"(0.7226984606173945, -0.09620984566567221, 0.0007815661447113653, 0.985632352252714, 0.16661909790587473, 0.015820836219591468, 0.02272979426056297)",-0.08999991416999997,0.21000003814700008,0.11000061035179998,-0.0010000020264999965,-0.006000012159000007,-0.0029999986289999947
1522706816.69,27198,1522678016,665422916,,2829065,1522678013,686695752,,0.795623469559,-0.44911657081699996,0.129100648167,0.030503188988799997,0.9994488857449999,-0.010075259699,0.0083647705406,-0.0158869643431,-0.000782441195881,-0.00816647432529,0.0040710638345700005,0.034544535486699994,-0.012640334392799999,1.7520891428,-0.5179733037950001,7.020844459530001,0.790232300758,0.6679905653,0.355613648891,2829416,1522678013,694769898,,"['head_nod', 'head_pan', 'left_e0', 'left_e1', 'left_s0', 'left_s1', 'left_w0', 'left_w1', 'left_w2', 'right_e0', 'right_e1', 'right_s0', 'right_s1', 'right_w0', 'right_w1', 'right_w2', 'torso_t0']","(0.0, -0.1004757416064946, -0.9065826456402796, 1.5021506865367915, 0.2784175130012026, 0.6450389213058165, 2.3420051679040554, -0.48742239535059023, -0.033364082136507746, 0.46479617872928036, 0.922305948716105, 0.31408256631953846, -0.7071651432151758, -0.37199034106221285, 1.4047429065060677, -0.03259709174256504, -12.565987119160338)","(0.0, 0.0019634954081253035, 0.02042035224450316, 0.0035342917346255468, 0.0047123889795007284, 0.004319689897875668, -0.031415926530004856, -0.018849555918002914, -0.009424777959001457, 0.02042035224450316, 0.0, -0.007461282550876154, -0.013744467856877126, 0.009817477040626518, 0.005497787142750851, 0.0070685834692510935, 0.0)","(0.0, 0.0, -14.588, 10.916, 0.248, 5.068, 0.084, -2.656, 0.26, 7.744, -16.192, 0.028, -28.732, -0.024, 0.168, -0.112, -20.48)",2810295,1522678016,660783754,robotiq_force_torque_frame_id,0.779000049829,1.2119999408700002,0.35300025939900004,-0.0340000018477,-0.19799999892700001,-0.119999997318,0.0,0.0,0.0,0.0,0.0,0.0,0.0,0.0,0.0,0.0,3,"(0.7226984606173945, -0.09620984566567221, 0.0007815661447113653, 0.985632352252714, 0.16661909790587473, 0.015820836219591468, 0.02272979426056297)",-0.029999971390000102,0.2699997425060001,0.20999908447200005,0.0,0.004000008105999986,0.0050000026820000015
1522706816.69,27199,1522678016,675419092,,2829066,1522678013,696683525,,0.7956003598479999,-0.450013850735,0.128845243739,0.0310977891534,0.999425005986,-0.010614579409399999,0.00836155632326,0.00398761896468,0.009475683337219999,0.0115637323088,0.017949894070099996,-0.0148960618151,-0.00279839434167,2.03702235222,-0.513927400112,7.02139377594,0.7846840023989999,0.7669317722319999,0.352216184139,1119072,1522678013,707000064,,['r_gripper_l_finger_joint'],"(0.01994938171207905,)","(0.0,)","(0.0,)",2810296,1522678016,672999631,robotiq_force_torque_frame_id,0.799000030756,1.3620000362399998,0.0130001068115,-0.0280000008643,-0.203999996185,-0.126000002027,0.0,0.0,0.0,0.0,0.0,0.0,0.0,0.0,0.0,0.0,3,"(0.7226984606173945, -0.09620984566567221, 0.0007815661447113653, 0.985632352252714, 0.16661909790587473, 0.015820836219591468, 0.02272979426056297)",0.01999998092700006,0.1500000953699996,-0.34000015258750005,0.006000000983400002,-0.005999997257999989,-0.006000004709000015
1522706816.69,27200,1522678016,685408115,,2829066,1522678013,696683525,,0.7956003598479999,-0.450013850735,0.128845243739,0.0310977891534,0.999425005986,-0.010614579409399999,0.00836155632326,0.00398761896468,0.009475683337219999,0.0115637323088,0.017949894070099996,-0.0148960618151,-0.00279839434167,2.03702235222,-0.513927400112,7.02139377594,0.7846840023989999,0.7669317722319999,0.352216184139,2829417,1522678013,704787129,,"['head_nod', 'head_pan', 'left_e0', 'left_e1', 'left_s0', 'left_s1', 'left_w0', 'left_w1', 'left_w2', 'right_e0', 'right_e1', 'right_s0', 'right_s1', 'right_w0', 'right_w1', 'right_w2', 'torso_t0']","(0.0, -0.10085923680346595, -0.9065826456402796, 1.50176719133982, 0.27880100819817394, 0.6450389213058165, 2.341621672707084, -0.48742239535059023, -0.033364082136507746, 0.46594666432019444, 0.922305948716105, 0.31408256631953846, -0.7071651432151758, -0.37160684586524145, 1.4055098969000104, -0.03259709174256504, -12.565987119160338)","(0.0, 0.005890486224375911, -0.009424777959001457, -0.014922565101752308, 0.00039269908162506076, -0.0019634954081253035, 0.014137166938502187, 0.004319689897875668, 0.011780972448751823, -0.005890486224375911, 0.0019634954081253035, 0.006283185306000972, 0.009032078877376396, -0.018849555918002914, -0.006675884387626033, -0.00510508806112579, 0.0)","(0.0, 0.0, -14.46, 10.916, 0.184, 5.1, 0.076, -2.636, 0.268, 7.804, -16.164, 0.124, -28.76, -0.016, 0.16, -0.092, -20.48)",2810297,1522678016,681131568,robotiq_force_torque_frame_id,0.45900011658699996,1.09199981689,-0.41700019836400004,-0.0219999998808,-0.207000002265,-0.135000005364,0.0,0.0,0.0,0.0,0.0,0.0,0.0,0.0,0.0,0.0,3,"(0.7226984606173945, -0.09620984566567221, 0.0007815661447113653, 0.985632352252714, 0.16661909790587473, 0.015820836219591468, 0.02272979426056297)",-0.33999991416900005,-0.27000021934999974,-0.43000030517550003,0.006000000983499999,-0.003000006080000006,-0.00900000333699999
1522706816.73,27201,1522678016,695444107,,2829068,1522678013,716688078,,0.7952227298960001,-0.45052916148500005,0.12867207657,0.0312904758731,0.9994220587899999,-0.010666992739500001,0.00791642532365,0.00580298980301,-0.000267142727807,0.00898520754803,-0.014006830683200001,-0.00986771405978,0.00327358528769,1.7858328819299998,-0.580184459686,7.01188850403,0.838750004768,0.679885804653,0.36796876788099997,1119073,1522678013,721999872,,['l_gripper_l_finger_joint'],"(0.0032494800670444966,)","(0.0,)","(0.0,)",2810298,1522678016,693328204,robotiq_force_torque_frame_id,0.5290000498290001,0.20199995040899998,-0.507000350952,-0.00899999961257,-0.20999999344300002,-0.126000002027,0.0,0.0,0.0,0.0,0.0,0.0,0.0,0.0,0.0,0.0,3,"(0.7226984606173945, -0.09620984566567221, 0.0007815661447113653, 0.985632352252714, 0.16661909790587473, 0.015820836219591468, 0.02272979426056297)",0.0699999332420001,-0.889999866481,-0.09000015258799998,0.013000000268230002,-0.002999991178000011,0.00900000333699999
