time,.header.seq,.header.stamp.secs,.header.stamp.nsecs,.header.frame_id,.endpoint_state.header.seq,.endpoint_state.header.stamp.secs,.endpoint_state.header.stamp.nsecs,.endpoint_state.header.frame_id,.endpoint_state.pose.position.x,.endpoint_state.pose.position.y,.endpoint_state.pose.position.z,.endpoint_state.pose.orientation.x,.endpoint_state.pose.orientation.y,.endpoint_state.pose.orientation.z,.endpoint_state.pose.orientation.w,.endpoint_state.twist.linear.x,.endpoint_state.twist.linear.y,.endpoint_state.twist.linear.z,.endpoint_state.twist.angular.x,.endpoint_state.twist.angular.y,.endpoint_state.twist.angular.z,.endpoint_state.wrench.force.x,.endpoint_state.wrench.force.y,.endpoint_state.wrench.force.z,.endpoint_state.wrench.torque.x,.endpoint_state.wrench.torque.y,.endpoint_state.wrench.torque.z,.joint_state.header.seq,.joint_state.header.stamp.secs,.joint_state.header.stamp.nsecs,.joint_state.header.frame_id,.joint_state.name,.joint_state.position,.joint_state.velocity,.joint_state.effort,.wrench_stamped.header.seq,.wrench_stamped.header.stamp.secs,.wrench_stamped.header.stamp.nsecs,.wrench_stamped.header.frame_id,.wrench_stamped.wrench.force.x,.wrench_stamped.wrench.force.y,.wrench_stamped.wrench.force.z,.wrench_stamped.wrench.torque.x,.wrench_stamped.wrench.torque.y,.wrench_stamped.wrench.torque.z,.tactile_values.tactile_values_0,.tactile_values.tactile_values_1,.tactile_values.tactile_values_2,.tactile_values.tactile_values_3,.tactile_values.tactile_values_4,.tactile_values.tactile_values_5,.tactile_values.tactile_values_6,.tactile_values.tactile_values_7,.tactile_values.tactile_values_8,.tactile_values.tactile_values_9,.tag,.goal_vector,.delta_wrench.force.x,.delta_wrench.force.y,.delta_wrench.force.z,.delta_wrench.torque.x,.delta_wrench.torque.y,.delta_wrench.torque.z
1522705890.18,32077,1522677090,183917045,,2736418,1522677087,216819261,,0.7948488457359999,-0.44889014691000007,0.12965313042,0.0303031998465,0.999456249993,-0.0104638707126,0.00770894531751,-0.00801807686152,-0.00522543715829,0.00077983193054,-0.0088180312963,0.0133457069071,-0.0188430545041,9.471898078919999,-2.25191354752,4.9431366920499995,1.3536278009399998,3.7155966758699996,0.231491714716,1082402,1522677087,235000064,,['l_gripper_l_finger_joint'],"(0.0032494800670444966,)","(0.0,)","(0.0,)",2717747,1522677090,180601250,robotiq_force_torque_frame_id,0.710000061989,0.5770000457760001,1.23699798584,-0.052999999374199996,-0.19699999690099998,-0.12099999934399999,0.0,0.0,0.0,0.0,0.0,0.0,0.0,0.0,0.0,0.0,3,"(0.5282605997723452, -0.8173976392976043, 0.13420757995327057, 0.9999377972961767, -0.00435222739790081, -0.009388168303921661, 0.004161964805750737)",0.0,0.0,0.0,0.0,0.0,0.0
1522705890.19,32078,1522677090,193952083,,2736421,1522677087,246818732,,0.794648905353,-0.44846887179300005,0.129302485134,0.029917047932599996,0.999468165182,-0.010652638040700001,0.00740799122752,1.9345827114900002e-06,0.020153134625500002,-0.0065199324059300005,0.0194572575131,0.009623500568129998,0.0208866352371,9.241753578189998,-2.25156807899,4.9291434288,1.30171215534,3.61222553253,0.235062450171,1082402,1522677087,235000064,,['l_gripper_l_finger_joint'],"(0.0032494800670444966,)","(0.0,)","(0.0,)",2717748,1522677090,188754817,robotiq_force_torque_frame_id,1.05999996662,0.99700012207,1.22699966431,-0.0579999983311,-0.194000005722,-0.131999999285,0.0,0.0,0.0,0.0,0.0,0.0,0.0,0.0,0.0,0.0,3,"(0.7099312018661185, -0.15501600688467995, 0.07407439585577541, 0.9846808114208282, 0.1669301433034879, 0.04546272144234799, 0.021706400792212838)",0.34999990463099995,0.42000007629399994,-0.00999832152999991,-0.004999998956900002,0.002999991178999989,-0.01099999994100001
1522705890.2,32079,1522677090,203937053,,2736421,1522677087,246818732,,0.794648905353,-0.44846887179300005,0.129302485134,0.029917047932599996,0.999468165182,-0.010652638040700001,0.00740799122752,1.9345827114900002e-06,0.020153134625500002,-0.0065199324059300005,0.0194572575131,0.009623500568129998,0.0208866352371,9.241753578189998,-2.25156807899,4.9291434288,1.30171215534,3.61222553253,0.235062450171,2736772,1522677087,254894660,,"['head_nod', 'head_pan', 'left_e0', 'left_e1', 'left_s0', 'left_s1', 'left_w0', 'left_w1', 'left_w2', 'right_e0', 'right_e1', 'right_s0', 'right_s1', 'right_w0', 'right_w1', 'right_w2', 'torso_t0']","(0.0, -0.10085923680346595, -0.9069661408372509, 1.5021506865367915, 0.2791845033951453, 0.6450389213058165, 2.3420051679040554, -0.48780589054756157, -0.033364082136507746, 0.46594666432019444, 0.9261409006858186, 0.3136990711225671, -0.7090826192000325, -0.3712233506682701, 1.4055098969000104, -0.03259709174256504, -12.565987119160338)","(0.0, 0.0035342917346255468, -0.007853981632501214, 0.01610066234662749, -0.00039269908162506076, -0.0035342917346255468, 0.013744467856877126, 0.00510508806112579, 0.008246680714126275, 0.004319689897875668, -0.004319689897875668, 0.008639379795751335, -0.0007853981632501215, -0.00039269908162506076, 0.0027488935713754254, -0.0035342917346255468, 0.0)","(0.0, 0.0, -14.556, 10.884, 0.216, 4.936, 0.096, -2.648, 0.436, 6.796, -16.044, 0.124, -29.464, 0.008, 0.188, -0.1, -20.48)",2717749,1522677090,197047387,robotiq_force_torque_frame_id,0.250000023842,0.276999855042,1.07699813843,-0.054999999702,-0.20000000298,-0.12800000607999998,0.0,0.0,0.0,0.0,0.0,0.0,0.0,0.0,0.0,0.0,3,"(0.7099312018661185, -0.15501600688467995, 0.07407439585577541, 0.9846808114208282, 0.1669301433034879, 0.04546272144234799, 0.021706400792212838)",-0.809999942778,-0.720000267028,-0.15000152588000004,0.002999998629099998,-0.005999997258000017,0.003999993205000024
1522705890.21,32080,1522677090,213926076,,2736423,1522677087,266843217,,0.7949008526029999,-0.448844238007,0.129312809161,0.030299464007599995,0.999457834718,-0.0102532926596,0.00780058276208,0.00297939578812,0.0070468715147399994,-0.00249311770557,-0.0117217275565,-0.00439489194814,0.0285518677067,9.96038532257,-2.44281673431,5.057944774630001,1.36573112011,3.9084482193,0.229985713959,1082403,1522677087,248999936,,['r_gripper_l_finger_joint'],"(0.019983251598477365,)","(0.0,)","(0.0,)",2717750,1522677090,209263383,robotiq_force_torque_frame_id,-0.269999957085,-0.5429998397829999,1.19700088501,-0.05099999904630001,-0.203999996185,-0.119000002742,0.0,0.0,0.0,0.0,0.0,0.0,0.0,0.0,0.0,0.0,3,"(0.7099312018661185, -0.15501600688467995, 0.07407439585577541, 0.9846808114208282, 0.1669301433034879, 0.04546272144234799, 0.021706400792212838)",-0.519999980927,-0.8199996948249999,0.12000274657999999,0.004000000655699991,-0.0039999932049999964,0.009000003337999982
1522705890.22,32081,1522677090,223969936,,2736423,1522677087,266843217,,0.7949008526029999,-0.448844238007,0.129312809161,0.030299464007599995,0.999457834718,-0.0102532926596,0.00780058276208,0.00297939578812,0.0070468715147399994,-0.00249311770557,-0.0117217275565,-0.00439489194814,0.0285518677067,9.96038532257,-2.44281673431,5.057944774630001,1.36573112011,3.9084482193,0.229985713959,1082403,1522677087,248999936,,['r_gripper_l_finger_joint'],"(0.019983251598477365,)","(0.0,)","(0.0,)",2717751,1522677090,217403012,robotiq_force_torque_frame_id,-0.0399999380112,-0.482999897003,1.32699813843,-0.0489999987185,-0.20800000429200002,-0.11400000006,0.0,0.0,0.0,0.0,0.0,0.0,0.0,0.0,0.0,0.0,3,"(0.7099312018661185, -0.15501600688467995, 0.07407439585577541, 0.9846808114208282, 0.1669301433034879, 0.04546272144234799, 0.021706400792212838)",0.23000001907380002,0.059999942779999926,0.12999725342000001,0.002000000327800011,-0.004000008107000019,0.0050000026820000015
1522705890.23,32082,1522677090,233992099,,2736423,1522677087,266843217,,0.7949008526029999,-0.448844238007,0.129312809161,0.030299464007599995,0.999457834718,-0.0102532926596,0.00780058276208,0.00297939578812,0.0070468715147399994,-0.00249311770557,-0.0117217275565,-0.00439489194814,0.0285518677067,9.96038532257,-2.44281673431,5.057944774630001,1.36573112011,3.9084482193,0.229985713959,1082404,1522677087,284999936,,['l_gripper_l_finger_joint'],"(0.0032494800670444966,)","(0.0,)","(0.0,)",2717752,1522677090,229617342,robotiq_force_torque_frame_id,0.27999999523200003,-0.473000144958,1.23699798584,-0.052000001072899996,-0.202999994159,-0.11100000143100001,0.0,0.0,0.0,0.0,0.0,0.0,0.0,0.0,0.0,0.0,3,"(0.7099312018661185, -0.15501600688467995, 0.07407439585577541, 0.9846808114208282, 0.1669301433034879, 0.04546272144234799, 0.021706400792212838)",0.31999993324320003,0.009999752044999977,-0.09000015259000005,-0.003000002354399997,0.005000010133000027,0.002999998628999981
1522705890.24,32083,1522677090,243935108,,2736426,1522677087,296817619,,0.7946856963009999,-0.44875776505000003,0.129385140472,0.0299757677014,0.9994677206620001,-0.010433182017200001,0.0075417119271999995,0.00606550783835,0.012132951661399998,0.0156917781536,0.015467719626400001,-0.0181502796237,0.00561278510366,9.040015220639999,-2.19632792473,4.821799278259999,1.2370852232,3.5545289516400005,0.213822335005,2736776,1522677087,294884373,,"['head_nod', 'head_pan', 'left_e0', 'left_e1', 'left_s0', 'left_s1', 'left_w0', 'left_w1', 'left_w2', 'right_e0', 'right_e1', 'right_s0', 'right_s1', 'right_w0', 'right_w1', 'right_w2', 'torso_t0']","(0.0, -0.10085923680346595, -0.9073496360342223, 1.5021506865367915, 0.2795679985921167, 0.6446554261088451, 2.3412381775101125, -0.48780589054756157, -0.03259709174256504, 0.4655631691232231, 0.9253739102918759, 0.3144660615165098, -0.7094661143970039, -0.37160684586524145, 1.4058933920969816, -0.03298058693953639, -12.565987119160338)","(0.0, -0.014137166938502187, -0.013351768775252066, 0.0, 0.0035342917346255468, -0.006283185306000972, -0.004319689897875668, -0.009032078877376396, 0.0011780972448751821, 0.018456856836377853, -0.004319689897875668, -0.0011780972448751821, -0.018064157754752792, 0.010995574285501701, 0.009424777959001457, 0.0019634954081253035, 0.0)","(0.0, 0.0, -14.72, 10.916, 0.216, 4.904, 0.084, -2.648, 0.4, 6.828, -15.952, 0.092, -29.464, -0.016, 0.22, -0.1, -20.48)",2717753,1522677090,237737483,robotiq_force_torque_frame_id,0.48000004291500004,-0.38299999237099996,1.08700027466,-0.05099999904630001,-0.195999994874,-0.109999999404,0.0,0.0,0.0,0.0,0.0,0.0,0.0,0.0,0.0,0.0,3,"(0.7099312018661185, -0.15501600688467995, 0.07407439585577541, 0.9846808114208282, 0.1669301433034879, 0.04546272144234799, 0.021706400792212838)",0.200000047683,0.09000015258700006,-0.14999771117999994,0.001000002026599986,0.006999999285000003,0.0010000020270000132
1522705890.25,32084,1522677090,253923892,,2736426,1522677087,296817619,,0.7946856963009999,-0.44875776505000003,0.129385140472,0.0299757677014,0.9994677206620001,-0.010433182017200001,0.0075417119271999995,0.00606550783835,0.012132951661399998,0.0156917781536,0.015467719626400001,-0.0181502796237,0.00561278510366,9.040015220639999,-2.19632792473,4.821799278259999,1.2370852232,3.5545289516400005,0.213822335005,1082405,1522677087,300000000,,['r_gripper_l_finger_joint'],"(0.019983251598477365,)","(0.0,)","(0.0,)",2717754,1522677090,249928389,robotiq_force_torque_frame_id,0.400000119209,-0.0629998207092,1.13699951172,-0.0480000004172,-0.195999994874,-0.109999999404,0.0,0.0,0.0,0.0,0.0,0.0,0.0,0.0,0.0,0.0,3,"(0.7099312018661185, -0.15501600688467995, 0.07407439585577541, 0.9846808114208282, 0.1669301433034879, 0.04546272144234799, 0.021706400792212838)",-0.07999992370600001,0.32000017166179995,0.04999923705999998,0.002999998629100012,0.0,0.0
1522705890.26,32085,1522677090,263967990,,2736427,1522677087,306818228,,0.794670055683,-0.44879967406099996,0.129140166946,0.030300762609299998,0.9994606290000001,-0.0103016058178,0.00736150675834,0.0083762625614,-0.011318244124200003,0.00847614866592,-0.0225599947064,-0.0226634054311,-0.0045442583528,8.77153396606,-2.4040851593,4.80768871307,1.3786134719799998,3.43759346008,0.25374931097,2736778,1522677087,314884780,,"['head_nod', 'head_pan', 'left_e0', 'left_e1', 'left_s0', 'left_s1', 'left_w0', 'left_w1', 'left_w2', 'right_e0', 'right_e1', 'right_s0', 'right_s1', 'right_w0', 'right_w1', 'right_w2', 'torso_t0']","(0.0, -0.10085923680346595, -0.9069661408372509, 1.50176719133982, 0.27880100819817394, 0.6450389213058165, 2.3412381775101125, -0.4881893857445329, -0.033364082136507746, 0.4655631691232231, 0.9253739102918759, 0.3144660615165098, -0.7094661143970039, -0.3723738362591842, 1.4055098969000104, -0.03298058693953639, -12.565987119160338)","(0.0, -0.0007853981632501215, -0.0011780972448751821, -0.0007853981632501215, -0.005890486224375911, 0.0027488935713754254, 0.009817477040626518, -0.0007853981632501215, -0.005890486224375911, -0.011388273367126762, 0.0007853981632501215, 0.00510508806112579, -0.00510508806112579, 0.0023561944897503642, 0.004319689897875668, -0.003141592653000486, 0.0)","(0.0, 0.0, -14.556, 10.916, 0.28, 4.872, 0.084, -2.664, 0.408, 6.956, -15.952, 0.06, -29.464, -0.008, 0.228, -0.112, -20.48)",2717755,1522677090,258065149,robotiq_force_torque_frame_id,0.349999928474,0.47700014114399997,1.31699981689,-0.0480000004172,-0.20000000298,-0.118000000715,0.0,0.0,0.0,0.0,0.0,0.0,0.0,0.0,0.0,0.0,3,"(0.7099312018661185, -0.15501600688467995, 0.07407439585577541, 0.9846808114208282, 0.1669301433034879, 0.04546272144234799, 0.021706400792212838)",-0.050000190735000005,0.5399999618532,0.18000030516999987,0.0,-0.004000008106000014,-0.008000001310999996
1522705890.27,32086,1522677090,273938894,,2736429,1522677087,326821969,,0.79477594889,-0.44894673082,0.129431112673,0.030072052379200003,0.9994659708470001,-0.0101275356326,0.00780242318537,0.005634241086439999,0.00289135170414,0.012463058394,-0.023956494881599996,-0.013833876758700002,0.024662836258400003,9.27455234528,-2.24470329285,4.93688964844,1.28873538971,3.6692450046499996,0.216282278299,2736779,1522677087,324947748,,"['head_nod', 'head_pan', 'left_e0', 'left_e1', 'left_s0', 'left_s1', 'left_w0', 'left_w1', 'left_w2', 'right_e0', 'right_e1', 'right_s0', 'right_s1', 'right_w0', 'right_w1', 'right_w2', 'torso_t0']","(0.0, -0.10162622719740866, -0.9069661408372509, 1.50176719133982, 0.2795679985921167, 0.6446554261088451, 2.3420051679040554, -0.48703890015361884, -0.03298058693953639, 0.46594666432019444, 0.9253739102918759, 0.3136990711225671, -0.7094661143970039, -0.3712233506682701, 1.4055098969000104, -0.033364082136507746, -12.565987119160338)","(0.0, 0.0019634954081253035, 0.0070685834692510935, 0.013744467856877126, -0.01767145867312773, -0.01021017612225158, 0.01649336142825255, 0.0070685834692510935, 0.0047123889795007284, -0.011780972448751823, 0.0047123889795007284, 0.019634954081253035, -0.023169245815878585, -0.005890486224375911, -0.0023561944897503642, -0.01021017612225158, 0.0)","(0.0, 0.0, -14.588, 10.916, 0.28, 4.904, 0.12, -2.656, 0.408, 6.892, -15.984, 0.092, -29.464, -0.008, 0.248, -0.092, -20.48)",2717756,1522677090,270285424,robotiq_force_torque_frame_id,0.430000090599,0.757000112534,1.26700057983,-0.054999999702,-0.207000002265,-0.128999993205,0.0,0.0,0.0,0.0,0.0,0.0,0.0,0.0,0.0,0.0,3,"(0.7099312018661185, -0.15501600688467995, 0.07407439585577541, 0.9846808114208282, 0.1669301433034879, 0.04546272144234799, 0.021706400792212838)",0.080000162125,0.27999997139000005,-0.04999923705999998,-0.006999999284800003,-0.006999999285000003,-0.010999992489999999
1522705890.31,32087,1522677090,283906936,,2736429,1522677087,326821969,,0.79477594889,-0.44894673082,0.129431112673,0.030072052379200003,0.9994659708470001,-0.0101275356326,0.00780242318537,0.005634241086439999,0.00289135170414,0.012463058394,-0.023956494881599996,-0.013833876758700002,0.024662836258400003,9.27455234528,-2.24470329285,4.93688964844,1.28873538971,3.6692450046499996,0.216282278299,1082406,1522677087,336000000,,['l_gripper_l_finger_joint'],"(0.0032494800670444966,)","(0.0,)","(0.0,)",2717757,1522677090,278449441,robotiq_force_torque_frame_id,-0.0099999666214,0.6969999313349999,1.13699951172,-0.0540000014007,-0.207000002265,-0.131999999285,0.0,0.0,0.0,0.0,0.0,0.0,0.0,0.0,0.0,0.0,3,"(0.7099312018661185, -0.15501600688467995, 0.07407439585577541, 0.9846808114208282, 0.1669301433034879, 0.04546272144234799, 0.021706400792212838)",-0.44000005722040003,-0.06000018119900008,-0.1300010681099999,0.0009999983013000008,0.0,-0.003000006080000006
1522705890.31,32088,1522677090,293937921,,2736431,1522677087,346830528,,0.794982315607,-0.449152617844,0.12940156784,0.0301064534668,0.999461160625,-0.0104110572585,0.00791200033834,-0.00114800040162,-0.008063976209550001,-0.00187636192221,0.0134047950615,-0.00361850239019,-0.0186733543695,8.777194976810001,-2.30929541588,4.809243202209999,1.3536182641999999,3.4630501270300003,0.246525555849,1082407,1522677087,351000064,,['r_gripper_l_finger_joint'],"(0.019983251598477365,)","(0.0,)","(0.0,)",2717758,1522677090,290693448,robotiq_force_torque_frame_id,-0.620000100136,0.327000045776,1.15699996948,-0.054999999702,-0.20800000429200002,-0.135000005364,0.0,0.0,0.0,0.0,0.0,0.0,0.0,0.0,0.0,0.0,3,"(0.7099312018661185, -0.15501600688467995, 0.07407439585577541, 0.9846808114208282, 0.1669301433034879, 0.04546272144234799, 0.021706400792212838)",-0.6100001335146,-0.36999988555899993,0.020000457759999923,-0.0009999983013000008,-0.0010000020270000132,-0.0030000060790000005
1522705890.31,32089,1522677090,303920984,,2736432,1522677087,356819651,,0.794930136048,-0.448589860809,0.129353696357,0.0304277209235,0.999458363844,-0.00974389845472,0.00788601192243,-0.00207506083897,0.018461760059599996,-0.0030489810170500004,0.017916016904900002,0.011766361405200002,0.015531488626200001,8.97436332703,-2.0799858570099996,4.7509765625,1.17693531513,3.54431629181,0.221306353807,2736782,1522677087,354882849,,"['head_nod', 'head_pan', 'left_e0', 'left_e1', 'left_s0', 'left_s1', 'left_w0', 'left_w1', 'left_w2', 'right_e0', 'right_e1', 'right_s0', 'right_s1', 'right_w0', 'right_w1', 'right_w2', 'torso_t0']","(0.0, -0.1012427320004373, -0.9069661408372509, 1.5021506865367915, 0.27880100819817394, 0.6446554261088451, 2.3423886631010267, -0.48742239535059023, -0.03298058693953639, 0.4663301595171658, 0.9249904150949045, 0.3136990711225671, -0.7090826192000325, -0.3708398554712988, 1.4055098969000104, -0.03259709174256504, -12.565987119160338)","(0.0, 0.005497787142750851, -0.015707963265002428, 0.008246680714126275, -0.0011780972448751821, 0.005890486224375911, -0.005497787142750851, -0.001570796326500243, -0.004319689897875668, -0.003141592653000486, 0.0070685834692510935, 0.015707963265002428, 0.0, 0.018849555918002914, 0.005890486224375911, -0.0023561944897503642, 0.0)","(0.0, 0.0, -14.524, 10.916, 0.216, 4.84, 0.084, -2.648, 0.42, 6.828, -15.892, 0.184, -29.436, 0.0, 0.228, -0.112, -20.48)",2717759,1522677090,298835125,robotiq_force_torque_frame_id,-0.9500000238420001,0.14700021743799999,1.06699981689,-0.054999999702,-0.207000002265,-0.137999996543,0.0,0.0,0.0,0.0,0.0,0.0,0.0,0.0,0.0,0.0,3,"(0.7099312018661185, -0.15501600688467995, 0.07407439585577541, 0.9846808114208282, 0.1669301433034879, 0.04546272144234799, 0.021706400792212838)",-0.32999992370600006,-0.17999982833800002,-0.09000015259000005,0.0,0.0010000020270000132,-0.002999991178999989
1522705890.35,32090,1522677090,313939094,,2736432,1522677087,356819651,,0.794930136048,-0.448589860809,0.129353696357,0.0304277209235,0.999458363844,-0.00974389845472,0.00788601192243,-0.00207506083897,0.018461760059599996,-0.0030489810170500004,0.017916016904900002,0.011766361405200002,0.015531488626200001,8.97436332703,-2.0799858570099996,4.7509765625,1.17693531513,3.54431629181,0.221306353807,2736782,1522677087,354882849,,"['head_nod', 'head_pan', 'left_e0', 'left_e1', 'left_s0', 'left_s1', 'left_w0', 'left_w1', 'left_w2', 'right_e0', 'right_e1', 'right_s0', 'right_s1', 'right_w0', 'right_w1', 'right_w2', 'torso_t0']","(0.0, -0.1012427320004373, -0.9069661408372509, 1.5021506865367915, 0.27880100819817394, 0.6446554261088451, 2.3423886631010267, -0.48742239535059023, -0.03298058693953639, 0.4663301595171658, 0.9249904150949045, 0.3136990711225671, -0.7090826192000325, -0.3708398554712988, 1.4055098969000104, -0.03259709174256504, -12.565987119160338)","(0.0, 0.005497787142750851, -0.015707963265002428, 0.008246680714126275, -0.0011780972448751821, 0.005890486224375911, -0.005497787142750851, -0.001570796326500243, -0.004319689897875668, -0.003141592653000486, 0.0070685834692510935, 0.015707963265002428, 0.0, 0.018849555918002914, 0.005890486224375911, -0.0023561944897503642, 0.0)","(0.0, 0.0, -14.524, 10.916, 0.216, 4.84, 0.084, -2.648, 0.42, 6.828, -15.892, 0.184, -29.436, 0.0, 0.228, -0.112, -20.48)",2717760,1522677090,306970205,robotiq_force_torque_frame_id,-0.9200000524519999,-0.553000068665,0.906999969482,-0.0500000007451,-0.204999998212,-0.129999995232,0.0,0.0,0.0,0.0,0.0,0.0,0.0,0.0,0.0,0.0,3,"(0.7099312018661185, -0.15501600688467995, 0.07407439585577541, 0.9846808114208282, 0.1669301433034879, 0.04546272144234799, 0.021706400792212838)",0.029999971390000213,-0.7000002861029999,-0.15999984740799988,0.004999998956900002,0.0020000040530000207,0.008000001310999982
1522705890.35,32091,1522677090,323978900,,2736434,1522677087,376821229,,0.794772315659,-0.448328140163,0.129382210987,0.0300057333074,0.9994686810789999,-0.0102416306209,0.00755781143282,-0.00262071552035,-0.0160408156644,0.008769535165889998,-0.022153759758299998,-0.0013492991745499999,-0.011183978159100001,8.57394599915,-2.09749078751,4.68673849106,1.1993329525,3.37671208382,0.22229677438700002,2736784,1522677087,374890974,,"['head_nod', 'head_pan', 'left_e0', 'left_e1', 'left_s0', 'left_s1', 'left_w0', 'left_w1', 'left_w2', 'right_e0', 'right_e1', 'right_s0', 'right_s1', 'right_w0', 'right_w1', 'right_w2', 'torso_t0']","(0.0, -0.1012427320004373, -0.9069661408372509, 1.50176719133982, 0.2791845033951453, 0.6446554261088451, 2.3423886631010267, -0.4881893857445329, -0.033364082136507746, 0.4655631691232231, 0.9253739102918759, 0.3148495567134812, -0.7094661143970039, -0.3712233506682701, 1.4058933920969816, -0.03259709174256504, -12.565987119160338)","(0.0, -0.0047123889795007284, 0.007461282550876154, 0.005497787142750851, -0.012959069693627005, 0.0027488935713754254, 0.012173671530376884, 0.0011780972448751821, -0.007853981632501214, -0.0011780972448751821, -0.0027488935713754254, -0.009817477040626518, -0.011780972448751823, -0.01688606050987761, 0.009817477040626518, 0.0019634954081253035, 0.0)","(0.0, 0.0, -14.556, 10.916, 0.308, 4.904, 0.084, -2.636, 0.42, 6.796, -15.864, 0.092, -29.436, 0.008, 0.22, -0.112, -20.48)",2717761,1522677090,319164463,robotiq_force_torque_frame_id,-0.549999928474,-1.17299995422,0.767000579834,-0.0480000004172,-0.20000000298,-0.123999997973,0.0,0.0,0.0,0.0,0.0,0.0,0.0,0.0,0.0,0.0,3,"(0.7099312018661185, -0.15501600688467995, 0.07407439585577541, 0.9846808114208282, 0.1669301433034879, 0.04546272144234799, 0.021706400792212838)",0.37000012397799986,-0.6199998855550001,-0.13999938964799996,0.0020000003279000006,0.004999995231999982,0.005999997259000009
1522705890.35,32092,1522677090,333970069,,2736435,1522677087,386839313,,0.794815551468,-0.448401484546,0.129084747672,0.0299043308869,0.999469530448,-0.010492972360600001,0.0075024150068199996,0.00487416529772,0.00572119427453,0.007243733203549999,-0.012435101668499999,-0.00437793553114,0.0252187749632,8.904281616210001,-2.19550395012,4.72470426559,1.30805814266,3.5106227397900005,0.225962385535,1082408,1522677087,385999872,,['l_gripper_l_finger_joint'],"(0.0032494800670444966,)","(0.0,)","(0.0,)",2717762,1522677090,327311267,robotiq_force_torque_frame_id,-1.0499999284700001,-0.9029999732969999,0.587000274658,-0.046999998390699994,-0.19799999892700001,-0.131999999285,0.0,0.0,0.0,0.0,0.0,0.0,0.0,0.0,0.0,0.0,3,"(0.7099312018661185, -0.15501600688467995, 0.07407439585577541, 0.9846808114208282, 0.1669301433034879, 0.04546272144234799, 0.021706400792212838)",-0.4999999999960001,0.26999998092300015,-0.18000030517600007,0.0010000020265000034,0.002000004052999993,-0.008000001312000002
1522705890.35,32093,1522677090,343919992,,2736435,1522677087,386839313,,0.794815551468,-0.448401484546,0.129084747672,0.0299043308869,0.999469530448,-0.010492972360600001,0.0075024150068199996,0.00487416529772,0.00572119427453,0.007243733203549999,-0.012435101668499999,-0.00437793553114,0.0252187749632,8.904281616210001,-2.19550395012,4.72470426559,1.30805814266,3.5106227397900005,0.225962385535,1082409,1522677087,401999872,,['r_gripper_l_finger_joint'],"(0.019983251598477365,)","(0.0,)","(0.0,)",2717763,1522677090,339491759,robotiq_force_torque_frame_id,-1.47999999523,0.0170001029968,0.526998901367,-0.0489999987185,-0.19799999892700001,-0.142000004649,0.0,0.0,0.0,0.0,0.0,0.0,0.0,0.0,0.0,0.0,3,"(0.7099312018661185, -0.15501600688467995, 0.07407439585577541, 0.9846808114208282, 0.1669301433034879, 0.04546272144234799, 0.021706400792212838)",-0.4300000667599999,0.9200000762937999,-0.06000137329099997,-0.002000000327800004,0.0,-0.010000005364000003
1522705890.39,32094,1522677090,353908061,,2736437,1522677087,406827410,,0.794781538259,-0.44849514094099996,0.129762837781,0.02991132204,0.999466883984,-0.0105708360363,0.00771479477555,0.0006178694346440001,-0.019059763489700003,0.00595276588458,-0.00986849490601,-0.014483000786700001,-0.0195264785317,8.785177230830001,-2.16897249222,4.70831203461,1.2206839323,3.47073602676,0.192898333073,2736787,1522677087,404911732,,"['head_nod', 'head_pan', 'left_e0', 'left_e1', 'left_s0', 'left_s1', 'left_w0', 'left_w1', 'left_w2', 'right_e0', 'right_e1', 'right_s0', 'right_s1', 'right_w0', 'right_w1', 'right_w2', 'torso_t0']","(0.0, -0.1012427320004373, -0.9069661408372509, 1.5021506865367915, 0.27880100819817394, 0.6454224165027879, 2.341621672707084, -0.48742239535059023, -0.03259709174256504, 0.4655631691232231, 0.9257574054888472, 0.3148495567134812, -0.7102331047909466, -0.37160684586524145, 1.4058933920969816, -0.03259709174256504, -12.565987119160338)","(0.0, -0.0070685834692510935, -0.0070685834692510935, -0.001570796326500243, -0.0035342917346255468, 0.0011780972448751821, -0.007461282550876154, -0.005890486224375911, 0.01610066234662749, -0.00039269908162506076, -0.00039269908162506076, -0.02120575040775328, -0.008639379795751335, -0.00510508806112579, -0.0070685834692510935, -0.0011780972448751821, 0.0)","(0.0, 0.0, -14.556, 10.916, 0.248, 4.872, 0.104, -2.664, 0.392, 6.736, -15.892, 0.06, -29.404, 0.016, 0.228, -0.092, -20.48)",2717764,1522677090,347623180,robotiq_force_torque_frame_id,-0.7799999475480001,-0.312999820709,0.776998901367,-0.0410000011325,-0.203999996185,-0.136000007391,0.0,0.0,0.0,0.0,0.0,0.0,0.0,0.0,0.0,0.0,3,"(0.7099312018661185, -0.15501600688467995, 0.07407439585577541, 0.9846808114208282, 0.1669301433034879, 0.04546272144234799, 0.021706400792212838)",0.700000047682,-0.3299999237058,0.25,0.007999997586,-0.005999997257999989,0.005999997258000017
1522705890.39,32095,1522677090,364012002,,2736438,1522677087,416817928,,0.7948614603599999,-0.44879463782799994,0.12934674996200002,0.0302916385058,0.9994600030480001,-0.0101508638159,0.00768628042716,0.00151759327822,0.004849722100439999,0.00854907657055,-0.011735437197200002,-0.0065917674622099996,0.0108648276679,8.86194133759,-2.15909314156,4.72674560547,1.3186552524600001,3.4759800434099994,0.25479844212499997,2736787,1522677087,404911732,,"['head_nod', 'head_pan', 'left_e0', 'left_e1', 'left_s0', 'left_s1', 'left_w0', 'left_w1', 'left_w2', 'right_e0', 'right_e1', 'right_s0', 'right_s1', 'right_w0', 'right_w1', 'right_w2', 'torso_t0']","(0.0, -0.1012427320004373, -0.9069661408372509, 1.5021506865367915, 0.27880100819817394, 0.6454224165027879, 2.341621672707084, -0.48742239535059023, -0.03259709174256504, 0.4655631691232231, 0.9257574054888472, 0.3148495567134812, -0.7102331047909466, -0.37160684586524145, 1.4058933920969816, -0.03259709174256504, -12.565987119160338)","(0.0, -0.0070685834692510935, -0.0070685834692510935, -0.001570796326500243, -0.0035342917346255468, 0.0011780972448751821, -0.007461282550876154, -0.005890486224375911, 0.01610066234662749, -0.00039269908162506076, -0.00039269908162506076, -0.02120575040775328, -0.008639379795751335, -0.00510508806112579, -0.0070685834692510935, -0.0011780972448751821, 0.0)","(0.0, 0.0, -14.556, 10.916, 0.248, 4.872, 0.104, -2.664, 0.392, 6.736, -15.892, 0.06, -29.404, 0.016, 0.228, -0.092, -20.48)",2717765,1522677090,359824960,robotiq_force_torque_frame_id,0.490000033379,-0.933000183105,1.08700027466,-0.0370000004768,-0.202999994159,-0.11699999868899999,0.0,0.0,0.0,0.0,0.0,0.0,0.0,0.0,0.0,0.0,3,"(0.7099312018661185, -0.15501600688467995, 0.07407439585577541, 0.9846808114208282, 0.1669301433034879, 0.04546272144234799, 0.021706400792212838)",1.269999980927,-0.620000362396,0.31000137329300004,0.004000000655699998,0.0010000020260000075,0.019000008702
1522705890.39,32096,1522677090,373944044,,2736438,1522677087,416817928,,0.7948614603599999,-0.44879463782799994,0.12934674996200002,0.0302916385058,0.9994600030480001,-0.0101508638159,0.00768628042716,0.00151759327822,0.004849722100439999,0.00854907657055,-0.011735437197200002,-0.0065917674622099996,0.0108648276679,8.86194133759,-2.15909314156,4.72674560547,1.3186552524600001,3.4759800434099994,0.25479844212499997,2736788,1522677087,414875647,,"['head_nod', 'head_pan', 'left_e0', 'left_e1', 'left_s0', 'left_s1', 'left_w0', 'left_w1', 'left_w2', 'right_e0', 'right_e1', 'right_s0', 'right_s1', 'right_w0', 'right_w1', 'right_w2', 'torso_t0']","(0.0, -0.10162622719740866, -0.9061991504433081, 1.50176719133982, 0.27880100819817394, 0.6450389213058165, 2.3423886631010267, -0.48703890015361884, -0.032213596545593685, 0.4651796739262517, 0.9246069198979331, 0.3144660615165098, -0.7090826192000325, -0.3708398554712988, 1.4058933920969816, -0.03298058693953639, -12.565987119160338)","(0.0, 0.001570796326500243, -0.0035342917346255468, -0.0023561944897503642, 0.0019634954081253035, -0.013744467856877126, 0.003141592653000486, 0.009817477040626518, 0.004319689897875668, -0.001570796326500243, 0.012566370612001944, 0.009817477040626518, -0.019634954081253035, -0.0035342917346255468, -0.001570796326500243, 0.0027488935713754254, 0.0)","(0.0, 0.0, -14.62, 10.948, 0.216, 4.872, 0.084, -2.656, 0.408, 6.988, -15.892, 0.092, -29.376, 0.016, 0.228, -0.112, -20.48)",2717766,1522677090,367971512,robotiq_force_torque_frame_id,0.869999909401,-0.44299993515,1.0069984436,-0.0410000011325,-0.212999999523,-0.122000001371,0.0,0.0,0.0,0.0,0.0,0.0,0.0,0.0,0.0,0.0,3,"(0.7099312018661185, -0.15501600688467995, 0.07407439585577541, 0.9846808114208282, 0.1669301433034879, 0.04546272144234799, 0.021706400792212838)",0.379999876022,0.49000024795499997,-0.08000183106000014,-0.004000000655699998,-0.010000005364000003,-0.005000002682000015
1522705890.39,32097,1522677090,383925914,,2736440,1522677087,436851674,,0.7951160803149999,-0.44931607916,0.129407137994,0.0302661438323,0.999452788848,-0.010610648847299998,0.00809305463864,-0.010224047481200002,-0.0233981690586,-0.00678424912749,-0.0260990054257,0.0166288841334,-0.0347841263055,8.640709877010002,-2.17340517044,4.770189285280001,1.30070471764,3.41328072548,0.220682054758,2736790,1522677087,434871421,,"['head_nod', 'head_pan', 'left_e0', 'left_e1', 'left_s0', 'left_s1', 'left_w0', 'left_w1', 'left_w2', 'right_e0', 'right_e1', 'right_s0', 'right_s1', 'right_w0', 'right_w1', 'right_w2', 'torso_t0']","(0.0, -0.1012427320004373, -0.9069661408372509, 1.5021506865367915, 0.27880100819817394, 0.6450389213058165, 2.341621672707084, -0.4881893857445329, -0.03298058693953639, 0.4655631691232231, 0.9246069198979331, 0.31408256631953846, -0.7090826192000325, -0.37199034106221285, 1.405126401703039, -0.03298058693953639, -12.565987119160338)","(0.0, -0.006675884387626033, 0.00039269908162506076, -0.005890486224375911, 0.0047123889795007284, -0.001570796326500243, -0.018064157754752792, -0.0023561944897503642, 0.001570796326500243, -0.024740042142378828, 0.011780972448751823, -0.008246680714126275, -0.00039269908162506076, -0.010995574285501701, -0.003141592653000486, 0.01610066234662749, 0.0)","(0.0, 0.0, -14.72, 10.948, 0.152, 4.904, 0.096, -2.636, 0.392, 6.892, -15.892, 0.028, -29.436, 0.024, 0.24, -0.092, -20.48)",2717767,1522677090,380163034,robotiq_force_torque_frame_id,0.9200001001360001,-0.402999973297,0.7069992065430001,-0.0419999994338,-0.206000000238,-0.12800000607999998,0.0,0.0,0.0,0.0,0.0,0.0,0.0,0.0,0.0,0.0,3,"(0.7099312018661185, -0.15501600688467995, 0.07407439585577541, 0.9846808114208282, 0.1669301433034879, 0.04546272144234799, 0.021706400792212838)",0.05000019073500006,0.03999996185300003,-0.2999992370569998,-0.0009999983013000008,0.006999999285000003,-0.006000004708999973
1522705890.43,32098,1522677090,394155025,,2736440,1522677087,436851674,,0.7951160803149999,-0.44931607916,0.129407137994,0.0302661438323,0.999452788848,-0.010610648847299998,0.00809305463864,-0.010224047481200002,-0.0233981690586,-0.00678424912749,-0.0260990054257,0.0166288841334,-0.0347841263055,8.640709877010002,-2.17340517044,4.770189285280001,1.30070471764,3.41328072548,0.220682054758,1082411,1522677087,452000000,,['r_gripper_l_finger_joint'],"(0.019983251598477365,)","(0.0,)","(0.0,)",2717768,1522677090,388309090,robotiq_force_torque_frame_id,0.7800002336499999,-0.573000049591,0.6770004272460001,-0.0410000011325,-0.21099999547000003,-0.135000005364,0.0,0.0,0.0,0.0,0.0,0.0,0.0,0.0,0.0,0.0,3,"(0.7099312018661185, -0.15501600688467995, 0.07407439585577541, 0.9846808114208282, 0.1669301433034879, 0.04546272144234799, 0.021706400792212838)",-0.13999986648600016,-0.17000007629400005,-0.02999877929700001,0.0009999983013000008,-0.004999995232000037,-0.006999999284000025
1522705890.43,32099,1522677090,403928041,,2736441,1522677087,446830112,,0.794842759303,-0.44972714585199997,0.129487873329,0.0308735800771,0.99943686388,-0.0105518411616,0.007838100447420001,0.00666428242068,-0.000211985318319,-0.0035256494062900004,0.00443503562685,-0.010058045056,0.000354749502039,8.64718341827,-2.14826416969,4.73006534576,1.27811980247,3.39464020729,0.227456629276,2736792,1522677087,454906393,,"['head_nod', 'head_pan', 'left_e0', 'left_e1', 'left_s0', 'left_s1', 'left_w0', 'left_w1', 'left_w2', 'right_e0', 'right_e1', 'right_s0', 'right_s1', 'right_w0', 'right_w1', 'right_w2', 'torso_t0']","(0.0, -0.10085923680346595, -0.9061991504433081, 1.5021506865367915, 0.2791845033951453, 0.6450389213058165, 2.3420051679040554, -0.48857288094150425, -0.03298058693953639, 0.4663301595171658, 0.9246069198979331, 0.3144660615165098, -0.7090826192000325, -0.37199034106221285, 1.4058933920969816, -0.03259709174256504, -12.565987119160338)","(0.0, 0.015707963265002428, 0.00510508806112579, 0.005497787142750851, 0.00039269908162506076, 0.0019634954081253035, 0.0023561944897503642, 0.023954643979128706, -0.009032078877376396, 0.01649336142825255, -0.01531526418337737, 0.0047123889795007284, -0.0023561944897503642, -0.0027488935713754254, 0.01531526418337737, 0.005497787142750851, 0.0)","(0.0, 0.0, -14.588, 10.948, 0.152, 4.872, 0.084, -2.648, 0.408, 6.828, -15.864, -0.06, -29.348, 0.016, 0.228, -0.112, -20.48)",2717769,1522677090,400515425,robotiq_force_torque_frame_id,0.410000109673,-1.14299974442,0.886999511719,-0.04500000178809999,-0.21400000155,-0.130999997258,0.0,0.0,0.0,0.0,0.0,0.0,0.0,0.0,0.0,0.0,3,"(0.7099312018661185, -0.15501600688467995, 0.07407439585577541, 0.9846808114208282, 0.1669301433034879, 0.04546272144234799, 0.021706400792212838)",-0.37000012397699994,-0.5699996948289999,0.20999908447299998,-0.0040000006555999945,-0.0030000060799999784,0.004000008106000014
1522705890.43,32100,1522677090,413917064,,2736443,1522677087,466829572,,0.794954676834,-0.44935284509499995,0.1296648766,0.030019890000400003,0.999457364251,-0.011044443928700002,0.007861520694470001,-0.00269318227511,0.008710168754700001,0.00417296630516,-0.00595903979183,0.00653392381419,0.0194603834505,8.71545410156,-2.36310076714,4.65720319748,1.3701448440600001,3.4273443222,0.228556096554,2736792,1522677087,454906393,,"['head_nod', 'head_pan', 'left_e0', 'left_e1', 'left_s0', 'left_s1', 'left_w0', 'left_w1', 'left_w2', 'right_e0', 'right_e1', 'right_s0', 'right_s1', 'right_w0', 'right_w1', 'right_w2', 'torso_t0']","(0.0, -0.10085923680346595, -0.9061991504433081, 1.5021506865367915, 0.2791845033951453, 0.6450389213058165, 2.3420051679040554, -0.48857288094150425, -0.03298058693953639, 0.4663301595171658, 0.9246069198979331, 0.3144660615165098, -0.7090826192000325, -0.37199034106221285, 1.4058933920969816, -0.03259709174256504, -12.565987119160338)","(0.0, 0.015707963265002428, 0.00510508806112579, 0.005497787142750851, 0.00039269908162506076, 0.0019634954081253035, 0.0023561944897503642, 0.023954643979128706, -0.009032078877376396, 0.01649336142825255, -0.01531526418337737, 0.0047123889795007284, -0.0023561944897503642, -0.0027488935713754254, 0.01531526418337737, 0.005497787142750851, 0.0)","(0.0, 0.0, -14.588, 10.948, 0.152, 4.872, 0.084, -2.648, 0.408, 6.828, -15.864, -0.06, -29.348, 0.016, 0.228, -0.112, -20.48)",2717770,1522677090,408656536,robotiq_force_torque_frame_id,-0.450000023842,-1.7529998779299998,0.9869979858399999,-0.0489999987185,-0.216999992728,-0.123999997973,0.0,0.0,0.0,0.0,0.0,0.0,0.0,0.0,0.0,0.0,3,"(0.7099312018661185, -0.15501600688467995, 0.07407439585577541, 0.9846808114208282, 0.1669301433034879, 0.04546272144234799, 0.021706400792212838)",-0.860000133515,-0.6100001335099998,0.09999847412099983,-0.003999996930400006,-0.0029999911779999833,0.006999999284999989
1522705890.43,32101,1522677090,423984050,,2736443,1522677087,466829572,,0.794954676834,-0.44935284509499995,0.1296648766,0.030019890000400003,0.999457364251,-0.011044443928700002,0.007861520694470001,-0.00269318227511,0.008710168754700001,0.00417296630516,-0.00595903979183,0.00653392381419,0.0194603834505,8.71545410156,-2.36310076714,4.65720319748,1.3701448440600001,3.4273443222,0.228556096554,2736792,1522677087,454906393,,"['head_nod', 'head_pan', 'left_e0', 'left_e1', 'left_s0', 'left_s1', 'left_w0', 'left_w1', 'left_w2', 'right_e0', 'right_e1', 'right_s0', 'right_s1', 'right_w0', 'right_w1', 'right_w2', 'torso_t0']","(0.0, -0.10085923680346595, -0.9061991504433081, 1.5021506865367915, 0.2791845033951453, 0.6450389213058165, 2.3420051679040554, -0.48857288094150425, -0.03298058693953639, 0.4663301595171658, 0.9246069198979331, 0.3144660615165098, -0.7090826192000325, -0.37199034106221285, 1.4058933920969816, -0.03259709174256504, -12.565987119160338)","(0.0, 0.015707963265002428, 0.00510508806112579, 0.005497787142750851, 0.00039269908162506076, 0.0019634954081253035, 0.0023561944897503642, 0.023954643979128706, -0.009032078877376396, 0.01649336142825255, -0.01531526418337737, 0.0047123889795007284, -0.0023561944897503642, -0.0027488935713754254, 0.01531526418337737, 0.005497787142750851, 0.0)","(0.0, 0.0, -14.588, 10.948, 0.152, 4.872, 0.084, -2.648, 0.408, 6.828, -15.864, -0.06, -29.348, 0.016, 0.228, -0.112, -20.48)",2717771,1522677090,416794575,robotiq_force_torque_frame_id,-0.940000033379,-1.3230000495899998,1.0370010376,-0.0560000017285,-0.21400000155,-0.126000002027,0.0,0.0,0.0,0.0,0.0,0.0,0.0,0.0,0.0,0.0,3,"(0.7099312018661185, -0.15501600688467995, 0.07407439585577541, 0.9846808114208282, 0.1669301433034879, 0.04546272144234799, 0.021706400792212838)",-0.49000000953699996,0.42999982833999995,0.050003051760000194,-0.0070000030099999985,0.0029999911779999833,-0.0020000040540000125
1522705890.43,32102,1522677090,433949947,,2736444,1522677087,476816931,,0.794648349354,-0.448889966162,0.129010399321,0.0300102487701,0.999467527657,-0.010481942619200001,0.007360367321640001,-0.0037724495408,-0.00938014672266,0.00034559956640900003,-0.006030211293539999,0.00260246193035,0.00237862906488,9.01756572723,-2.32580900192,4.71232366562,1.3455823659900001,3.5315802097300004,0.244491428137,1082412,1522677087,488000000,,['l_gripper_l_finger_joint'],"(0.0032494800670444966,)","(0.0,)","(0.0,)",2717772,1522677090,428999253,robotiq_force_torque_frame_id,-1.07999989986,-1.6029997825600002,0.976999664307,-0.0430000014603,-0.21400000155,-0.134000003338,0.0,0.0,0.0,0.0,0.0,0.0,0.0,0.0,0.0,0.0,3,"(0.7099312018661185, -0.15501600688467995, 0.07407439585577541, 0.9846808114208282, 0.1669301433034879, 0.04546272144234799, 0.021706400792212838)",-0.13999986648100005,-0.27999973297000036,-0.06000137329300004,0.013000000268199995,0.0,-0.008000001310999982
1522705890.44,32103,1522677090,443905115,,2736446,1522677087,496816533,,0.7945366716169999,-0.44869924796000005,0.129336379826,0.030101175235999998,0.999464570096,-0.0105511436438,0.0072914840907,0.004459951242020001,0.0012951330534,-0.0038914805813899996,0.00728252941398,-0.00559843994728,-0.0156681386793,8.782910346980001,-2.21473097801,4.70847463608,1.35469126701,3.43609261513,0.26525270938900003,1082413,1522677087,503000064,,['r_gripper_l_finger_joint'],"(0.019983251598477365,)","(0.0,)","(0.0,)",2717773,1522677090,437143261,robotiq_force_torque_frame_id,-0.44000003337899996,-1.18300018311,1.06699981689,-0.039000000804699994,-0.21099999547000003,-0.142000004649,0.0,0.0,0.0,0.0,0.0,0.0,0.0,0.0,0.0,0.0,3,"(0.7099312018661185, -0.15501600688467995, 0.07407439585577541, 0.9846808114208282, 0.1669301433034879, 0.04546272144234799, 0.021706400792212838)",0.639999866481,0.4199995994500001,0.09000015258299987,0.004000000655600008,0.0030000060799999784,-0.00800000131100001
1522705890.45,32104,1522677090,453937053,,2736446,1522677087,496816533,,0.7945366716169999,-0.44869924796000005,0.129336379826,0.030101175235999998,0.999464570096,-0.0105511436438,0.0072914840907,0.004459951242020001,0.0012951330534,-0.0038914805813899996,0.00728252941398,-0.00559843994728,-0.0156681386793,8.782910346980001,-2.21473097801,4.70847463608,1.35469126701,3.43609261513,0.26525270938900003,1082413,1522677087,503000064,,['r_gripper_l_finger_joint'],"(0.019983251598477365,)","(0.0,)","(0.0,)",2717774,1522677090,449334912,robotiq_force_torque_frame_id,0.20000007152600002,-0.26300010681200003,1.5669998168900001,-0.0430000014603,-0.201000005007,-0.136999994516,0.0,0.0,0.0,0.0,0.0,0.0,0.0,0.0,0.0,0.0,3,"(0.7099312018661185, -0.15501600688467995, 0.07407439585577541, 0.9846808114208282, 0.1669301433034879, 0.04546272144234799, 0.021706400792212838)",0.6400001049049999,0.9200000762980001,0.5000000000000002,-0.004000000655600008,0.009999990463000041,0.005000010132999999
1522705890.46,32105,1522677090,463953018,,2736447,1522677087,506822575,,0.794688897603,-0.449599783015,0.129656092625,0.030656624294599998,0.999443575519,-0.0106551522419,0.00769275445326,-0.005148752033050001,-0.005641388735,-0.0029352472564899996,-0.00217090892925,0.00619160196743,-0.016268775395,8.36375713348,-2.44459962845,4.682054519649999,1.40010499954,3.28004622459,0.267478138208,2736797,1522677087,504911729,,"['head_nod', 'head_pan', 'left_e0', 'left_e1', 'left_s0', 'left_s1', 'left_w0', 'left_w1', 'left_w2', 'right_e0', 'right_e1', 'right_s0', 'right_s1', 'right_w0', 'right_w1', 'right_w2', 'torso_t0']","(0.0, -0.1012427320004373, -0.9069661408372509, 1.50176719133982, 0.2784175130012026, 0.6454224165027879, 2.3420051679040554, -0.48780589054756157, -0.03298058693953639, 0.4655631691232231, 0.9246069198979331, 0.3136990711225671, -0.7094661143970039, -0.37199034106221285, 1.406276887293953, -0.03259709174256504, -12.565987119160338)","(0.0, -0.0070685834692510935, 0.0047123889795007284, 0.0027488935713754254, -0.0007853981632501215, -0.005497787142750851, -0.014529866020127248, 0.023954643979128706, 0.0011780972448751821, -0.01531526418337737, 0.014137166938502187, -0.0023561944897503642, -0.005890486224375911, 0.009424777959001457, -0.005890486224375911, 0.007461282550876154, 0.0)","(0.0, 0.0, -14.752, 10.884, 0.28, 4.872, 0.068, -2.648, 0.4, 6.828, -15.892, -0.184, -29.404, -0.008, 0.22, -0.128, -20.48)",2717775,1522677090,457480745,robotiq_force_torque_frame_id,-0.150000071526,-0.283000087738,1.89699783325,-0.05099999904630001,-0.194000005722,-0.122000001371,0.0,0.0,0.0,0.0,0.0,0.0,0.0,0.0,0.0,0.0,3,"(0.7099312018661185, -0.15501600688467995, 0.07407439585577541, 0.9846808114208282, 0.1669301433034879, 0.04546272144234799, 0.021706400792212838)",-0.350000143052,-0.01999998092599997,0.3299980163599998,-0.007999997586000007,0.006999999285000003,0.014999993145000001
1522705890.47,32106,1522677090,473964929,,2736449,1522677087,526829597,,0.7949830064360001,-0.44968177887500005,0.12935765282,0.0308027392852,0.999437403581,-0.010553940093200001,0.00804250734415,-0.00792372627476,0.00498024922529,-0.0166957738026,0.0118351971,0.028160658079400002,0.0036096839608400003,8.885233879089999,-2.2580034732799996,4.74524784088,1.28241801262,3.49678039551,0.21430236101199998,2736799,1522677087,524880192,,"['head_nod', 'head_pan', 'left_e0', 'left_e1', 'left_s0', 'left_s1', 'left_w0', 'left_w1', 'left_w2', 'right_e0', 'right_e1', 'right_s0', 'right_s1', 'right_w0', 'right_w1', 'right_w2', 'torso_t0']","(0.0, -0.1004757416064946, -0.9069661408372509, 1.5013836961428486, 0.27880100819817394, 0.6450389213058165, 2.3412381775101125, -0.4881893857445329, -0.03298058693953639, 0.4651796739262517, 0.9246069198979331, 0.3136990711225671, -0.7090826192000325, -0.37160684586524145, 1.405126401703039, -0.03259709174256504, -12.565987119160338)","(0.0, 0.003141592653000486, -0.0027488935713754254, 0.0007853981632501215, 0.005890486224375911, 0.0011780972448751821, -0.0007853981632501215, 0.0011780972448751821, 0.001570796326500243, 0.009817477040626518, 0.001570796326500243, -0.0023561944897503642, 0.02591813938725401, -0.007461282550876154, 0.006283185306000972, 0.0019634954081253035, 0.0)","(0.0, 0.0, -14.556, 10.916, 0.28, 4.772, 0.084, -2.636, 0.4, 6.796, -15.924, 0.028, -29.436, 0.008, 0.22, -0.1, -20.48)",2717776,1522677090,469680627,robotiq_force_torque_frame_id,-0.549999928474,-0.9029999732969999,1.7470001220700002,-0.052999999374199996,-0.188999995589,-0.11100000143100001,0.0,0.0,0.0,0.0,0.0,0.0,0.0,0.0,0.0,0.0,3,"(0.7099312018661185, -0.15501600688467995, 0.07407439585577541, 0.9846808114208282, 0.1669301433034879, 0.04546272144234799, 0.021706400792212838)",-0.399999856948,-0.6199998855589999,-0.14999771117999972,-0.0020000003278999867,0.005000010132999999,0.010999999939999991
1522705890.51,32107,1522677090,483887910,,2736449,1522677087,526829597,,0.7949830064360001,-0.44968177887500005,0.12935765282,0.0308027392852,0.999437403581,-0.010553940093200001,0.00804250734415,-0.00792372627476,0.00498024922529,-0.0166957738026,0.0118351971,0.028160658079400002,0.0036096839608400003,8.885233879089999,-2.2580034732799996,4.74524784088,1.28241801262,3.49678039551,0.21430236101199998,1082414,1522677087,539000064,,['l_gripper_l_finger_joint'],"(0.0032494800670444966,)","(0.0,)","(0.0,)",2717777,1522677090,477810633,robotiq_force_torque_frame_id,-0.489999985695,-0.912999725342,1.41699829102,-0.0480000004172,-0.19499999284699998,-0.108999997377,0.0,0.0,0.0,0.0,0.0,0.0,0.0,0.0,0.0,0.0,3,"(0.7099312018661185, -0.15501600688467995, 0.07407439585577541, 0.9846808114208282, 0.1669301433034879, 0.04546272144234799, 0.021706400792212838)",0.05999994277900006,-0.009999752045000143,-0.33000183105000014,0.004999998956999999,-0.005999997257999989,0.0020000040540000125
1522705890.51,32108,1522677090,493948936,,2736450,1522677087,536820224,,0.7941761038070001,-0.449414736435,0.128941221898,0.0308577184839,0.999447338689,-0.010086113943200001,0.00714763616295,-0.0037376179995800003,-0.00479840399874,-0.010841112616700002,0.00013764327024,0.012715956650700001,-0.008623765939280001,8.870054245,-2.2210280895200003,4.77164745331,1.29036676884,3.47623515129,0.24054104089699999,1082415,1522677087,553999872,,['r_gripper_l_finger_joint'],"(0.019983251598477365,)","(0.0,)","(0.0,)",2717778,1522677090,490008889,robotiq_force_torque_frame_id,-0.0899998903275,-0.312999820709,1.2870010376,-0.0540000014007,-0.202000007033,-0.12099999934399999,0.0,0.0,0.0,0.0,0.0,0.0,0.0,0.0,0.0,0.0,3,"(0.7099312018661185, -0.15501600688467995, 0.07407439585577541, 0.9846808114208282, 0.1669301433034879, 0.04546272144234799, 0.021706400792212838)",0.4000000953675,0.599999904633,-0.12999725342000001,-0.006000000983500002,-0.00700001418600002,-0.01200000196699999
1522705890.51,32109,1522677090,503923892,,2736452,1522677087,556816762,,0.794226804174,-0.4495475107,0.128776476723,0.030633415377099998,0.9994520545460001,-0.0103489581835,0.00707697613346,0.0026409406413299996,-0.00018802979448900002,0.0142338736987,-0.00415481637325,-0.0113587063115,0.0005776148817480001,8.97449207306,-2.29171466827,4.84108638763,1.36496472359,3.5255892276800003,0.23487512767299998,2736802,1522677087,554878283,,"['head_nod', 'head_pan', 'left_e0', 'left_e1', 'left_s0', 'left_s1', 'left_w0', 'left_w1', 'left_w2', 'right_e0', 'right_e1', 'right_s0', 'right_s1', 'right_w0', 'right_w1', 'right_w2', 'torso_t0']","(0.0, -0.10085923680346595, -0.9065826456402796, 1.50176719133982, 0.27880100819817394, 0.6446554261088451, 2.3408546823131413, -0.4881893857445329, -0.03298058693953639, 0.46479617872928036, 0.9253739102918759, 0.3136990711225671, -0.7086991240030611, -0.3712233506682701, 1.4058933920969816, -0.03298058693953639, -12.565987119160338)","(0.0, 0.007853981632501214, 0.018456856836377853, 0.0047123889795007284, -0.006283185306000972, -0.014137166938502187, -0.0011780972448751821, -0.004319689897875668, -0.0011780972448751821, 0.007853981632501214, -0.004319689897875668, -0.0023561944897503642, -0.01767145867312773, -0.0019634954081253035, 0.010995574285501701, 0.0007853981632501215, 0.0)","(0.0, 0.0, -14.684, 10.948, 0.152, 4.872, 0.084, -2.656, 0.42, 6.956, -15.952, 0.0, -29.436, 0.0, 0.24, -0.092, -20.48)",2717779,1522677090,498148805,robotiq_force_torque_frame_id,-0.370000100136,-0.312999820709,1.2870010376,-0.0500000007451,-0.203999996185,-0.123999997973,0.0,0.0,0.0,0.0,0.0,0.0,0.0,0.0,0.0,0.0,3,"(0.7099312018661185, -0.15501600688467995, 0.07407439585577541, 0.9846808114208282, 0.1669301433034879, 0.04546272144234799, 0.021706400792212838)",-0.2800002098085,0.0,0.0,0.0040000006556000015,-0.0019999891520000035,-0.0029999986290000086
1522705890.55,32110,1522677090,513935089,,2736453,1522677087,566822060,,0.795145648432,-0.448962671525,0.129704668707,0.030367571681300002,0.999451893388,-0.0103566066009,0.00815255128208,0.00757651888841,0.0182120264448,0.0073220016305,-0.0026122551283000004,-0.0127615081369,0.022484213972400004,9.07756137848,-2.23839426041,4.889004707340001,1.2647459506999998,3.57056164742,0.215205073357,2736802,1522677087,554878283,,"['head_nod', 'head_pan', 'left_e0', 'left_e1', 'left_s0', 'left_s1', 'left_w0', 'left_w1', 'left_w2', 'right_e0', 'right_e1', 'right_s0', 'right_s1', 'right_w0', 'right_w1', 'right_w2', 'torso_t0']","(0.0, -0.10085923680346595, -0.9065826456402796, 1.50176719133982, 0.27880100819817394, 0.6446554261088451, 2.3408546823131413, -0.4881893857445329, -0.03298058693953639, 0.46479617872928036, 0.9253739102918759, 0.3136990711225671, -0.7086991240030611, -0.3712233506682701, 1.4058933920969816, -0.03298058693953639, -12.565987119160338)","(0.0, 0.007853981632501214, 0.018456856836377853, 0.0047123889795007284, -0.006283185306000972, -0.014137166938502187, -0.0011780972448751821, -0.004319689897875668, -0.0011780972448751821, 0.007853981632501214, -0.004319689897875668, -0.0023561944897503642, -0.01767145867312773, -0.0019634954081253035, 0.010995574285501701, 0.0007853981632501215, 0.0)","(0.0, 0.0, -14.684, 10.948, 0.152, 4.872, 0.084, -2.656, 0.42, 6.956, -15.952, 0.0, -29.436, 0.0, 0.24, -0.092, -20.48)",2717780,1522677090,510340996,robotiq_force_torque_frame_id,-1.40999994278,-1.27299985886,1.39699783325,-0.04500000178809999,-0.207000002265,-0.11400000006,0.0,0.0,0.0,0.0,0.0,0.0,0.0,0.0,0.0,0.0,3,"(0.7099312018661185, -0.15501600688467995, 0.07407439585577541, 0.9846808114208282, 0.1669301433034879, 0.04546272144234799, 0.021706400792212838)",-1.039999842644,-0.960000038151,0.10999679564999987,0.004999998957000006,-0.003000006080000006,0.009999997913000006
1522705890.55,32111,1522677090,523951053,,2736453,1522677087,566822060,,0.795145648432,-0.448962671525,0.129704668707,0.030367571681300002,0.999451893388,-0.0103566066009,0.00815255128208,0.00757651888841,0.0182120264448,0.0073220016305,-0.0026122551283000004,-0.0127615081369,0.022484213972400004,9.07756137848,-2.23839426041,4.889004707340001,1.2647459506999998,3.57056164742,0.215205073357,2736803,1522677087,564919320,,"['head_nod', 'head_pan', 'left_e0', 'left_e1', 'left_s0', 'left_s1', 'left_w0', 'left_w1', 'left_w2', 'right_e0', 'right_e1', 'right_s0', 'right_s1', 'right_w0', 'right_w1', 'right_w2', 'torso_t0']","(0.0, -0.10085923680346595, -0.9069661408372509, 1.50176719133982, 0.2791845033951453, 0.6450389213058165, 2.3412381775101125, -0.48742239535059023, -0.033364082136507746, 0.46594666432019444, 0.9246069198979331, 0.31408256631953846, -0.7094661143970039, -0.37160684586524145, 1.4055098969000104, -0.03259709174256504, -12.565987119160338)","(0.0, 0.001570796326500243, 0.013351768775252066, 0.0007853981632501215, -0.008246680714126275, 0.00510508806112579, 0.02552544030562895, 0.01610066234662749, 0.0019634954081253035, 0.009817477040626518, 0.005890486224375911, 0.019634954081253035, -0.012173671530376884, -0.004319689897875668, -0.004319689897875668, 0.006283185306000972, 0.0)","(0.0, 0.0, -14.588, 10.884, 0.184, 4.872, 0.104, -2.636, 0.42, 6.86, -15.984, 0.06, -29.492, -0.024, 0.22, -0.092, -20.48)",2717781,1522677090,518473993,robotiq_force_torque_frame_id,-1.6199999809299999,-0.9029999732969999,1.55699768066,-0.0500000007451,-0.203999996185,-0.119000002742,0.0,0.0,0.0,0.0,0.0,0.0,0.0,0.0,0.0,0.0,3,"(0.7099312018661185, -0.15501600688467995, 0.07407439585577541, 0.9846808114208282, 0.1669301433034879, 0.04546272144234799, 0.021706400792212838)",-0.2100000381499998,0.3699998855630001,0.15999984741000017,-0.004999998957000006,0.003000006080000006,-0.0050000026820000015
1522705890.55,32112,1522677090,533926010,,2736455,1522677087,586818269,,0.794981174939,-0.449107731543,0.129355159296,0.0302297798227,0.999456541217,-0.010540964900400001,0.00785306881378,-0.00972573864343,-0.00109491269057,-0.0123348222455,0.00154998647134,0.0298151999413,-3.44733737862e-05,9.32923984528,-2.20063138008,4.8859648704500005,1.27845013142,3.66210770607,0.23436537385,2736805,1522677087,584920752,,"['head_nod', 'head_pan', 'left_e0', 'left_e1', 'left_s0', 'left_s1', 'left_w0', 'left_w1', 'left_w2', 'right_e0', 'right_e1', 'right_s0', 'right_s1', 'right_w0', 'right_w1', 'right_w2', 'torso_t0']","(0.0, -0.1012427320004373, -0.9073496360342223, 1.5021506865367915, 0.2791845033951453, 0.6454224165027879, 2.341621672707084, -0.48742239535059023, -0.03298058693953639, 0.4651796739262517, 0.9246069198979331, 0.3144660615165098, -0.7090826192000325, -0.37160684586524145, 1.4055098969000104, -0.03298058693953639, -12.565987119160338)","(0.0, -0.001570796326500243, -0.010995574285501701, 0.006675884387626033, 0.0011780972448751821, 0.0011780972448751821, 0.006675884387626033, -0.018064157754752792, -0.0019634954081253035, -0.010995574285501701, 0.0011780972448751821, 0.003926990816250607, 0.015707963265002428, 0.0007853981632501215, 0.010995574285501701, -0.003141592653000486, 0.0)","(0.0, 0.0, -14.684, 10.884, 0.28, 4.904, 0.104, -2.648, 0.42, 6.924, -15.984, 0.152, -29.464, -0.008, 0.22, -0.112, -20.48)",2717782,1522677090,530688242,robotiq_force_torque_frame_id,-1.17000005245,-0.00299987792969,1.5669998168900001,-0.0540000014007,-0.202000007033,-0.115999996662,0.0,0.0,0.0,0.0,0.0,0.0,0.0,0.0,0.0,0.0,3,"(0.7099312018661185, -0.15501600688467995, 0.07407439585577541, 0.9846808114208282, 0.1669301433034879, 0.04546272144234799, 0.021706400792212838)",0.4499999284799998,0.9000000953673098,0.010002136230000014,-0.0040000006556000015,0.0019999891520000035,0.0030000060799999922
1522705890.55,32113,1522677090,543920993,,2736455,1522677087,586818269,,0.794981174939,-0.449107731543,0.129355159296,0.0302297798227,0.999456541217,-0.010540964900400001,0.00785306881378,-0.00972573864343,-0.00109491269057,-0.0123348222455,0.00154998647134,0.0298151999413,-3.44733737862e-05,9.32923984528,-2.20063138008,4.8859648704500005,1.27845013142,3.66210770607,0.23436537385,2736805,1522677087,584920752,,"['head_nod', 'head_pan', 'left_e0', 'left_e1', 'left_s0', 'left_s1', 'left_w0', 'left_w1', 'left_w2', 'right_e0', 'right_e1', 'right_s0', 'right_s1', 'right_w0', 'right_w1', 'right_w2', 'torso_t0']","(0.0, -0.1012427320004373, -0.9073496360342223, 1.5021506865367915, 0.2791845033951453, 0.6454224165027879, 2.341621672707084, -0.48742239535059023, -0.03298058693953639, 0.4651796739262517, 0.9246069198979331, 0.3144660615165098, -0.7090826192000325, -0.37160684586524145, 1.4055098969000104, -0.03298058693953639, -12.565987119160338)","(0.0, -0.001570796326500243, -0.010995574285501701, 0.006675884387626033, 0.0011780972448751821, 0.0011780972448751821, 0.006675884387626033, -0.018064157754752792, -0.0019634954081253035, -0.010995574285501701, 0.0011780972448751821, 0.003926990816250607, 0.015707963265002428, 0.0007853981632501215, 0.010995574285501701, -0.003141592653000486, 0.0)","(0.0, 0.0, -14.684, 10.884, 0.28, 4.904, 0.104, -2.648, 0.42, 6.924, -15.984, 0.152, -29.464, -0.008, 0.22, -0.112, -20.48)",2717783,1522677090,538820081,robotiq_force_torque_frame_id,-1.75999996662,0.316999816895,1.4970001220700002,-0.0489999987185,-0.206000000238,-0.133000001311,0.0,0.0,0.0,0.0,0.0,0.0,0.0,0.0,0.0,0.0,3,"(0.7099312018661185, -0.15501600688467995, 0.07407439585577541, 0.9846808114208282, 0.1669301433034879, 0.04546272144234799, 0.021706400792212838)",-0.5899999141699999,0.31999969482469,-0.0699996948199999,0.005000002682200001,-0.0039999932049999964,-0.017000004649000006
1522705890.59,32114,1522677090,553976058,,2736456,1522677087,596822441,,0.794834490351,-0.44930055845899997,0.129343648718,0.0300952468347,0.99946002089,-0.0105925362123,0.00785754009661,-0.00207304863469,-0.00675809295547,-0.00480089962008,0.0120593127051,0.00391920091762,-0.0243007445291,9.17728900909,-2.13885498047,5.01201343536,1.2532043457,3.61307072639,0.21177491545699997,2736806,1522677087,594914617,,"['head_nod', 'head_pan', 'left_e0', 'left_e1', 'left_s0', 'left_s1', 'left_w0', 'left_w1', 'left_w2', 'right_e0', 'right_e1', 'right_s0', 'right_s1', 'right_w0', 'right_w1', 'right_w2', 'torso_t0']","(0.0, -0.10162622719740866, -0.9069661408372509, 1.5010002009458774, 0.2791845033951453, 0.6454224165027879, 2.3412381775101125, -0.4881893857445329, -0.03298058693953639, 0.4651796739262517, 0.9253739102918759, 0.31408256631953846, -0.7094661143970039, -0.37160684586524145, 1.405126401703039, -0.033364082136507746, -12.565987119160338)","(0.0, 0.007461282550876154, -0.003141592653000486, 0.013744467856877126, -0.010995574285501701, 0.0019634954081253035, -0.010995574285501701, 0.007853981632501214, 0.0027488935713754254, -0.011780972448751823, -0.01021017612225158, -0.007461282550876154, 0.01021017612225158, 0.01688606050987761, 0.0019634954081253035, 0.003141592653000486, 0.0)","(0.0, 0.0, -14.556, 10.884, 0.152, 4.872, 0.104, -2.664, 0.38, 6.924, -16.012, 0.152, -29.552, 0.0, 0.228, -0.092, -20.48)",2717784,1522677090,551011001,robotiq_force_torque_frame_id,-2.22000000477,-0.482999897003,1.5069984436000001,-0.052000001072899996,-0.203999996185,-0.145999997854,0.0,0.0,0.0,0.0,0.0,0.0,0.0,0.0,0.0,0.0,3,"(0.7099312018661185, -0.15501600688467995, 0.07407439585577541, 0.9846808114208282, 0.1669301433034879, 0.04546272144234799, 0.021706400792212838)",-0.46000003815000023,-0.799999713898,0.00999832152999991,-0.003000002354399997,0.002000004052999993,-0.012999996542999992
