time,.header.seq,.header.stamp.secs,.header.stamp.nsecs,.header.frame_id,.endpoint_state.header.seq,.endpoint_state.header.stamp.secs,.endpoint_state.header.stamp.nsecs,.endpoint_state.header.frame_id,.endpoint_state.pose.position.x,.endpoint_state.pose.position.y,.endpoint_state.pose.position.z,.endpoint_state.pose.orientation.x,.endpoint_state.pose.orientation.y,.endpoint_state.pose.orientation.z,.endpoint_state.pose.orientation.w,.endpoint_state.twist.linear.x,.endpoint_state.twist.linear.y,.endpoint_state.twist.linear.z,.endpoint_state.twist.angular.x,.endpoint_state.twist.angular.y,.endpoint_state.twist.angular.z,.endpoint_state.wrench.force.x,.endpoint_state.wrench.force.y,.endpoint_state.wrench.force.z,.endpoint_state.wrench.torque.x,.endpoint_state.wrench.torque.y,.endpoint_state.wrench.torque.z,.joint_state.header.seq,.joint_state.header.stamp.secs,.joint_state.header.stamp.nsecs,.joint_state.header.frame_id,.joint_state.name,.joint_state.position,.joint_state.velocity,.joint_state.effort,.wrench_stamped.header.seq,.wrench_stamped.header.stamp.secs,.wrench_stamped.header.stamp.nsecs,.wrench_stamped.header.frame_id,.wrench_stamped.wrench.force.x,.wrench_stamped.wrench.force.y,.wrench_stamped.wrench.force.z,.wrench_stamped.wrench.torque.x,.wrench_stamped.wrench.torque.y,.wrench_stamped.wrench.torque.z,.tactile_values.tactile_values_0,.tactile_values.tactile_values_1,.tactile_values.tactile_values_2,.tactile_values.tactile_values_3,.tactile_values.tactile_values_4,.tactile_values.tactile_values_5,.tactile_values.tactile_values_6,.tactile_values.tactile_values_7,.tactile_values.tactile_values_8,.tactile_values.tactile_values_9,.tag,.goal_vector,.delta_wrench.force.x,.delta_wrench.force.y,.delta_wrench.force.z,.delta_wrench.torque.x,.delta_wrench.torque.y,.delta_wrench.torque.z
1522706430.27,35160,1522677630,267463922,,2790428,1522677627,316965414,,0.7945071894,-0.44863022213799997,0.129407154958,0.0301912799302,0.999463109049,-0.010672252830399999,0.006934211292130001,-0.00137339239222,-0.0012105731988099999,-0.0027115853730799995,-0.00184240710651,0.00815561520011,-0.00368472733633,-0.173420250416,-0.14982406795,6.72277402878,0.688541054726,-0.114645659924,0.41292744875,2790778,1522677627,315067678,,"['head_nod', 'head_pan', 'left_e0', 'left_e1', 'left_s0', 'left_s1', 'left_w0', 'left_w1', 'left_w2', 'right_e0', 'right_e1', 'right_s0', 'right_s1', 'right_w0', 'right_w1', 'right_w2', 'torso_t0']","(0.0, -0.1012427320004373, -0.9069661408372509, 1.5013836961428486, 0.2791845033951453, 0.6450389213058165, 2.3408546823131413, -0.48703890015361884, -0.03298058693953639, 0.4655631691232231, 0.9238399295039904, 0.31523305191045253, -0.7086991240030611, -0.3723738362591842, 1.4078108680818384, -0.032213596545593685, -12.565987119160338)","(0.0, 0.0070685834692510935, 0.004319689897875668, -0.003926990816250607, 0.0070685834692510935, -0.009817477040626518, -0.01610066234662749, 0.0011780972448751821, 0.0070685834692510935, -0.0019634954081253035, -0.009424777959001457, 0.0027488935713754254, 0.008639379795751335, -0.003926990816250607, 0.008246680714126275, 0.0023561944897503642, 0.0)","(0.0, 0.0, -14.556, 10.916, 0.308, 5.068, 0.096, -2.656, 0.296, 7.836, -15.924, -0.092, -28.732, -0.024, 0.168, -0.14, -20.48)",2771696,1522677630,265725026,robotiq_force_torque_frame_id,0.023000073432900003,-2.06699995995,0.8009994506839999,-0.0489999987185,-0.231000006199,-0.0769999995828,0.0,0.0,0.0,0.0,0.0,0.0,0.0,0.0,0.0,0.0,3,"(0.5282605997723452, -0.8173976392976043, 0.13420757995327057, 0.9999377972961767, -0.0043522273978984765, -0.00938816830392258, 0.0041619648057486525)",0.0,0.0,0.0,0.0,0.0,0.0
1522706430.28,35161,1522677630,277462959,,2790429,1522677627,326959218,,0.7943816639679999,-0.44915344340400004,0.129233333965,0.030823069871999998,0.9994472708509999,-0.0103697247097,0.006896373127999999,0.00383156765143,0.00362807858767,-0.000567669527091,0.00540618673904,-0.00504347580763,-0.00107157992837,0.231062173843,-0.132114127278,6.72627401352,0.647686362267,0.06960521638389999,0.393578797579,2790779,1522677627,325063380,,"['head_nod', 'head_pan', 'left_e0', 'left_e1', 'left_s0', 'left_s1', 'left_w0', 'left_w1', 'left_w2', 'right_e0', 'right_e1', 'right_s0', 'right_s1', 'right_w0', 'right_w1', 'right_w2', 'torso_t0']","(0.0, -0.1012427320004373, -0.9061991504433081, 1.5021506865367915, 0.2791845033951453, 0.6446554261088451, 2.3420051679040554, -0.48780589054756157, -0.03298058693953639, 0.4651796739262517, 0.9234564343070191, 0.3144660615165098, -0.7083156288060898, -0.37160684586524145, 1.4078108680818384, -0.032213596545593685, -12.565987119160338)","(0.0, -0.0070685834692510935, 0.02670353755050413, 0.005497787142750851, -0.01688606050987761, 0.01060287520387664, 0.011780972448751823, 0.0070685834692510935, 0.00510508806112579, 0.007853981632501214, -0.009817477040626518, 0.0007853981632501215, 0.007461282550876154, -0.0019634954081253035, 0.0, 0.003926990816250607, 0.0)","(0.0, 0.0, -14.72, 10.948, 0.184, 5.1, 0.084, -2.684, 0.308, 7.772, -15.924, 0.0, -28.704, -0.016, 0.188, -0.14, -20.48)",2771697,1522677630,273871265,robotiq_force_torque_frame_id,0.06300003528590001,-2.16699986458,0.591000366211,-0.035999998450300004,-0.236000001431,-0.07000000029799999,0.0,0.0,0.0,0.0,0.0,0.0,0.0,0.0,0.0,0.0,3,"(0.5282605997723452, -0.8173976392976043, 0.13420757995327057, 0.9999377972961767, -0.0043522273978984765, -0.00938816830392258, 0.0041619648057486525)",0.039999961853000005,-0.09999990463000019,-0.20999908447299986,0.013000000268199995,-0.00499999523200001,0.00699999928480001
1522706430.32,35162,1522677630,287442922,,2790430,1522677627,336978091,,0.794039902525,-0.44883187100199995,0.128710169514,0.030274779942099997,0.9994669584460001,-0.0104339025109,0.00635376685671,0.00498469461426,-0.013871525168600001,-0.00786736394193,-0.00482025363613,-0.0122504600862,-0.00596760144113,0.107653841376,-0.19414219260200002,6.77529907227,0.7321779727940001,-0.0168180651963,0.433204472065,2790780,1522677627,335068787,,"['head_nod', 'head_pan', 'left_e0', 'left_e1', 'left_s0', 'left_s1', 'left_w0', 'left_w1', 'left_w2', 'right_e0', 'right_e1', 'right_s0', 'right_s1', 'right_w0', 'right_w1', 'right_w2', 'torso_t0']","(0.0, -0.10085923680346595, -0.9061991504433081, 1.50176719133982, 0.2791845033951453, 0.6450389213058165, 2.341621672707084, -0.48742239535059023, -0.032213596545593685, 0.4651796739262517, 0.9242234247009617, 0.3148495567134812, -0.7079321336091184, -0.37199034106221285, 1.4078108680818384, -0.03259709174256504, -12.565987119160338)","(0.0, 0.0, -0.0007853981632501215, 0.0070685834692510935, 0.005497787142750851, 0.00039269908162506076, -0.001570796326500243, -0.01021017612225158, -0.003926990816250607, -0.01021017612225158, -0.011388273367126762, -0.008246680714126275, 0.01610066234662749, -0.001570796326500243, -0.0200276531628781, -0.012173671530376884, 0.0)","(0.0, 0.0, -14.72, 10.916, 0.34, 5.036, 0.104, -2.676, 0.28, 7.9, -15.952, -0.06, -28.732, -0.016, 0.168, -0.156, -20.48)",2771698,1522677630,286085970,robotiq_force_torque_frame_id,0.023000073432900003,-1.7670002460499998,0.39099960327100003,-0.032999999821200006,-0.231000006199,-0.0810000002384,0.0,0.0,0.0,0.0,0.0,0.0,0.0,0.0,0.0,0.0,3,"(0.5282605997723452, -0.8173976392976043, 0.13420757995327057, 0.9999377972961767, -0.0043522273978984765, -0.00938816830392258, 0.0041619648057486525)",-0.039999961853000005,0.3999996185300003,-0.20000076294000002,0.002999998629099998,0.00499999523200001,-0.010999999940400004
1522706430.32,35163,1522677630,297434091,,2790430,1522677627,336978091,,0.794039902525,-0.44883187100199995,0.128710169514,0.030274779942099997,0.9994669584460001,-0.0104339025109,0.00635376685671,0.00498469461426,-0.013871525168600001,-0.00786736394193,-0.00482025363613,-0.0122504600862,-0.00596760144113,0.107653841376,-0.19414219260200002,6.77529907227,0.7321779727940001,-0.0168180651963,0.433204472065,2790780,1522677627,335068787,,"['head_nod', 'head_pan', 'left_e0', 'left_e1', 'left_s0', 'left_s1', 'left_w0', 'left_w1', 'left_w2', 'right_e0', 'right_e1', 'right_s0', 'right_s1', 'right_w0', 'right_w1', 'right_w2', 'torso_t0']","(0.0, -0.10085923680346595, -0.9061991504433081, 1.50176719133982, 0.2791845033951453, 0.6450389213058165, 2.341621672707084, -0.48742239535059023, -0.032213596545593685, 0.4651796739262517, 0.9242234247009617, 0.3148495567134812, -0.7079321336091184, -0.37199034106221285, 1.4078108680818384, -0.03259709174256504, -12.565987119160338)","(0.0, 0.0, -0.0007853981632501215, 0.0070685834692510935, 0.005497787142750851, 0.00039269908162506076, -0.001570796326500243, -0.01021017612225158, -0.003926990816250607, -0.01021017612225158, -0.011388273367126762, -0.008246680714126275, 0.01610066234662749, -0.001570796326500243, -0.0200276531628781, -0.012173671530376884, 0.0)","(0.0, 0.0, -14.72, 10.916, 0.34, 5.036, 0.104, -2.676, 0.28, 7.9, -15.952, -0.06, -28.732, -0.016, 0.168, -0.156, -20.48)",2771699,1522677630,294227782,robotiq_force_torque_frame_id,-0.38700001239799997,-1.4369998455000002,0.221001434326,-0.035000000148999996,-0.226999998093,-0.0780000016093,0.0,0.0,0.0,0.0,0.0,0.0,0.0,0.0,0.0,0.0,3,"(0.5282605997723452, -0.8173976392976043, 0.13420757995327057, 0.9999377972961767, -0.0043522273978984765, -0.00938816830392258, 0.0041619648057486525)",-0.4100000858309,0.3300004005499997,-0.16999816894500003,-0.0020000003277999903,0.004000008105999986,0.002999998629099998
1522706430.32,35164,1522677630,307466983,,2790432,1522677627,356965324,,0.79393188961,-0.44972450421599997,0.128839003211,0.0311679379036,0.999441860103,-0.010081599755200002,0.0065489897530699994,-0.00601568529675,0.00280872191954,-0.010461402820799999,0.005997582602930001,0.015704876931799998,-0.0176465001038,0.328173279762,-0.320746302605,6.8510556221000005,0.773913562298,0.07263719290489999,0.409282118082,2790780,1522677627,335068787,,"['head_nod', 'head_pan', 'left_e0', 'left_e1', 'left_s0', 'left_s1', 'left_w0', 'left_w1', 'left_w2', 'right_e0', 'right_e1', 'right_s0', 'right_s1', 'right_w0', 'right_w1', 'right_w2', 'torso_t0']","(0.0, -0.10085923680346595, -0.9061991504433081, 1.50176719133982, 0.2791845033951453, 0.6450389213058165, 2.341621672707084, -0.48742239535059023, -0.032213596545593685, 0.4651796739262517, 0.9242234247009617, 0.3148495567134812, -0.7079321336091184, -0.37199034106221285, 1.4078108680818384, -0.03259709174256504, -12.565987119160338)","(0.0, 0.0, -0.0007853981632501215, 0.0070685834692510935, 0.005497787142750851, 0.00039269908162506076, -0.001570796326500243, -0.01021017612225158, -0.003926990816250607, -0.01021017612225158, -0.011388273367126762, -0.008246680714126275, 0.01610066234662749, -0.001570796326500243, -0.0200276531628781, -0.012173671530376884, 0.0)","(0.0, 0.0, -14.72, 10.916, 0.34, 5.036, 0.104, -2.676, 0.28, 7.9, -15.952, -0.06, -28.732, -0.016, 0.168, -0.156, -20.48)",2771700,1522677630,306447646,robotiq_force_torque_frame_id,-0.726999926567,-1.2969999790200002,0.221001434326,-0.032999999821200006,-0.223000004888,-0.0799999982119,0.0,0.0,0.0,0.0,0.0,0.0,0.0,0.0,0.0,0.0,3,"(0.5282605997723452, -0.8173976392976043, 0.13420757995327057, 0.9999377972961767, -0.0043522273978984765, -0.00938816830392258, 0.0041619648057486525)",-0.339999914169,0.13999986647999996,0.0,0.0020000003277999903,0.0039999932049999964,-0.0019999966026000016
1522706430.36,35165,1522677630,317471027,,2790433,1522677627,366961596,,0.794499017589,-0.448185826268,0.129107868368,0.030095679289599997,0.999471828054,-0.0101279720651,0.006909355737449999,0.0036281541779000005,0.0032602227974000003,0.007035609629439999,-0.0115100791601,-0.00869072456155,0.0125972708496,0.7292582988740001,-0.20216262340500002,6.86839056015,0.676976084709,0.255577534437,0.37748131156,2790782,1522677627,355060971,,"['head_nod', 'head_pan', 'left_e0', 'left_e1', 'left_s0', 'left_s1', 'left_w0', 'left_w1', 'left_w2', 'right_e0', 'right_e1', 'right_s0', 'right_s1', 'right_w0', 'right_w1', 'right_w2', 'torso_t0']","(0.0, -0.10085923680346595, -0.9065826456402796, 1.5021506865367915, 0.27880100819817394, 0.6450389213058165, 2.3420051679040554, -0.48703890015361884, -0.033364082136507746, 0.4651796739262517, 0.9238399295039904, 0.3133155759255958, -0.7079321336091184, -0.3712233506682701, 1.4078108680818384, -0.03259709174256504, -12.565987119160338)","(0.0, -0.009424777959001457, -0.003926990816250607, 0.003926990816250607, -0.001570796326500243, -0.003141592653000486, 0.009032078877376396, -0.00510508806112579, -0.006283185306000972, -0.0011780972448751821, 0.012959069693627005, -0.00039269908162506076, 0.008639379795751335, 0.0011780972448751821, -0.003926990816250607, 0.02081305132612822, 0.0)","(0.0, 0.0, -14.652, 10.98, 0.28, 5.036, 0.076, -2.656, 0.28, 7.836, -16.012, -0.124, -28.76, 0.0, 0.168, -0.14, -20.48)",2771701,1522677630,314585340,robotiq_force_torque_frame_id,-0.607000041008,-0.257000017166,0.361000823975,-0.0370000004768,-0.22499999403999998,-0.09600000083450001,0.0,0.0,0.0,0.0,0.0,0.0,0.0,0.0,0.0,0.0,3,"(0.5282605997723452, -0.8173976392976043, 0.13420757995327057, 0.9999377972961767, -0.0043522273978984765, -0.00938816830392258, 0.0041619648057486525)",0.11999988555899999,1.0399999618540001,0.139999389649,-0.0040000006555999945,-0.0019999891519999757,-0.016000002622600012
1522706430.36,35166,1522677630,327430009,,2790434,1522677627,376973815,,0.794595885836,-0.44838913436300004,0.129239946615,0.030384137728,0.9994634482799999,-0.009961921094709999,0.007097876783850001,0.00448026364762,9.40362550945e-06,0.00671683809463,0.00559445499281,-0.012376715529100002,-0.0108196331982,0.0959785282612,-0.22296471893800002,6.843986511230001,0.69405400753,-0.0033724457025500003,0.401792436838,1103782,1522677627,380000000,,['r_gripper_l_finger_joint'],"(0.01994938171207905,)","(0.0,)","(0.0,)",2771702,1522677630,326781153,robotiq_force_torque_frame_id,0.322999787331,0.522999954224,0.490998077393,-0.032999999821200006,-0.22499999403999998,-0.101000003517,0.0,0.0,0.0,0.0,0.0,0.0,0.0,0.0,0.0,0.0,3,"(0.5282605997723452, -0.8173976392976043, 0.13420757995327057, 0.9999377972961767, -0.0043522273978984765, -0.00938816830392258, 0.0041619648057486525)",0.929999828339,0.7799999713900001,0.129997253418,0.0040000006555999945,0.0,-0.0050000026824999905
1522706430.36,35167,1522677630,337466001,,2790435,1522677627,386972721,,0.7942617153429999,-0.448610632246,0.128758641647,0.029766187057099998,0.9994818374760001,-0.0103158876298,0.006604023428430001,-0.009399316706209998,-0.014104693782799998,-0.00896903830445,-0.00805739197332,0.018703430891,-0.012686216197,0.187008664012,-0.21486119926,6.92776107788,0.6995938420300001,0.0289292670786,0.403653919697,1103783,1522677627,393999872,,['l_gripper_l_finger_joint'],"(0.0032494800670444966,)","(0.0,)","(0.0,)",2771703,1522677630,336569040,robotiq_force_torque_frame_id,0.253000092506,0.153000068665,0.44099884033200004,-0.0379999987781,-0.22599999606600002,-0.0930000022054,0.0,0.0,0.0,0.0,0.0,0.0,0.0,0.0,0.0,0.0,3,"(0.5282605997723452, -0.8173976392976043, 0.13420757995327057, 0.9999377972961767, -0.0043522273978984765, -0.00938816830392258, 0.0041619648057486525)",-0.06999969482500001,-0.36999988555900004,-0.04999923706099996,-0.004999998956899995,-0.0010000020260000353,0.008000001311600002
1522706430.36,35168,1522677630,347449064,,2790437,1522677627,406968340,,0.794019369584,-0.449432299644,0.128380832118,0.030788873900999998,0.999453406206,-0.0101759332574,0.00643307462564,-0.00387001529034,0.0018229940170799998,-0.0072171733915899995,0.00464017587725,0.0133092907301,0.00110293407552,0.49944189190899996,-0.177466064692,6.881616115569999,0.6923877596860001,0.141695633531,0.39154219627400005,2790786,1522677627,395062025,,"['head_nod', 'head_pan', 'left_e0', 'left_e1', 'left_s0', 'left_s1', 'left_w0', 'left_w1', 'left_w2', 'right_e0', 'right_e1', 'right_s0', 'right_s1', 'right_w0', 'right_w1', 'right_w2', 'torso_t0']","(0.0, -0.10085923680346595, -0.9069661408372509, 1.50176719133982, 0.2784175130012026, 0.6446554261088451, 2.3423886631010267, -0.48780589054756157, -0.03259709174256504, 0.4655631691232231, 0.9238399295039904, 0.3144660615165098, -0.7086991240030611, -0.37199034106221285, 1.4074273728848672, -0.03259709174256504, -12.565987119160338)","(0.0, -0.001570796326500243, 0.0023561944897503642, -0.0035342917346255468, -0.013351768775252066, 0.009424777959001457, -0.005890486224375911, 0.0070685834692510935, 0.008639379795751335, 0.0023561944897503642, 0.0035342917346255468, -0.0023561944897503642, 0.01649336142825255, 0.018456856836377853, -0.0035342917346255468, -0.0027488935713754254, 0.0)","(0.0, 0.0, -14.62, 10.884, 0.248, 5.036, 0.084, -2.656, 0.316, 7.9, -15.984, -0.092, -28.792, -0.008, 0.18, -0.12, -20.48)",2771704,1522677630,344710580,robotiq_force_torque_frame_id,-0.20699994564100002,-0.316999959946,0.311001586914,-0.0410000011325,-0.226999998093,-0.09600000083450001,0.0,0.0,0.0,0.0,0.0,0.0,0.0,0.0,0.0,0.0,3,"(0.5282605997723452, -0.8173976392976043, 0.13420757995327057, 0.9999377972961767, -0.0043522273978984765, -0.00938816830392258, 0.0041619648057486525)",-0.46000003814699997,-0.470000028611,-0.12999725341800006,-0.003000002354399997,-0.0010000020269999854,-0.002999998629100012
1522706430.36,35169,1522677630,357434034,,2790437,1522677627,406968340,,0.794019369584,-0.449432299644,0.128380832118,0.030788873900999998,0.999453406206,-0.0101759332574,0.00643307462564,-0.00387001529034,0.0018229940170799998,-0.0072171733915899995,0.00464017587725,0.0133092907301,0.00110293407552,0.49944189190899996,-0.177466064692,6.881616115569999,0.6923877596860001,0.141695633531,0.39154219627400005,2790786,1522677627,395062025,,"['head_nod', 'head_pan', 'left_e0', 'left_e1', 'left_s0', 'left_s1', 'left_w0', 'left_w1', 'left_w2', 'right_e0', 'right_e1', 'right_s0', 'right_s1', 'right_w0', 'right_w1', 'right_w2', 'torso_t0']","(0.0, -0.10085923680346595, -0.9069661408372509, 1.50176719133982, 0.2784175130012026, 0.6446554261088451, 2.3423886631010267, -0.48780589054756157, -0.03259709174256504, 0.4655631691232231, 0.9238399295039904, 0.3144660615165098, -0.7086991240030611, -0.37199034106221285, 1.4074273728848672, -0.03259709174256504, -12.565987119160338)","(0.0, -0.001570796326500243, 0.0023561944897503642, -0.0035342917346255468, -0.013351768775252066, 0.009424777959001457, -0.005890486224375911, 0.0070685834692510935, 0.008639379795751335, 0.0023561944897503642, 0.0035342917346255468, -0.0023561944897503642, 0.01649336142825255, 0.018456856836377853, -0.0035342917346255468, -0.0027488935713754254, 0.0)","(0.0, 0.0, -14.62, 10.884, 0.248, 5.036, 0.084, -2.656, 0.316, 7.9, -15.984, -0.092, -28.792, -0.008, 0.18, -0.12, -20.48)",2771705,1522677630,356905099,robotiq_force_torque_frame_id,-0.377000021935,-0.407000112534,0.30099945068399997,-0.039000000804699994,-0.228000000119,-0.09499999880789999,0.0,0.0,0.0,0.0,0.0,0.0,0.0,0.0,0.0,0.0,3,"(0.5282605997723452, -0.8173976392976043, 0.13420757995327057, 0.9999377972961767, -0.0043522273978984765, -0.00938816830392258, 0.0041619648057486525)",-0.17000007629399996,-0.09000015258799998,-0.010002136230000014,0.002000000327800004,-0.0010000020260000075,0.0010000020266000276
1522706430.37,35170,1522677630,367472887,,2790438,1522677627,416977647,,0.7938903863779999,-0.44806611571000005,0.128530480065,0.0299238574725,0.999483969508,-0.00993570121555,0.00613508700797,0.0030809529776200002,-0.00782006859306,0.00553148498973,-0.017516287030099997,-0.0094766706826,0.01723708985,-0.19898176193199998,-0.202159449458,6.97262144089,0.7437784671780001,-0.140714377165,0.41374480724299995,2790786,1522677627,395062025,,"['head_nod', 'head_pan', 'left_e0', 'left_e1', 'left_s0', 'left_s1', 'left_w0', 'left_w1', 'left_w2', 'right_e0', 'right_e1', 'right_s0', 'right_s1', 'right_w0', 'right_w1', 'right_w2', 'torso_t0']","(0.0, -0.10085923680346595, -0.9069661408372509, 1.50176719133982, 0.2784175130012026, 0.6446554261088451, 2.3423886631010267, -0.48780589054756157, -0.03259709174256504, 0.4655631691232231, 0.9238399295039904, 0.3144660615165098, -0.7086991240030611, -0.37199034106221285, 1.4074273728848672, -0.03259709174256504, -12.565987119160338)","(0.0, -0.001570796326500243, 0.0023561944897503642, -0.0035342917346255468, -0.013351768775252066, 0.009424777959001457, -0.005890486224375911, 0.0070685834692510935, 0.008639379795751335, 0.0023561944897503642, 0.0035342917346255468, -0.0023561944897503642, 0.01649336142825255, 0.018456856836377853, -0.0035342917346255468, -0.0027488935713754254, 0.0)","(0.0, 0.0, -14.62, 10.884, 0.248, 5.036, 0.084, -2.656, 0.316, 7.9, -15.984, -0.092, -28.792, -0.008, 0.18, -0.12, -20.48)",2771706,1522677630,365038630,robotiq_force_torque_frame_id,-0.246999907494,-0.8070002079009999,0.19099884033199999,-0.0340000018477,-0.233999997377,-0.082000002265,0.0,0.0,0.0,0.0,0.0,0.0,0.0,0.0,0.0,0.0,3,"(0.5282605997723452, -0.8173976392976043, 0.13420757995327057, 0.9999377972961767, -0.0043522273978984765, -0.00938816830392258, 0.0041619648057486525)",0.130000114441,-0.40000009536699993,-0.11000061035199998,0.004999998956999992,-0.005999997257999989,0.012999996542899989
1522706430.41,35171,1522677630,377528905,,2790439,1522677627,426967627,,0.7942302259649999,-0.44927782113700004,0.12943893562,0.0307295034901,0.9994490082299999,-0.0104037707778,0.00700992983556,0.00641238990831,0.00385660426137,0.0112610002735,0.013031805270899999,-0.021502160332,-0.0122796802075,0.180124998093,-0.240328788757,6.89745616913,0.715417027473,0.0248072855175,0.40795665979400003,1103784,1522677627,430000128,,['r_gripper_l_finger_joint'],"(0.01994938171207905,)","(0.0,)","(0.0,)",2771707,1522677630,373194713,robotiq_force_torque_frame_id,-0.00699989795685,-1.41699986458,-0.129000854492,-0.0240000002086,-0.24199999868900002,-0.0750000029802,0.0,0.0,0.0,0.0,0.0,0.0,0.0,0.0,0.0,0.0,3,"(0.5282605997723452, -0.8173976392976043, 0.13420757995327057, 0.9999377972961767, -0.0043522273978984765, -0.00938816830392258, 0.0041619648057486525)",0.24000000953715,-0.609999656679,-0.319999694824,0.010000001639100004,-0.008000001312000016,0.006999999284799996
1522706430.41,35172,1522677630,387443065,,2790441,1522677627,446959157,,0.794720985789,-0.449162235865,0.129442159262,0.0310033033048,0.9994394309639999,-0.010229516184999999,0.00741458132146,-0.009613327539120002,0.0049428011441899995,-0.00738267714639,-0.0018280355434000001,0.0267816760517,0.009160118933610002,0.432470709085,-0.191378653049,7.000015735630001,0.689209163189,0.14241322875,0.40763714909599996,2790791,1522677627,445024831,,"['head_nod', 'head_pan', 'left_e0', 'left_e1', 'left_s0', 'left_s1', 'left_w0', 'left_w1', 'left_w2', 'right_e0', 'right_e1', 'right_s0', 'right_s1', 'right_w0', 'right_w1', 'right_w2', 'torso_t0']","(0.0, -0.10085923680346595, -0.9069661408372509, 1.5029176769307342, 0.2791845033951453, 0.6454224165027879, 2.3412381775101125, -0.48742239535059023, -0.0337475773334791, 0.46479617872928036, 0.9234564343070191, 0.3144660615165098, -0.7086991240030611, -0.3708398554712988, 1.4070438776878957, -0.032213596545593685, -12.565987119160338)","(0.0, -0.009032078877376396, -0.023169245815878585, -0.00510508806112579, 0.015707963265002428, -0.0007853981632501215, -0.005497787142750851, -0.014922565101752308, -0.007461282550876154, -0.012566370612001944, 0.014922565101752308, 0.010995574285501701, 0.0007853981632501215, 0.0035342917346255468, 0.008246680714126275, -0.0019634954081253035, 0.0)","(0.0, 0.0, -14.62, 10.916, 0.184, 5.068, 0.104, -2.636, 0.268, 7.836, -16.044, 0.0, -28.848, -0.016, 0.18, -0.148, -20.48)",2771708,1522677630,385411349,robotiq_force_torque_frame_id,-0.297000098228,-1.7269998073599997,-0.259001922607,-0.0179999992251,-0.245000004768,-0.0790000036359,0.0,0.0,0.0,0.0,0.0,0.0,0.0,0.0,0.0,0.0,3,"(0.5282605997723452, -0.8173976392976043, 0.13420757995327057, 0.9999377972961767, -0.0043522273978984765, -0.00938816830392258, 0.0041619648057486525)",-0.29000020027115,-0.30999994277999976,-0.130001068115,0.006000000983499999,-0.0030000060789999727,-0.004000000655699998
1522706430.41,35173,1522677630,397440910,,2790441,1522677627,446959157,,0.794720985789,-0.449162235865,0.129442159262,0.0310033033048,0.9994394309639999,-0.010229516184999999,0.00741458132146,-0.009613327539120002,0.0049428011441899995,-0.00738267714639,-0.0018280355434000001,0.0267816760517,0.009160118933610002,0.432470709085,-0.191378653049,7.000015735630001,0.689209163189,0.14241322875,0.40763714909599996,2790791,1522677627,445024831,,"['head_nod', 'head_pan', 'left_e0', 'left_e1', 'left_s0', 'left_s1', 'left_w0', 'left_w1', 'left_w2', 'right_e0', 'right_e1', 'right_s0', 'right_s1', 'right_w0', 'right_w1', 'right_w2', 'torso_t0']","(0.0, -0.10085923680346595, -0.9069661408372509, 1.5029176769307342, 0.2791845033951453, 0.6454224165027879, 2.3412381775101125, -0.48742239535059023, -0.0337475773334791, 0.46479617872928036, 0.9234564343070191, 0.3144660615165098, -0.7086991240030611, -0.3708398554712988, 1.4070438776878957, -0.032213596545593685, -12.565987119160338)","(0.0, -0.009032078877376396, -0.023169245815878585, -0.00510508806112579, 0.015707963265002428, -0.0007853981632501215, -0.005497787142750851, -0.014922565101752308, -0.007461282550876154, -0.012566370612001944, 0.014922565101752308, 0.010995574285501701, 0.0007853981632501215, 0.0035342917346255468, 0.008246680714126275, -0.0019634954081253035, 0.0)","(0.0, 0.0, -14.62, 10.916, 0.184, 5.068, 0.104, -2.636, 0.268, 7.836, -16.044, 0.0, -28.848, -0.016, 0.18, -0.148, -20.48)",2771709,1522677630,393547352,robotiq_force_torque_frame_id,-0.426999974251,-1.37699990273,-0.498999786377,-0.0179999992251,-0.252000004053,-0.0839999988675,0.0,0.0,0.0,0.0,0.0,0.0,0.0,0.0,0.0,0.0,3,"(0.5282605997723452, -0.8173976392976043, 0.13420757995327057, 0.9999377972961767, -0.0043522273978984765, -0.00938816830392258, 0.0041619648057486525)",-0.129999876023,0.34999990462999975,-0.23999786377,0.0,-0.006999999285000003,-0.004999995231599996
1522706430.45,35174,1522677630,407464027,,2790442,1522677627,456972089,,0.794318324868,-0.44837257228200006,0.128513679792,0.0302828697695,0.999468835572,-0.0101811583415,0.006429504980680001,0.00662396599139,0.00199277196142,0.00396819667712,-0.0068737999137299995,-0.0168789950875,-0.00416293148,0.433185011148,-0.368086159229,6.9370326995800005,0.765547275543,0.12870040535900001,0.39402776956600005,2790791,1522677627,445024831,,"['head_nod', 'head_pan', 'left_e0', 'left_e1', 'left_s0', 'left_s1', 'left_w0', 'left_w1', 'left_w2', 'right_e0', 'right_e1', 'right_s0', 'right_s1', 'right_w0', 'right_w1', 'right_w2', 'torso_t0']","(0.0, -0.10085923680346595, -0.9069661408372509, 1.5029176769307342, 0.2791845033951453, 0.6454224165027879, 2.3412381775101125, -0.48742239535059023, -0.0337475773334791, 0.46479617872928036, 0.9234564343070191, 0.3144660615165098, -0.7086991240030611, -0.3708398554712988, 1.4070438776878957, -0.032213596545593685, -12.565987119160338)","(0.0, -0.009032078877376396, -0.023169245815878585, -0.00510508806112579, 0.015707963265002428, -0.0007853981632501215, -0.005497787142750851, -0.014922565101752308, -0.007461282550876154, -0.012566370612001944, 0.014922565101752308, 0.010995574285501701, 0.0007853981632501215, 0.0035342917346255468, 0.008246680714126275, -0.0019634954081253035, 0.0)","(0.0, 0.0, -14.62, 10.916, 0.184, 5.068, 0.104, -2.636, 0.268, 7.836, -16.044, 0.0, -28.848, -0.016, 0.18, -0.148, -20.48)",2771710,1522677630,405752561,robotiq_force_torque_frame_id,-0.147000002861,-0.8169999599459999,-0.438998413086,-0.019999999553,-0.24600000679499998,-0.09399999678130001,0.0,0.0,0.0,0.0,0.0,0.0,0.0,0.0,0.0,0.0,3,"(0.5282605997723452, -0.8173976392976043, 0.13420757995327057, 0.9999377972961767, -0.0043522273978984765, -0.00938816830392258, 0.0041619648057486525)",0.27999997139,0.559999942784,0.06000137329099997,-0.0020000003279000006,0.005999997258000017,-0.009999997913800018
1522706430.45,35175,1522677630,417449951,,2790443,1522677627,466965779,,0.7937539113050001,-0.44921309738000004,0.128618680208,0.0304975597322,0.9994643738950001,-0.0100940396296,0.00624295843389,0.00037516673564199997,-0.004913165202819999,0.000755117570347,0.0135120499571,-0.0014573868313399998,-0.017230864352099997,0.526954054832,-0.291823714972,6.91116094589,0.6869840621950001,0.153543889523,0.387460768223,2790791,1522677627,445024831,,"['head_nod', 'head_pan', 'left_e0', 'left_e1', 'left_s0', 'left_s1', 'left_w0', 'left_w1', 'left_w2', 'right_e0', 'right_e1', 'right_s0', 'right_s1', 'right_w0', 'right_w1', 'right_w2', 'torso_t0']","(0.0, -0.10085923680346595, -0.9069661408372509, 1.5029176769307342, 0.2791845033951453, 0.6454224165027879, 2.3412381775101125, -0.48742239535059023, -0.0337475773334791, 0.46479617872928036, 0.9234564343070191, 0.3144660615165098, -0.7086991240030611, -0.3708398554712988, 1.4070438776878957, -0.032213596545593685, -12.565987119160338)","(0.0, -0.009032078877376396, -0.023169245815878585, -0.00510508806112579, 0.015707963265002428, -0.0007853981632501215, -0.005497787142750851, -0.014922565101752308, -0.007461282550876154, -0.012566370612001944, 0.014922565101752308, 0.010995574285501701, 0.0007853981632501215, 0.0035342917346255468, 0.008246680714126275, -0.0019634954081253035, 0.0)","(0.0, 0.0, -14.62, 10.916, 0.184, 5.068, 0.104, -2.636, 0.268, 7.836, -16.044, 0.0, -28.848, -0.016, 0.18, -0.148, -20.48)",2771711,1522677630,413893458,robotiq_force_torque_frame_id,-0.7369999170300001,-0.0569999694824,0.09100036621089999,-0.0379999987781,-0.23499999940400002,-0.104999996722,0.0,0.0,0.0,0.0,0.0,0.0,0.0,0.0,0.0,0.0,3,"(0.5282605997723452, -0.8173976392976043, 0.13420757995327057, 0.9999377972961767, -0.0043522273978984765, -0.00938816830392258, 0.0041619648057486525)",-0.5899999141690001,0.7599999904635999,0.5299987792969,-0.0179999992251,0.01100000739099996,-0.010999999940699987
1522706430.45,35176,1522677630,427405118,,2790445,1522677627,486962631,,0.793805170002,-0.44924741166599996,0.128711130032,0.030246946091700002,0.99946721463,-0.010612893938500002,0.0061461868795399995,-0.0018163966554700002,-0.0115729165332,6.75939055179e-05,-0.021678196591799998,0.0037191818772600005,-0.019761429594,0.406868606806,-0.097747951746,6.90401172638,0.604647755623,0.109096065164,0.38293313980099997,2790795,1522677627,485019962,,"['head_nod', 'head_pan', 'left_e0', 'left_e1', 'left_s0', 'left_s1', 'left_w0', 'left_w1', 'left_w2', 'right_e0', 'right_e1', 'right_s0', 'right_s1', 'right_w0', 'right_w1', 'right_w2', 'torso_t0']","(0.0, -0.10162622719740866, -0.9069661408372509, 1.5025341817337627, 0.27880100819817394, 0.6446554261088451, 2.3412381775101125, -0.48780589054756157, -0.033364082136507746, 0.4651796739262517, 0.9242234247009617, 0.3144660615165098, -0.7079321336091184, -0.3723738362591842, 1.4081943632788099, -0.03298058693953639, -12.565987119160338)","(0.0, 0.01021017612225158, -0.00039269908162506076, -0.00039269908162506076, -0.00039269908162506076, -0.009817477040626518, -0.001570796326500243, 0.01727875959150267, -0.0007853981632501215, -0.023954643979128706, -0.0023561944897503642, 0.007461282550876154, -0.003141592653000486, -0.003926990816250607, 0.00039269908162506076, 0.011388273367126762, 0.0)","(0.0, 0.0, -14.72, 10.884, 0.308, 5.1, 0.084, -2.648, 0.308, 7.772, -16.012, 0.06, -28.848, -0.024, 0.16, -0.14, -20.48)",2771712,1522677630,426085226,robotiq_force_torque_frame_id,-0.397000002861,-0.126999902725,0.13100128173800002,-0.0309999994934,-0.233999997377,-0.115999996662,0.0,0.0,0.0,0.0,0.0,0.0,0.0,0.0,0.0,0.0,3,"(0.5282605997723452, -0.8173976392976043, 0.13420757995327057, 0.9999377972961767, -0.0043522273978984765, -0.00938816830392258, 0.0041619648057486525)",0.3399999141690001,-0.06999993324260001,0.04000091552710003,0.0069999992846999995,0.0010000020270000132,-0.010999999940000005
1522706430.45,35177,1522677630,437484979,,2790445,1522677627,486962631,,0.793805170002,-0.44924741166599996,0.128711130032,0.030246946091700002,0.99946721463,-0.010612893938500002,0.0061461868795399995,-0.0018163966554700002,-0.0115729165332,6.75939055179e-05,-0.021678196591799998,0.0037191818772600005,-0.019761429594,0.406868606806,-0.097747951746,6.90401172638,0.604647755623,0.109096065164,0.38293313980099997,1103787,1522677627,495000064,,['l_gripper_l_finger_joint'],"(0.0032494800670444966,)","(0.0,)","(0.0,)",2771713,1522677630,434233335,robotiq_force_torque_frame_id,0.313000035286,-1.14699988365,0.12099914550799999,-0.0289999991655,-0.231999993324,-0.112000003457,0.0,0.0,0.0,0.0,0.0,0.0,0.0,0.0,0.0,0.0,3,"(0.5282605997723452, -0.8173976392976043, 0.13420757995327057, 0.9999377972961767, -0.0043522273978984765, -0.00938816830392258, 0.0041619648057486525)",0.710000038147,-1.019999980925,-0.010002136230000028,0.0020000003279000006,0.002000004052999993,0.00399999320500001
1522706430.49,35178,1522677630,447451114,,2790446,1522677627,496958565,,0.7944391289020001,-0.448271196589,0.129058454148,0.030248858973500003,0.9994681233220001,-0.0100715342849,0.00685865808464,0.0157976147185,0.019900029373200002,0.0026853340784,0.0183311831478,-0.0272304879149,0.023075774747700003,0.36658552289000007,-0.336422324181,6.936316967010001,0.7390527725220001,0.101029142737,0.396347433329,2790796,1522677627,495065282,,"['head_nod', 'head_pan', 'left_e0', 'left_e1', 'left_s0', 'left_s1', 'left_w0', 'left_w1', 'left_w2', 'right_e0', 'right_e1', 'right_s0', 'right_s1', 'right_w0', 'right_w1', 'right_w2', 'torso_t0']","(0.0, -0.1012427320004373, -0.9077331312311936, 1.5021506865367915, 0.27880100819817394, 0.6450389213058165, 2.3408546823131413, -0.4881893857445329, -0.03259709174256504, 0.46594666432019444, 0.9242234247009617, 0.3148495567134812, -0.7083156288060898, -0.37160684586524145, 1.4074273728848672, -0.032213596545593685, -12.565987119160338)","(0.0, -0.008246680714126275, 0.006675884387626033, -0.003926990816250607, -0.0070685834692510935, -0.006675884387626033, 0.0047123889795007284, 0.014922565101752308, 0.0047123889795007284, 0.01727875959150267, -0.01727875959150267, 0.012959069693627005, 0.008246680714126275, 0.006675884387626033, -0.012173671530376884, -0.005497787142750851, 0.0)","(0.0, 0.0, -14.652, 10.916, 0.28, 5.068, 0.096, -2.664, 0.28, 7.772, -16.044, -0.124, -28.82, -0.008, 0.168, -0.14, -20.48)",2771714,1522677630,446456542,robotiq_force_torque_frame_id,-0.33700006008100003,-1.5570002078999998,0.19099884033199999,-0.032999999821200006,-0.231000006199,-0.0879999995232,0.0,0.0,0.0,0.0,0.0,0.0,0.0,0.0,0.0,0.0,3,"(0.5282605997723452, -0.8173976392976043, 0.13420757995327057, 0.9999377972961767, -0.0043522273978984765, -0.00938816830392258, 0.0041619648057486525)",-0.650000095367,-0.4100003242499999,0.069999694824,-0.004000000655700005,0.000999987125000018,0.024000003933799988
1522706430.49,35179,1522677630,457434892,,2790447,1522677627,506966682,,0.794094637262,-0.44751967511299995,0.12832299392000002,0.029797365789700003,0.999489233228,-0.00973193477969,0.00621925219675,-0.004374296560689999,0.022278425750099997,-0.00413466144095,0.0166433045333,0.016139400643200002,0.0317361303624,0.6866393685340001,-0.378567457199,6.9297413826,0.7322221398350001,0.23761941492600003,0.379242956638,2790796,1522677627,495065282,,"['head_nod', 'head_pan', 'left_e0', 'left_e1', 'left_s0', 'left_s1', 'left_w0', 'left_w1', 'left_w2', 'right_e0', 'right_e1', 'right_s0', 'right_s1', 'right_w0', 'right_w1', 'right_w2', 'torso_t0']","(0.0, -0.1012427320004373, -0.9077331312311936, 1.5021506865367915, 0.27880100819817394, 0.6450389213058165, 2.3408546823131413, -0.4881893857445329, -0.03259709174256504, 0.46594666432019444, 0.9242234247009617, 0.3148495567134812, -0.7083156288060898, -0.37160684586524145, 1.4074273728848672, -0.032213596545593685, -12.565987119160338)","(0.0, -0.008246680714126275, 0.006675884387626033, -0.003926990816250607, -0.0070685834692510935, -0.006675884387626033, 0.0047123889795007284, 0.014922565101752308, 0.0047123889795007284, 0.01727875959150267, -0.01727875959150267, 0.012959069693627005, 0.008246680714126275, 0.006675884387626033, -0.012173671530376884, -0.005497787142750851, 0.0)","(0.0, 0.0, -14.652, 10.916, 0.28, 5.068, 0.096, -2.664, 0.28, 7.772, -16.044, -0.124, -28.82, -0.008, 0.168, -0.14, -20.48)",2771715,1522677630,454593667,robotiq_force_torque_frame_id,-0.926999974251,-0.92700009346,0.230999755859,-0.0399999991059,-0.224000006914,-0.0780000016093,0.0,0.0,0.0,0.0,0.0,0.0,0.0,0.0,0.0,0.0,3,"(0.5282605997723452, -0.8173976392976043, 0.13420757995327057, 0.9999377972961767, -0.0043522273978984765, -0.00938816830392258, 0.0041619648057486525)",-0.58999991417,0.6300001144399998,0.040000915527000025,-0.0069999992846999926,0.006999999285000003,0.009999997913900008
1522706430.49,35180,1522677630,467478990,,2790449,1522677627,526965765,,0.794289462109,-0.448633351935,0.128717718488,0.030467030094599997,0.9994640230959999,-0.0100189587231,0.00656102732676,-0.00571690170131,-0.0056392421050299995,-0.00370002216264,-0.00430230875367,0.010419224251100001,-0.00232432667095,0.37089556455600003,-0.204233363271,6.889202117919999,0.680622935295,0.09920512139799999,0.396211028099,2790796,1522677627,495065282,,"['head_nod', 'head_pan', 'left_e0', 'left_e1', 'left_s0', 'left_s1', 'left_w0', 'left_w1', 'left_w2', 'right_e0', 'right_e1', 'right_s0', 'right_s1', 'right_w0', 'right_w1', 'right_w2', 'torso_t0']","(0.0, -0.1012427320004373, -0.9077331312311936, 1.5021506865367915, 0.27880100819817394, 0.6450389213058165, 2.3408546823131413, -0.4881893857445329, -0.03259709174256504, 0.46594666432019444, 0.9242234247009617, 0.3148495567134812, -0.7083156288060898, -0.37160684586524145, 1.4074273728848672, -0.032213596545593685, -12.565987119160338)","(0.0, -0.008246680714126275, 0.006675884387626033, -0.003926990816250607, -0.0070685834692510935, -0.006675884387626033, 0.0047123889795007284, 0.014922565101752308, 0.0047123889795007284, 0.01727875959150267, -0.01727875959150267, 0.012959069693627005, 0.008246680714126275, 0.006675884387626033, -0.012173671530376884, -0.005497787142750851, 0.0)","(0.0, 0.0, -14.652, 10.916, 0.28, 5.068, 0.096, -2.664, 0.28, 7.772, -16.044, -0.124, -28.82, -0.008, 0.168, -0.14, -20.48)",2771716,1522677630,466797141,robotiq_force_torque_frame_id,-0.9869999170299999,-0.996999788284,0.09100036621089999,-0.0370000004768,-0.223000004888,-0.0839999988675,0.0,0.0,0.0,0.0,0.0,0.0,0.0,0.0,0.0,0.0,3,"(0.5282605997723452, -0.8173976392976043, 0.13420757995327057, 0.9999377972961767, -0.0043522273978984765, -0.00938816830392258, 0.0041619648057486525)",-0.05999994277899989,-0.06999969482400004,-0.13999938964810002,0.002999998629099998,0.0010000020259999798,-0.005999997258199996
1522706430.49,35181,1522677630,477463006,,2790449,1522677627,526965765,,0.794289462109,-0.448633351935,0.128717718488,0.030467030094599997,0.9994640230959999,-0.0100189587231,0.00656102732676,-0.00571690170131,-0.0056392421050299995,-0.00370002216264,-0.00430230875367,0.010419224251100001,-0.00232432667095,0.37089556455600003,-0.204233363271,6.889202117919999,0.680622935295,0.09920512139799999,0.396211028099,1103788,1522677627,531000064,,['r_gripper_l_finger_joint'],"(0.01994938171207905,)","(0.0,)","(0.0,)",2771717,1522677630,475014397,robotiq_force_torque_frame_id,-0.7369999170300001,-1.3870001316100002,0.09100036621089999,-0.035000000148999996,-0.222000002861,-0.097999997437,0.0,0.0,0.0,0.0,0.0,0.0,0.0,0.0,0.0,0.0,3,"(0.5282605997723452, -0.8173976392976043, 0.13420757995327057, 0.9999377972961767, -0.0043522273978984765, -0.00938816830392258, 0.0041619648057486525)",0.24999999999999978,-0.3900003433260002,0.0,0.002000000327800004,0.0010000020270000132,-0.013999998569500002
1522706430.53,35182,1522677630,487557888,,2790451,1522677627,546958710,,0.7944232397669999,-0.448796870285,0.128722789876,0.030626962714499998,0.9994559069969999,-0.0102187656833,0.00674210285516,-0.00190113039533,-0.0186003317641,0.00825884729354,-0.0051093507108199996,-0.0061510511591199996,-0.00826954146242,-0.060003332793699994,-0.24804542958700002,6.7256565094,0.7120776176450001,-0.0782188996673,0.394067823887,2790801,1522677627,545069207,,"['head_nod', 'head_pan', 'left_e0', 'left_e1', 'left_s0', 'left_s1', 'left_w0', 'left_w1', 'left_w2', 'right_e0', 'right_e1', 'right_s0', 'right_s1', 'right_w0', 'right_w1', 'right_w2', 'torso_t0']","(0.0, -0.1012427320004373, -0.9073496360342223, 1.5021506865367915, 0.2791845033951453, 0.6450389213058165, 2.3423886631010267, -0.48780589054756157, -0.033364082136507746, 0.4651796739262517, 0.9234564343070191, 0.3148495567134812, -0.7075486384121471, -0.37160684586524145, 1.4074273728848672, -0.032213596545593685, -12.565987119160338)","(0.0, -0.009817477040626518, -0.014137166938502187, -0.0019634954081253035, 0.008639379795751335, 0.005890486224375911, -0.006675884387626033, 0.0007853981632501215, 0.009424777959001457, 0.0019634954081253035, -0.01021017612225158, -0.022383847652628464, -0.006675884387626033, -0.0027488935713754254, 0.009424777959001457, -0.01610066234662749, 0.0)","(0.0, 0.0, -14.62, 10.948, 0.28, 5.036, 0.096, -2.648, 0.296, 7.772, -15.952, -0.152, -28.76, -0.016, 0.16, -0.128, -20.48)",2771718,1522677630,483149101,robotiq_force_torque_frame_id,-0.8770000219349999,-1.4270000934600002,0.260998535156,-0.039000000804699994,-0.226999998093,-0.10599999874800001,0.0,0.0,0.0,0.0,0.0,0.0,0.0,0.0,0.0,0.0,3,"(0.5282605997723452, -0.8173976392976043, 0.13420757995327057, 0.9999377972961767, -0.0043522273978984765, -0.00938816830392258, 0.0041619648057486525)",-0.1400001049049998,-0.03999996184999999,0.16999816894510003,-0.004000000655699998,-0.00499999523200001,-0.00800000131100001
1522706430.53,35183,1522677630,497466087,,2790451,1522677627,546958710,,0.7944232397669999,-0.448796870285,0.128722789876,0.030626962714499998,0.9994559069969999,-0.0102187656833,0.00674210285516,-0.00190113039533,-0.0186003317641,0.00825884729354,-0.0051093507108199996,-0.0061510511591199996,-0.00826954146242,-0.060003332793699994,-0.24804542958700002,6.7256565094,0.7120776176450001,-0.0782188996673,0.394067823887,2790801,1522677627,545069207,,"['head_nod', 'head_pan', 'left_e0', 'left_e1', 'left_s0', 'left_s1', 'left_w0', 'left_w1', 'left_w2', 'right_e0', 'right_e1', 'right_s0', 'right_s1', 'right_w0', 'right_w1', 'right_w2', 'torso_t0']","(0.0, -0.1012427320004373, -0.9073496360342223, 1.5021506865367915, 0.2791845033951453, 0.6450389213058165, 2.3423886631010267, -0.48780589054756157, -0.033364082136507746, 0.4651796739262517, 0.9234564343070191, 0.3148495567134812, -0.7075486384121471, -0.37160684586524145, 1.4074273728848672, -0.032213596545593685, -12.565987119160338)","(0.0, -0.009817477040626518, -0.014137166938502187, -0.0019634954081253035, 0.008639379795751335, 0.005890486224375911, -0.006675884387626033, 0.0007853981632501215, 0.009424777959001457, 0.0019634954081253035, -0.01021017612225158, -0.022383847652628464, -0.006675884387626033, -0.0027488935713754254, 0.009424777959001457, -0.01610066234662749, 0.0)","(0.0, 0.0, -14.62, 10.948, 0.28, 5.036, 0.096, -2.648, 0.296, 7.772, -15.952, -0.152, -28.76, -0.016, 0.16, -0.128, -20.48)",2771719,1522677630,495361147,robotiq_force_torque_frame_id,-0.7669998884199999,-1.3569999218000002,0.320999908447,-0.035000000148999996,-0.22499999403999998,-0.097000002861,0.0,0.0,0.0,0.0,0.0,0.0,0.0,0.0,0.0,0.0,3,"(0.5282605997723452, -0.8173976392976043, 0.13420757995327057, 0.9999377972961767, -0.0043522273978984765, -0.00938816830392258, 0.0041619648057486525)",0.11000013351500004,0.07000017166000005,0.06000137329099997,0.004000000655699998,0.0020000040530000207,0.008999995887000012
1522706430.53,35184,1522677630,507529020,,2790452,1522677627,556960646,,0.794083571694,-0.448329021086,0.129004792154,0.0302141647378,0.9994728598720001,-0.009992336053200001,0.0064233830001,0.00435176885055,0.0135269098441,0.00560866445238,0.0031247840197300004,-0.0058188434377700006,0.0140430441435,-0.140960708261,-0.056950330734299996,6.83113431931,0.63007068634,-0.102863967419,0.391532063484,2790801,1522677627,545069207,,"['head_nod', 'head_pan', 'left_e0', 'left_e1', 'left_s0', 'left_s1', 'left_w0', 'left_w1', 'left_w2', 'right_e0', 'right_e1', 'right_s0', 'right_s1', 'right_w0', 'right_w1', 'right_w2', 'torso_t0']","(0.0, -0.1012427320004373, -0.9073496360342223, 1.5021506865367915, 0.2791845033951453, 0.6450389213058165, 2.3423886631010267, -0.48780589054756157, -0.033364082136507746, 0.4651796739262517, 0.9234564343070191, 0.3148495567134812, -0.7075486384121471, -0.37160684586524145, 1.4074273728848672, -0.032213596545593685, -12.565987119160338)","(0.0, -0.009817477040626518, -0.014137166938502187, -0.0019634954081253035, 0.008639379795751335, 0.005890486224375911, -0.006675884387626033, 0.0007853981632501215, 0.009424777959001457, 0.0019634954081253035, -0.01021017612225158, -0.022383847652628464, -0.006675884387626033, -0.0027488935713754254, 0.009424777959001457, -0.01610066234662749, 0.0)","(0.0, 0.0, -14.62, 10.948, 0.28, 5.036, 0.096, -2.648, 0.296, 7.772, -15.952, -0.152, -28.76, -0.016, 0.16, -0.128, -20.48)",2771720,1522677630,503509771,robotiq_force_torque_frame_id,-0.587000060081,-1.12699990273,0.370999145508,-0.032999999821200006,-0.226999998093,-0.101000003517,0.0,0.0,0.0,0.0,0.0,0.0,0.0,0.0,0.0,0.0,3,"(0.5282605997723452, -0.8173976392976043, 0.13420757995327057, 0.9999377972961767, -0.0043522273978984765, -0.00938816830392258, 0.0041619648057486525)",0.17999982833899986,0.23000001907000023,0.04999923706100001,0.0020000003277999903,-0.0020000040530000207,-0.004000000656000008
1522706430.53,35185,1522677630,517446994,,2790453,1522677627,566959153,,0.79395953409,-0.448568538602,0.128668098425,0.030535957313599996,0.999462305381,-0.0101451884106,0.006303220186470001,0.000595190437734,0.0018055298607600001,-0.005785051791039999,0.0153814517894,-0.00150425664006,-0.010659556293200001,0.598362326622,-0.292551994324,6.80213069916,0.702568054199,0.179881542921,0.375593960285,2790801,1522677627,545069207,,"['head_nod', 'head_pan', 'left_e0', 'left_e1', 'left_s0', 'left_s1', 'left_w0', 'left_w1', 'left_w2', 'right_e0', 'right_e1', 'right_s0', 'right_s1', 'right_w0', 'right_w1', 'right_w2', 'torso_t0']","(0.0, -0.1012427320004373, -0.9073496360342223, 1.5021506865367915, 0.2791845033951453, 0.6450389213058165, 2.3423886631010267, -0.48780589054756157, -0.033364082136507746, 0.4651796739262517, 0.9234564343070191, 0.3148495567134812, -0.7075486384121471, -0.37160684586524145, 1.4074273728848672, -0.032213596545593685, -12.565987119160338)","(0.0, -0.009817477040626518, -0.014137166938502187, -0.0019634954081253035, 0.008639379795751335, 0.005890486224375911, -0.006675884387626033, 0.0007853981632501215, 0.009424777959001457, 0.0019634954081253035, -0.01021017612225158, -0.022383847652628464, -0.006675884387626033, -0.0027488935713754254, 0.009424777959001457, -0.01610066234662749, 0.0)","(0.0, 0.0, -14.62, 10.948, 0.28, 5.036, 0.096, -2.648, 0.296, 7.772, -15.952, -0.152, -28.76, -0.016, 0.16, -0.128, -20.48)",2771721,1522677630,515708600,robotiq_force_torque_frame_id,-0.48699991703,-0.827000188828,0.39099960327100003,-0.029999999329400003,-0.23499999940400002,-0.107000000775,0.0,0.0,0.0,0.0,0.0,0.0,0.0,0.0,0.0,0.0,3,"(0.5282605997723452, -0.8173976392976043, 0.13420757995327057, 0.9999377972961767, -0.0043522273978984765, -0.00938816830392258, 0.0041619648057486525)",0.10000014305100002,0.299999713902,0.020000457763000024,0.0030000004918000027,-0.00800000131100001,-0.005999997258000003
1522706430.57,35186,1522677630,527455091,,2790454,1522677627,576963844,,0.7937385705419999,-0.449318085233,0.128575300131,0.0303994457554,0.9994645284020001,-0.0104147005982,0.0061696171576499995,0.00273600426666,0.0108445326997,-0.00014105703763400002,0.0132324423413,-0.00539038592191,0.00696587264243,-0.0497525334358,-0.17306061089000002,6.7804937362699995,0.6634894609449999,-0.0658093541861,0.38163590431199995,1103790,1522677627,580999936,,['r_gripper_l_finger_joint'],"(0.01994938171207905,)","(0.0,)","(0.0,)",2771722,1522677630,523842182,robotiq_force_torque_frame_id,0.153000187874,-0.20700006485,0.471001434326,-0.0260000005364,-0.233999997377,-0.101999998093,0.0,0.0,0.0,0.0,0.0,0.0,0.0,0.0,0.0,0.0,3,"(0.6798689515691015, -0.15902418179173636, 0.03216353994872226, -0.1491840807343422, 0.9880505137754618, 0.03802752238506246, -0.007362053025426368)",0.6400001049040001,0.620000123978,0.08000183105499997,0.003999998793000004,0.0010000020270000132,0.0050000026820000015
1522706430.57,35187,1522677630,537698030,,2790456,1522677627,596967217,,0.79415262287,-0.448509488231,0.129177555317,0.0303766559958,0.999465099363,-0.010119618907100001,0.0066608736804099995,-0.00134320140774,0.008498221464420001,-0.00914496025466,0.006825394111479999,0.0086255902861,-0.00035234146867300003,-0.0478916987777,-0.09416401386260001,6.771378993990001,0.670954763889,-0.0568389855325,0.40874060988399996,2790806,1522677627,595055415,,"['head_nod', 'head_pan', 'left_e0', 'left_e1', 'left_s0', 'left_s1', 'left_w0', 'left_w1', 'left_w2', 'right_e0', 'right_e1', 'right_s0', 'right_s1', 'right_w0', 'right_w1', 'right_w2', 'torso_t0']","(0.0, -0.1012427320004373, -0.9069661408372509, 1.50176719133982, 0.27880100819817394, 0.6454224165027879, 2.3427721582979983, -0.4881893857445329, -0.03298058693953639, 0.46594666432019444, 0.9246069198979331, 0.3144660615165098, -0.7086991240030611, -0.37160684586524145, 1.4078108680818384, -0.032213596545593685, -12.565987119160338)","(0.0, 0.004319689897875668, -0.0019634954081253035, 0.01060287520387664, 0.01021017612225158, 0.0, 0.0019634954081253035, -0.004319689897875668, 0.00510508806112579, -0.003926990816250607, 0.008246680714126275, 0.009032078877376396, 0.008639379795751335, 0.00510508806112579, -0.007461282550876154, 0.009032078877376396, 0.0)","(0.0, 0.0, -14.62, 10.916, 0.124, 5.036, 0.084, -2.664, 0.308, 7.868, -15.924, -0.028, -28.732, -0.008, 0.18, -0.14, -20.48)",2771723,1522677630,536095543,robotiq_force_torque_frame_id,0.202999901772,-0.0269999980927,0.471001434326,-0.0280000008643,-0.236000001431,-0.10400000214600001,0.0,0.0,0.0,0.0,0.0,0.0,0.0,0.0,0.0,0.0,3,"(0.6798689515691015, -0.15902418179173636, 0.03216353994872226, -0.1491840807343422, 0.9880505137754618, 0.03802752238506246, -0.007362053025426368)",0.04999971389800001,0.1800000667573,0.0,-0.0020000003279000006,-0.0020000040539999986,-0.002000004053000007
1522706430.57,35188,1522677630,547449111,,2790456,1522677627,596967217,,0.79415262287,-0.448509488231,0.129177555317,0.0303766559958,0.999465099363,-0.010119618907100001,0.0066608736804099995,-0.00134320140774,0.008498221464420001,-0.00914496025466,0.006825394111479999,0.0086255902861,-0.00035234146867300003,-0.0478916987777,-0.09416401386260001,6.771378993990001,0.670954763889,-0.0568389855325,0.40874060988399996,2790806,1522677627,595055415,,"['head_nod', 'head_pan', 'left_e0', 'left_e1', 'left_s0', 'left_s1', 'left_w0', 'left_w1', 'left_w2', 'right_e0', 'right_e1', 'right_s0', 'right_s1', 'right_w0', 'right_w1', 'right_w2', 'torso_t0']","(0.0, -0.1012427320004373, -0.9069661408372509, 1.50176719133982, 0.27880100819817394, 0.6454224165027879, 2.3427721582979983, -0.4881893857445329, -0.03298058693953639, 0.46594666432019444, 0.9246069198979331, 0.3144660615165098, -0.7086991240030611, -0.37160684586524145, 1.4078108680818384, -0.032213596545593685, -12.565987119160338)","(0.0, 0.004319689897875668, -0.0019634954081253035, 0.01060287520387664, 0.01021017612225158, 0.0, 0.0019634954081253035, -0.004319689897875668, 0.00510508806112579, -0.003926990816250607, 0.008246680714126275, 0.009032078877376396, 0.008639379795751335, 0.00510508806112579, -0.007461282550876154, 0.009032078877376396, 0.0)","(0.0, 0.0, -14.62, 10.916, 0.124, 5.036, 0.084, -2.664, 0.308, 7.868, -15.924, -0.028, -28.732, -0.008, 0.18, -0.14, -20.48)",2771724,1522677630,544237734,robotiq_force_torque_frame_id,0.273000073433,-0.0469999790192,0.38100128173799996,-0.0309999994934,-0.237000003457,-0.11299999803300001,0.0,0.0,0.0,0.0,0.0,0.0,0.0,0.0,0.0,0.0,3,"(0.6798689515691015, -0.15902418179173636, 0.03216353994872226, -0.1491840807343422, 0.9880505137754618, 0.03802752238506246, -0.007362053025426368)",0.07000017166099998,-0.0199999809265,-0.09000015258800004,-0.0029999986291000015,-0.0010000020260000075,-0.008999995886999998
1522706430.57,35189,1522677630,557432889,,2790457,1522677627,606972253,,0.794607593843,-0.448050922399,0.129401152504,0.030059071045900002,0.999470887836,-0.010293180423,0.0069603916594099995,0.0125901825734,0.010451927299799999,0.0121676976143,0.0028025970335300004,-0.0315149489459,0.00544942766408,-0.19499814510299998,-0.202777117491,6.74020004272,0.703460216522,-0.10019210726,0.38655492663400004,2790806,1522677627,595055415,,"['head_nod', 'head_pan', 'left_e0', 'left_e1', 'left_s0', 'left_s1', 'left_w0', 'left_w1', 'left_w2', 'right_e0', 'right_e1', 'right_s0', 'right_s1', 'right_w0', 'right_w1', 'right_w2', 'torso_t0']","(0.0, -0.1012427320004373, -0.9069661408372509, 1.50176719133982, 0.27880100819817394, 0.6454224165027879, 2.3427721582979983, -0.4881893857445329, -0.03298058693953639, 0.46594666432019444, 0.9246069198979331, 0.3144660615165098, -0.7086991240030611, -0.37160684586524145, 1.4078108680818384, -0.032213596545593685, -12.565987119160338)","(0.0, 0.004319689897875668, -0.0019634954081253035, 0.01060287520387664, 0.01021017612225158, 0.0, 0.0019634954081253035, -0.004319689897875668, 0.00510508806112579, -0.003926990816250607, 0.008246680714126275, 0.009032078877376396, 0.008639379795751335, 0.00510508806112579, -0.007461282550876154, 0.009032078877376396, 0.0)","(0.0, 0.0, -14.62, 10.916, 0.124, 5.036, 0.084, -2.664, 0.308, 7.868, -15.924, -0.028, -28.732, -0.008, 0.18, -0.14, -20.48)",2771725,1522677630,556426893,robotiq_force_torque_frame_id,0.12299997806500002,-0.5669999599459999,0.181000518799,-0.0289999991655,-0.23499999940400002,-0.103000000119,0.0,0.0,0.0,0.0,0.0,0.0,0.0,0.0,0.0,0.0,3,"(0.6798689515691015, -0.15902418179173636, 0.03216353994872226, -0.1491840807343422, 0.9880505137754618, 0.03802752238506246, -0.007362053025426368)",-0.15000009536799996,-0.5199999809267999,-0.20000076293899996,0.0020000003279000006,0.002000004052999993,0.009999997914000011
1522706430.57,35190,1522677630,567534923,,2790458,1522677627,616971923,,0.7943351538660001,-0.44847416041500004,0.128548050859,0.030436196623400004,0.999465000334,-0.009922296414020001,0.00670067736135,-0.0042112485112,-0.00243694181057,-0.000886492391535,0.008587881393000001,0.00770348061949,-0.00394068478406,0.348183274269,-0.108562842011,6.74023580551,0.6071320176120001,0.11317153275,0.39471393823600004,2790806,1522677627,595055415,,"['head_nod', 'head_pan', 'left_e0', 'left_e1', 'left_s0', 'left_s1', 'left_w0', 'left_w1', 'left_w2', 'right_e0', 'right_e1', 'right_s0', 'right_s1', 'right_w0', 'right_w1', 'right_w2', 'torso_t0']","(0.0, -0.1012427320004373, -0.9069661408372509, 1.50176719133982, 0.27880100819817394, 0.6454224165027879, 2.3427721582979983, -0.4881893857445329, -0.03298058693953639, 0.46594666432019444, 0.9246069198979331, 0.3144660615165098, -0.7086991240030611, -0.37160684586524145, 1.4078108680818384, -0.032213596545593685, -12.565987119160338)","(0.0, 0.004319689897875668, -0.0019634954081253035, 0.01060287520387664, 0.01021017612225158, 0.0, 0.0019634954081253035, -0.004319689897875668, 0.00510508806112579, -0.003926990816250607, 0.008246680714126275, 0.009032078877376396, 0.008639379795751335, 0.00510508806112579, -0.007461282550876154, 0.009032078877376396, 0.0)","(0.0, 0.0, -14.62, 10.916, 0.124, 5.036, 0.084, -2.664, 0.308, 7.868, -15.924, -0.028, -28.732, -0.008, 0.18, -0.14, -20.48)",2771726,1522677630,564539577,robotiq_force_torque_frame_id,-0.8770000219349999,-1.7670002460499998,0.221001434326,-0.029999999329400003,-0.23299999535100002,-0.0920000001788,0.0,0.0,0.0,0.0,0.0,0.0,0.0,0.0,0.0,0.0,3,"(0.6798689515691015, -0.15902418179173636, 0.03216353994872226, -0.1491840807343422, 0.9880505137754618, 0.03802752238506246, -0.007362053025426368)",-1.0,-1.2000002861039998,0.040000915527,-0.001000000163900002,0.002000004052999993,0.010999999940199998
1522706430.58,35191,1522677630,577477931,,2790459,1522677627,626964268,,0.794372960404,-0.44856551704899994,0.129144749815,0.030057820891999997,0.999472957458,-0.010216727787600001,0.006778877979369999,0.00020432161440200002,-0.0025414484075999997,0.00274981482477,0.005102937768109999,-0.000790727921222,-0.019741219219500002,-0.261928498745,-0.172643780708,6.7675900459300005,0.714444041252,-0.139954686165,0.412088125944,1103792,1522677627,631000064,,['r_gripper_l_finger_joint'],"(0.01994938171207905,)","(0.0,)","(0.0,)",2771727,1522677630,576753880,robotiq_force_torque_frame_id,-0.536999869347,-2.16699986458,0.28099899291999997,-0.0260000005364,-0.22599999606600002,-0.09399999678130001,0.0,0.0,0.0,0.0,0.0,0.0,0.0,0.0,0.0,0.0,3,"(0.6798689515691015, -0.15902418179173636, 0.03216353994872226, -0.1491840807343422, 0.9880505137754618, 0.03802752238506246, -0.007362053025426368)",0.340000152588,-0.3999996185300003,0.05999755859399997,0.003999998793000004,0.006999999285000003,-0.001999996602500012
1522706430.59,35192,1522677630,587431907,,2790461,1522677627,646960985,,0.794209486722,-0.44875525159400004,0.128842052368,0.030563204732499998,0.9994586798549999,-0.0102656993269,0.006546235295569999,0.00847463389823,-0.00117140138246,0.006536492944189999,-0.0014989601409100002,-0.019918036386,0.0026469333348800002,0.003921836614610001,-0.143664240837,6.77759075165,0.6455421447749999,-0.039719916880099994,0.379520326853,2790811,1522677627,645070371,,"['head_nod', 'head_pan', 'left_e0', 'left_e1', 'left_s0', 'left_s1', 'left_w0', 'left_w1', 'left_w2', 'right_e0', 'right_e1', 'right_s0', 'right_s1', 'right_w0', 'right_w1', 'right_w2', 'torso_t0']","(0.0, -0.1012427320004373, -0.9077331312311936, 1.5021506865367915, 0.27880100819817394, 0.6446554261088451, 2.341621672707084, -0.4881893857445329, -0.03259709174256504, 0.4651796739262517, 0.9238399295039904, 0.3148495567134812, -0.7079321336091184, -0.37160684586524145, 1.4078108680818384, -0.032213596545593685, -12.565987119160338)","(0.0, 0.0047123889795007284, -0.008246680714126275, 0.01610066234662749, 0.007461282550876154, 0.013744467856877126, -0.00510508806112579, -0.014529866020127248, 0.009032078877376396, -0.004319689897875668, -0.014137166938502187, 0.0035342917346255468, -0.003141592653000486, 0.005497787142750851, -0.00510508806112579, -0.007461282550876154, 0.0)","(0.0, 0.0, -14.588, 10.916, 0.184, 5.132, 0.068, -2.676, 0.296, 7.744, -15.952, -0.06, -28.792, -0.008, 0.168, -0.128, -20.48)",2771728,1522677630,584908406,robotiq_force_torque_frame_id,-0.137000012398,-1.62699990273,0.230999755859,-0.0320000015199,-0.229000002146,-0.10000000149,0.0,0.0,0.0,0.0,0.0,0.0,0.0,0.0,0.0,0.0,3,"(0.6798689515691015, -0.15902418179173636, 0.03216353994872226, -0.1491840807343422, 0.9880505137754618, 0.03802752238506246, -0.007362053025426368)",0.399999856949,0.5399999618500002,-0.04999923706099996,-0.006000000983499999,-0.0030000060799999784,-0.006000004708699991
