,Unnamed: 0,.header.seq,.header.stamp.secs,.header.stamp.nsecs,.header.frame_id,.endpoint_state.header.seq,.endpoint_state.header.stamp.secs,.endpoint_state.header.stamp.nsecs,.endpoint_state.header.frame_id,.endpoint_state.pose.position.x,.endpoint_state.pose.position.y,.endpoint_state.pose.position.z,.endpoint_state.pose.orientation.x,.endpoint_state.pose.orientation.y,.endpoint_state.pose.orientation.z,.endpoint_state.pose.orientation.w,.endpoint_state.twist.linear.x,.endpoint_state.twist.linear.y,.endpoint_state.twist.linear.z,.endpoint_state.twist.angular.x,.endpoint_state.twist.angular.y,.endpoint_state.twist.angular.z,.endpoint_state.wrench.force.x,.endpoint_state.wrench.force.y,.endpoint_state.wrench.force.z,.endpoint_state.wrench.torque.x,.endpoint_state.wrench.torque.y,.endpoint_state.wrench.torque.z,.joint_state.header.seq,.joint_state.header.stamp.secs,.joint_state.header.stamp.nsecs,.joint_state.header.frame_id,.joint_state.name,.joint_state.position,.joint_state.velocity,.joint_state.effort,.wrench_stamped.header.seq,.wrench_stamped.header.stamp.secs,.wrench_stamped.header.stamp.nsecs,.wrench_stamped.header.frame_id,.wrench_stamped.wrench.force.x,.wrench_stamped.wrench.force.y,.wrench_stamped.wrench.force.z,.wrench_stamped.wrench.torque.x,.wrench_stamped.wrench.torque.y,.wrench_stamped.wrench.torque.z,.tag
0,27.690913,2776.5,1518246873.0,49018606.5,,2125593.5,1518246873.0,49018606.5,,0.751253100075,-0.287668502115,0.114639665312,-0.035083253926,0.99935326511,-0.00177766530571,0.00768133867857,-0.0371985323254,0.0297690000108,-0.0488796847225,0.0165034299139,0.0832592275303,0.00113456198078,3.8286061287,1.1383471489,3.99641597271,-0.0632733702657,1.63782483339,0.284292966127,1483219.0,1518246873.0,42539205.5,,,,,,268395.5,1518246873.0,52254413.5,,-0.676000003889,1.21499997973,-0.238999988883,0.0449999999255,-0.0300000002608,0.0254999995232,3.0
1,27.7934771026,2786.5,1518246873.0,144019235.0,,2125603.0,1518246873.0,144019235.0,,0.747294044147,-0.282520204967,0.108699770525,-0.0381008948392,0.999267853386,-0.000395348804239,0.0034529264854,-0.0371857853645,0.0478336495916,-0.064276370145,0.0292281282919,0.072962750919,0.0481604420087,3.73287630081,1.1347681284,4.64046239853,-0.0951524600387,1.57801759243,0.274886846542,1483226.0,1518246873.0,143054431.5,,,,,,268404.5,1518246873.0,142996512.0,,0.31900001578,0.080000004172,-0.353999996558,0.0439999997616,-0.0224999999627,0.0140000004321,3.0
2,27.8960412051,2797.5,1518246873.0,259033012.5,,2125614.5,1518246873.0,259033012.5,,0.743892161431,-0.279578970496,0.102031415985,-0.0429471863177,0.99907491662,-0.00213869268559,0.000408361078197,-0.029029286161,0.0232296437894,-0.0662530685927,-0.0379264533864,0.0448531786949,0.0882730361661,2.18814152479,0.684081912041,5.84804725647,0.0553710721433,0.984464824202,0.264278352261,2125958.0,1518246873.0,242136399.5,,,,,,268416.0,1518246873.0,256420568.5,,0.0489999901505,1.39999996908,-0.088999982923,0.011999999173,0.00150000024585,-0.00400000065565,3.0
3,27.9986053077,2807.5,1518246873.0,359024739.5,,2125624.5,1518246873.0,359024739.5,,0.739813301053,-0.27712271694,0.0962382562232,-0.0471211901442,0.99887572463,-0.00331125185518,-0.00391960153518,-0.0575172082679,0.0382216177746,-0.0578391169634,-0.0215226212894,0.125291068414,0.0986172996497,3.21060383319,0.76119235158,5.66027021408,-0.0272043459117,1.49316710234,0.231846123934,2125968.5,1518246873.0,347086220.0,,,,,,268425.5,1518246873.0,353312369.0,,-1.01599994786,0.244999966026,0.0260000042615,0.027499999851,0.0,0.0260000005364,3.0
4,28.1011694103,2819.5,1518246873.0,479021726.0,,2125636.5,1518246873.0,479021726.0,,0.733887334989,-0.273704924764,0.0899723812695,-0.0489843645649,0.998738470099,-0.00344111686604,-0.0104839400541,-0.0525969360579,0.0262573384505,-0.0560775705428,-0.0223827106655,0.114683889572,0.0816946397236,3.02756154537,0.467966616153,5.32810401916,0.165977396071,1.3399758339,0.316846266389,2125981.5,1518246873.0,477086998.0,,,,,,268438.5,1518246873.0,481318304.5,,1.33400001638,1.04499998074,0.141000013798,0.0144999995828,0.00400000007357,0.0305000003427,3.0
5,28.2037335128,2828.5,1518246873.0,564026069.0,,2125645.0,1518246873.0,564026069.0,,0.730263032544,-0.273012182872,0.0857864208021,-0.0516812827874,0.998551739295,-0.00438441072952,-0.0142914625892,-0.00620721272745,0.0158142476709,-0.0424685052272,-0.0157031236309,-0.00305711540915,0.0690340049544,3.67903923988,0.7396479249,5.59562540054,-0.0205861032009,1.39480650425,0.234035342932,1483255.5,1518246873.0,560040746.5,,,,,,268447.5,1518246873.0,572399704.0,,-0.05599999167,-0.595000007749,0.0059999935329,0.00200000003679,0.0285000000149,0.050000000745,3.0
6,28.3062976154,2838.5,1518246873.0,659021781.5,,2125655.0,1518246873.0,664021464.5,,0.730445780651,-0.272357312402,0.0825459611724,-0.0529549968392,0.998492736303,-0.005001067039,-0.0135225383551,0.00150955832188,0.00994806630025,-0.0262359522072,-0.00023174408535,-0.0174074210485,0.0120356759899,1.96678897739,0.989917874334,5.52669405937,-0.155977874994,1.0629940331,0.216158665716,1483262.5,1518246873.0,661036973.5,,,,,,268456.5,1518246873.0,663057084.0,,-0.245999996737,0.294999977946,0.216000001877,0.0205000005662,0.0235000001267,0.0230000000447,3.0
7,28.4088617179,2846.5,1518246873.0,749023069.0,,2125663.5,1518246873.0,749023069.0,,0.729862082698,-0.270837479409,0.0806884371199,-0.0532521925356,0.998476495214,-0.00465489688657,-0.0136766557427,-0.0114846241883,0.0124613241049,-0.0307987466584,0.00472218434136,0.012541405071,-0.0218809767916,5.2156727314,1.27396470308,4.85079956055,-0.285814404488,2.24096632004,0.193698689341,2126007.0,1518246873.0,732119810.0,,,,,,268465.0,1518246873.0,747599402.5,,0.209000008926,1.28499998003,-0.0539999939501,0.0290000000969,0.0104999998584,-0.00150000001303,3.0
8,28.5114258205,2860.5,1518246873.0,889024816.0,,2125677.5,1518246873.0,889024816.0,,0.728106125157,-0.270458218607,0.0761312285879,-0.0554562200618,0.998326859356,-0.00615692282035,-0.0151683191022,0.00221991859796,0.00628086171003,-0.0330144714586,0.00982810155399,-0.0224286351815,0.0144172404625,4.93376684189,0.948107838632,5.30350399018,-0.0793945603072,2.23946094512,0.201529413461,2126022.0,1518246873.0,882079888.0,,,,,,268479.0,1518246873.0,887858048.5,,-0.185999994353,1.43999998123,0.336000006646,0.0339999999851,0.011000000406,0.0175000000745,3.0
9,28.6139899231,2870.5,1518246873.0,984024685.0,,2125687.0,1518246873.0,984024685.0,,0.727296192152,-0.268907295512,0.0733145196069,-0.056569174268,0.998266280422,-0.00516708845809,-0.015416325498,-0.0135542901221,0.0428707983148,-0.0391705707286,0.0438620703774,0.0130373627996,0.0578226665489,3.26063084602,1.1577988863,5.00422048569,-0.24094620347,1.5036585331,0.197163283825,2126032.0,1518246873.0,982077540.0,,,,,,268488.5,1518246873.0,983104140.0,,-0.195999984815,2.38500001133,0.065999995917,0.00450000003911,0.0100000000093,-0.0135000003502,3.0
10,28.7165540256,2877.5,1518246874.0,54023786.0,,2125694.0,1518246874.0,54023786.0,,0.726508114343,-0.268268205293,0.0709369496955,-0.0580365976421,0.998169881814,-0.0054874376004,-0.0160788184038,-0.0120643997803,-0.00816724942954,-0.0321550901787,-0.0305030816974,0.0118786206113,0.0429558608451,3.3487508297,1.24987494946,4.20460987091,-0.343477934599,1.53386294842,0.176343798637,1483289.0,1518246874.0,48547746.0,,,,,,268496.0,1518246874.0,57660755.5,,-0.781000022965,3.55499996841,-0.788999985903,0.0185000002384,0.0369999995455,-0.00100000016395,3.0
11,28.8191181282,2887.5,1518246874.0,159024629.5,,2125704.5,1518246874.0,159024629.5,,0.725078077483,-0.266804672315,0.0677046963174,-0.0564181597821,0.998243886372,-0.0047125707332,-0.017430375109,-0.0196383106982,-4.6114541485e-05,-0.0313512635068,0.0130262915995,0.0643435470263,-0.0469401155755,2.38049423695,1.5145405531,3.96762502193,-0.438108831644,1.07698094845,0.175952211022,2126048.0,1518246874.0,142104218.5,,,,,,268506.0,1518246874.0,158284041.5,,-0.391000007466,1.88999997675,-0.114000003785,0.0235000001266,-0.00649999990128,0.0229999991134,3.0
12,28.9216822308,2900.5,1518246874.0,284016758.0,,2125717.0,1518246874.0,284016758.0,,0.724596597178,-0.265806840746,0.0628941970715,-0.0591505347422,0.998079972463,-0.00518070618117,-0.0176279066065,-0.00721916599095,0.00597966448206,-0.0562977576332,-0.022827571017,-0.000166881185544,0.0531473216079,5.08377838135,1.16161465645,4.35532808304,-0.277321875095,2.20366430283,0.180342823267,2126062.0,1518246874.0,282096725.0,,,,,,268518.5,1518246874.0,283638731.5,,-1.48100004084,1.68499997109,-0.558999992907,0.0140000001993,0.035500000231,0.0205000005662,3.0
13,29.0242463333,2909.5,1518246874.0,374030062.0,,2125726.0,1518246874.0,374030062.0,,0.723590981281,-0.264856975037,0.0584274335623,-0.0601010316932,0.998001792709,-0.00493807658328,-0.0188653952718,-0.0139138313278,0.0196063286492,-0.0519565489196,0.0223345790443,0.0256025315117,0.0200643031378,2.78669071198,0.955690085888,4.40731811523,-0.18930080533,1.29421031475,0.190906256437,2126071.0,1518246874.0,372106332.0,,,,,,268528.5,1518246874.0,382302121.5,,0.18400000669,1.49499997348,-0.57399999816,0.0150000003632,0.0180000001565,0.0344999991358,3.0
14,29.1268104359,2920.5,1518246874.0,479027142.5,,2125736.5,1518246874.0,479027142.5,,0.723056176099,-0.26446704518,0.0544163917307,-0.059726991799,0.998016878136,-0.00407731788907,-0.0194499060509,0.00204862236939,-0.0027847877651,-0.0479015482292,0.0219040977363,-0.00831896025531,-0.0215002410544,4.82375836372,0.924904286864,4.3900783062,-0.237475380301,2.04079592228,0.18913411349,2126081.5,1518246874.0,477096436.0,,,,,,268539.0,1518246874.0,486992012.0,,-0.650999997929,3.19999994934,-0.203999985009,0.0109999999404,0.0320000015199,0.0250000003725,3.0
15,29.2293745385,2930.5,1518246874.0,589017768.0,,2125747.5,1518246874.0,589017768.0,,0.722870141797,-0.264747576835,0.0502275926299,-0.0591397258496,0.998038325823,-0.00467596139223,-0.0200007740216,0.00352528264327,-0.0183490918674,-0.0399062432259,-0.0112169770904,-0.00013522490406,-0.0573111862844,3.71215331554,0.874422192574,4.19677567482,-0.190316207707,1.55167490244,0.147871680558,1483327.0,1518246874.0,585044390.0,,,,,,268549.0,1518246874.0,589498993.0,,0.349000002071,2.96999993026,-0.154000002891,0.00999999977648,0.0109999999404,0.01600000076,3.0
16,29.331938641,2942.5,1518246874.0,704027274.0,,2125759.5,1518246874.0,709027873.5,,0.723848669993,-0.265963702787,0.0465660518367,-0.0573737325217,0.998165519007,-0.00418385284302,-0.0188764560606,0.0112199713562,-0.0259720093281,-0.0418155336944,0.0141001806474,-0.0311103510069,-0.0394442625973,3.49162614345,0.826083958149,3.53701722622,-0.0125913247466,1.45702874661,0.22184856981,1483335.0,1518246874.0,695537703.5,,,,,,268560.5,1518246874.0,704570883.5,,-0.420999978855,2.12999995649,-0.893999997527,0.00749999983235,0.0224999999628,0.0190000003203,3.0
17,29.4345027436,2950.5,1518246874.0,789037110.5,,2125767.5,1518246874.0,789037110.5,,0.724138206667,-0.266153052907,0.0437787019428,-0.0573290107793,0.998173833281,-0.00381484019854,-0.0186490959276,-0.00559961435649,-0.029325542949,-0.0368650235287,-0.0199550616594,0.0130453115751,-0.0212199417188,3.89257967472,1.08375966549,3.45535087586,-0.279896453023,1.5381461382,0.212741434574,1483341.0,1518246874.0,786038358.0,,,,,,268568.5,1518246874.0,784898198.5,,-2.00599989779,0.779999992251,-0.583999995142,0.0215000007302,0.00799999968151,0.0390000008046,3.0
18,29.5370668462,2962.5,1518246874.0,904024015.0,,2125779.0,1518246874.0,904024015.0,,0.725969774227,-0.269640998366,0.0401730087615,-0.056670148584,0.998234624951,-0.00591877505043,-0.016765915126,0.00477967530319,-0.0177896889135,-0.0472896085284,0.000336214928209,-0.00863233640637,-0.0321249193416,3.51390552521,1.00939536095,3.69341087341,-0.106545500457,1.51291143894,0.213405400515,840574.0,1518246874.0,892000000.0,,,,,,268580.5,1518246874.0,904559399.5,,1.04400002472,2.85999997556,-0.15399998799,0.0250000003725,0.010000000475,-0.0129999998026,3.0
19,29.6396309487,2972.5,1518246874.5,504021898.5,,2125789.0,1518246874.5,504021898.5,,0.726432568558,-0.268595609672,0.0368244345001,-0.0571452638761,0.998216350255,-0.00509847320276,-0.0165039858485,0.00540504368285,0.0002179031473,-0.024813981916,0.0300658986158,-0.0015506550854,-0.0387394312138,2.51330447197,1.42151105404,4.024674654,-0.42893448472,1.04649224877,0.127398483456,1483356.5,1518246874.5,502541853.0,,,,,,268591.0,1518246874.5,507423246.0,,-0.086000000313,1.8349999696,-2.08900003508,-0.0614999989045,0.0965000018478,-0.0134999998845,3.0
20,29.7421950513,2983.5,1518246875.0,119027837.0,,2125800.5,1518246875.0,119027837.0,,0.726304060255,-0.268210168217,0.0366996839817,-0.0554174965324,0.998316364799,-0.00376380907052,-0.0167012093112,0.00878252406482,-0.00846851368721,0.00446629009161,-0.0345383646889,-0.0239725882839,0.0197369717813,3.85895001889,1.24230253697,0.759674847126,-0.294340223074,1.17977827788,0.155178420245,2126145.0,1518246875.0,112117648.0,,,,,,268602.0,1518246875.0,118441814.5,,-0.0759999949486,1.60499998033,-4.66399993375,-0.107999999077,0.122999999672,-0.0590000003576,-1.0
21,29.8447591538,2991.5,1518246875.0,194025215.0,,2125808.0,1518246875.0,194025215.0,,0.727395073605,-0.267483812342,0.0361578556087,-0.0558004276908,0.998319461323,-0.00325717454547,-0.0152956276979,0.00932542151723,0.0236873876012,-0.0143175853586,0.0194185063071,-0.00761775251194,0.0194537554509,4.17364501953,1.20364534855,1.04054415226,-0.332724273205,1.60386288166,0.183155894279,840586.0,1518246875.0,193999872.0,,,,,,268609.5,1518246875.0,194423861.5,,0.119000005349,1.50499997139,-4.39900006726,-0.0705000013113,0.154500000179,-0.0389999989421,-1.0
22,29.9473232564,3003.5,1518246875.0,319052607.5,,2125820.5,1518246875.0,319052607.5,,0.727272163844,-0.267042863031,0.036553568804,-0.0546689914509,0.998380258748,-0.00318059523653,-0.0154254226792,-0.00515036118236,0.0118440613638,-0.00235753205764,-0.00542911766247,0.0144447776646,-0.00992330456519,4.19265556336,1.16563802958,0.803775250912,-0.435073524714,1.54257982969,0.145060546696,2126165.0,1518246875.0,312125665.5,,,,,,268621.5,1518246875.0,313606802.0,,0.679000000283,0.474999970198,-4.50399996713,-0.14999999851,0.134999997914,-0.0559999998659,-1.0
23,30.049887359,3011.5,1518246875.0,389049770.5,,2125827.5,1518246875.0,389049770.5,,0.727695509584,-0.267380511984,0.0365936136007,-0.0547691970178,0.998378853505,-0.00339726443299,-0.0151112991264,-0.000557551805032,0.00794556734996,0.000858449512562,0.00143825482495,0.0104028374225,0.0100850983957,4.02160525322,1.13517946005,0.71409112215,-0.358609735965,1.47920036316,0.127095408738,1483383.0,1518246875.0,388558441.0,,,,,,268629.5,1518246875.0,394943480.0,,0.658999998867,-0.460000017285,-4.41400005296,-0.0740000009537,0.155499994755,-0.0530000012368,-1.0
24,30.1524514615,3022.5,1518246875.0,509054022.0,,2125839.5,1518246875.0,509054022.0,,0.727532410632,-0.26797881817,0.0365695485315,-0.0545003987096,0.998389237975,-0.00393018553503,-0.0152486919935,0.00594052426848,-0.0193485709114,0.00590902034119,-0.00992711833199,-0.009984174554,-0.0246927069739,3.91411066056,1.20974290371,0.761840641498,-0.420218199491,1.4311004281,0.135754466056,840598.0,1518246875.0,496000000.0,,,,,,268640.5,1518246875.0,504854879.5,,1.90900000445,1.90499999225,-4.75900008157,-0.152000002563,0.168499998748,-0.0235000001266,-1.0
25,30.2550155641,3034.5,1518246875.0,629066696.0,,2125851.5,1518246875.0,629066696.0,,0.727568733513,-0.267404051659,0.0366244306433,-0.0548233859417,0.998373571118,-0.00350848592985,-0.0152294047568,-0.0165670980714,0.0252198441319,-0.00342649429001,0.00548421977636,0.032424515003,0.0324471181381,4.36113524437,1.17393183708,0.895541161299,-0.390244543552,1.61599421502,0.145041488111,2126196.0,1518246875.0,622102536.5,,,,,,268652.5,1518246875.0,624768123.5,,1.73900004737,1.64499997198,-2.55399997905,-0.113000001759,0.133000001311,-0.0235000001267,-1.0
26,30.3575796667,3042.5,1518246875.0,704053063.5,,2125859.0,1518246875.0,704053063.5,,0.727732986035,-0.267207667299,0.0365328378134,-0.0547989981285,0.998378800863,-0.00336788955803,-0.0150128589308,0.00242671319865,0.00205038836126,0.00241047186479,0.00361642539348,-0.0031315818744,0.0072035861541,4.09607768059,1.19678509235,0.79342508316,-0.43892544508,1.52022862435,0.129316240549,1483405.5,1518246875.0,705079421.0,,,,,,268660.5,1518246875.0,705039896.0,,0.999000008033,1.9900000006,-4.1389999576,-0.217999994754,0.21249999851,-0.0214999997988,-1.0
27,30.4601437692,3055.5,1518246875.0,829053459.0,,2125871.5,1518246875.0,829053459.0,,0.727297228654,-0.267615821498,0.0363862042614,-0.0544658729749,0.998388959914,-0.00332128865181,-0.0155366693957,-0.00088120394178,0.0207772621627,8.9395559015e-05,0.00477176762079,-0.00741381794755,0.0328677341839,4.23871374131,1.14438492059,0.920252621174,-0.311767831444,1.57935798168,0.170032687485,1483413.5,1518246875.0,829061242.5,,,,,,268673.5,1518246875.0,834564906.5,,0.758999998495,2.21999996006,-2.97399999574,-0.158500000834,0.173000000417,-0.0439999997616,-1.0
28,30.5627078718,3062.5,1518246875.0,909046170.5,,2125879.5,1518246875.0,909046170.5,,0.727767838565,-0.267542814748,0.0366174283029,-0.0544923562075,0.998396383636,-0.00337497432575,-0.0149603532077,0.0065280745427,-0.00397009477965,0.00229055796875,0.00127552162481,-0.0111640427958,-0.0142617307726,4.20955300331,1.08078944683,0.890063732862,-0.367263510824,1.56469702721,0.14415717125,840614.0,1518246875.0,900999936.0,,,,,,268680.5,1518246875.0,904492409.5,,1.48900001757,2.37499999106,-2.97399999574,-0.153499998152,0.162500001491,-0.0414999984205,-1.0
29,30.6652719744,3074.5,1518246876.0,24051215.0,,2125891.0,1518246876.0,24051215.0,,0.728056132585,-0.267115583974,0.036829285537,-0.0547425707497,0.998387718382,-0.00335756837955,-0.0146237701127,0.000578145307435,-0.00242906955541,-0.00226943955278,-0.0124965198399,0.0046323794793,-0.00054298518051,4.47050738334,1.23659604788,0.861692279577,-0.386011138558,1.65729767084,0.152417302132,2126236.5,1518246876.0,27125478.0,,,,,,268692.5,1518246876.0,24061778.0,,1.96900000684,2.22999995053,-2.28399999813,-0.12900000438,0.153000004589,-0.0610000006855,-1.0
30,30.7678360769,3083.5,1518246876.0,119051252.5,,2125900.5,1518246876.0,119051252.5,,0.727801072259,-0.267870050046,0.036593454066,-0.054268346061,0.998407792579,-0.00369172310699,-0.0149395781904,-0.0105181256434,-0.0136780835053,-0.00492514708993,-0.0129863216549,0.0168907085461,-0.0139842433394,4.12583017349,1.19086956978,0.917792439461,-0.39783270657,1.5419549942,0.158287398518,2126245.0,1518246876.0,112111245.0,,,,,,268702.0,1518246876.0,118810117.0,,-0.561000024155,3.32000007331,-3.81399990991,-0.194000005722,0.197999998927,-0.0509999990463,-1.0
31,30.8704001795,3095.5,1518246876.0,239056811.5,,2125912.5,1518246876.0,239056811.5,,0.728030587196,-0.267430594815,0.036864109123,-0.0546512478453,0.998390245018,-0.0034766070164,-0.0147642587253,-0.00953033166173,-0.00404929548655,-0.00381979004685,-0.00301501622362,0.0167101177694,0.00411286755075,4.28589820862,1.33076453209,0.914233624935,-0.450115188956,1.58355379105,0.150760471821,1483442.0,1518246876.0,235577990.0,,,,,,268713.5,1518246876.0,236218310.0,,0.514000003972,1.74999997616,-2.79400004819,-0.129999998957,0.150499999524,-0.000500000081955,-1.0
32,30.9729642821,3104.5,1518246876.0,324052791.0,,2125921.0,1518246876.0,324052791.0,,0.727816681755,-0.26767802096,0.0366594788247,-0.0545700672613,0.998389681163,-0.00353632185002,-0.015069092643,0.00598599692626,-0.0227719966106,0.00116085263551,-0.0045062213897,-0.0112991045328,-0.023959778727,4.37286543846,1.19638377428,0.982767194508,-0.384633868932,1.60788828134,0.140482261777,2126266.0,1518246876.0,322136829.5,,,,,,268723.0,1518246876.0,330784564.5,,-0.016000007465,2.85499992073,-3.51399995759,-0.162499994039,0.178499996662,-0.0429999995977,-1.0
33,31.0755283846,3112.5,1518246876.0,404047428.0,,2125929.0,1518246876.0,404047428.0,,0.727363260569,-0.267810455709,0.0366219751349,-0.0546027915942,0.998382408926,-0.00358064553774,-0.0154363102612,0.0014463132872,0.00644869852097,0.00152533078304,0.0020621527195,0.00131779557168,0.0129349529215,4.53851509094,1.10953128338,0.98593300581,-0.32367041707,1.67670845985,0.145680040121,840633.5,1518246876.0,399000064.0,,,,,,268730.5,1518246876.0,406757815.5,,-0.0409999985245,2.15999998748,-2.79899992421,-0.120500002056,0.162000000477,-0.0320000005886,-1.0
34,31.1780924872,3126.5,1518246876.0,549051569.0,,2125943.5,1518246876.0,549051569.0,,0.727601769507,-0.267818926375,0.0364099048638,-0.0542368997184,0.998404629039,-0.00349434435446,-0.0153030644173,-0.00554708501223,-0.00618583216437,-0.00335810134402,-0.00710914560149,0.00852918366219,-0.00435461983985,4.77574944496,0.956312984228,1.09309244156,-0.194618403912,1.78084129095,0.182859361172,840639.0,1518246876.0,542000128.0,,,,,,268744.5,1518246876.0,546333009.0,,0.294000002369,2.71499993503,-2.56900002435,-0.127499997616,0.174500003457,-0.0315000005066,-1.0
35,31.2806565897,3133.5,1518246876.0,619050097.0,,2125950.5,1518246876.0,619050097.0,,0.728030097976,-0.267707818705,0.0368269880196,-0.0546130540693,0.998390151625,-0.00388327852572,-0.0148099640731,-0.000425569689889,-0.0121645783391,-0.0031399985624,-0.00522061944337,-0.00106294600638,-0.0153421481386,4.66741800308,1.07935839891,1.0507876873,-0.288469552994,1.72354692221,0.159187689424,1483469.0,1518246876.0,616552579.0,,,,,,268751.5,1518246876.0,616359563.0,,1.28400000446,2.68999995887,-1.95400001482,-0.114999998361,0.154500000179,-0.00150000024587,-1.0
36,31.3832206923,3147.5,1518246876.0,754052794.5,,2125964.0,1518246876.0,754052794.5,,0.727578382646,-0.267987029632,0.0365519091121,-0.0544591295202,0.998391654335,-0.00394801074382,-0.0152542238002,0.00121211645875,0.00566009158726,0.000295792771325,0.00263387541763,-0.00090156340556,0.00700616994411,4.664321661,1.10223507881,1.05507624149,-0.34971806407,1.72788590193,0.140408687294,1483478.0,1518246876.0,748578047.0,,,,,,268765.5,1518246876.0,756835766.0,,0.299000005052,2.00999999642,-2.64900006726,-0.130500003695,0.172499999404,-0.0205000001005,-1.0
37,31.4857847949,3156.5,1518246876.0,849054013.5,,2125973.5,1518246876.0,849054013.5,,0.727958797907,-0.267184820314,0.0368436028226,-0.0549483793894,0.998372074413,-0.00370087413036,-0.0148323514501,0.0126509085491,-0.00709881100717,0.00772382494707,0.0007439463064,-0.0274342087535,-0.0113258453862,4.80254626274,1.06234571338,1.02483969927,-0.293843090534,1.76070463657,0.159405216575,1483484.0,1518246876.0,839056174.0,,,,,,268774.5,1518246876.0,845201544.0,,0.924000005053,1.45499998554,-2.16899998858,-0.106499999762,0.162000000477,-0.035000000149,-1.0
38,31.5883488974,3165.5,1518246876.0,939053759.5,,2125982.5,1518246876.0,939053759.5,,0.727792744417,-0.267754724518,0.0365847989414,-0.0543242200977,0.998401226413,-0.00367102822452,-0.0151699614092,0.00491451377586,-0.0163060725764,0.00809418499167,-0.0128627361801,-0.0126593509584,-0.020263581072,4.60338950158,0.925192087889,1.11229532957,-0.184031024576,1.69066464901,0.185917139053,2126327.0,1518246876.0,932155188.0,,,,,,268783.5,1518246876.0,935830200.5,,0.824000018462,1.45499997251,-2.95900001004,-0.134000003338,0.177000001073,-0.0390000008046,-1.0
39,31.690913,3176.5,1518246877.0,44058460.5,,2125993.0,1518246877.0,44058460.5,,0.727414966923,-0.26773142761,0.0364673160422,-0.0543609478235,0.998394787942,-0.00356059814259,-0.0154928196855,-0.00282378408948,0.0106854981061,-0.00177203239026,0.00629417150928,0.0040022499663,0.0118935909701,4.7652015686,0.991043865678,1.04251253605,-0.270806282759,1.75331509114,0.167679555714,1483498.0,1518246877.0,40063140.0,,,,,,268794.5,1518246877.0,46498544.5,,0.268999996409,1.68499996364,-1.74399997667,-0.104000002146,0.151500001549,-0.0335000008345,-1.0
