,Unnamed: 0,.header.seq,.header.stamp.secs,.header.stamp.nsecs,.header.frame_id,.endpoint_state.header.seq,.endpoint_state.header.stamp.secs,.endpoint_state.header.stamp.nsecs,.endpoint_state.header.frame_id,.endpoint_state.pose.position.x,.endpoint_state.pose.position.y,.endpoint_state.pose.position.z,.endpoint_state.pose.orientation.x,.endpoint_state.pose.orientation.y,.endpoint_state.pose.orientation.z,.endpoint_state.pose.orientation.w,.endpoint_state.twist.linear.x,.endpoint_state.twist.linear.y,.endpoint_state.twist.linear.z,.endpoint_state.twist.angular.x,.endpoint_state.twist.angular.y,.endpoint_state.twist.angular.z,.endpoint_state.wrench.force.x,.endpoint_state.wrench.force.y,.endpoint_state.wrench.force.z,.endpoint_state.wrench.torque.x,.endpoint_state.wrench.torque.y,.endpoint_state.wrench.torque.z,.joint_state.header.seq,.joint_state.header.stamp.secs,.joint_state.header.stamp.nsecs,.joint_state.header.frame_id,.joint_state.name,.joint_state.position,.joint_state.velocity,.joint_state.effort,.wrench_stamped.header.seq,.wrench_stamped.header.stamp.secs,.wrench_stamped.header.stamp.nsecs,.wrench_stamped.header.frame_id,.wrench_stamped.wrench.force.x,.wrench_stamped.wrench.force.y,.wrench_stamped.wrench.force.z,.wrench_stamped.wrench.torque.x,.wrench_stamped.wrench.torque.y,.wrench_stamped.wrench.torque.z,.tag
0,90.850437,9091.5,1518246936.0,199179623.0,,2131908.5,1518246936.0,199179623.0,,0.753602207144,-0.288062144643,0.117188711744,-0.0353790101972,0.999315486673,-0.00375136048981,0.0101229025912,-0.0235867974935,0.0121585131584,-0.0364061720117,-0.0860559544341,0.0247311093434,0.116385644501,1.905711025,1.14334577322,4.9563088417,-0.0122698917985,0.792556494472,0.287319466471,842999.0,1518246936.0,188999936.0,,,,,,274703.5,1518246936.0,196410620.5,,-1.89699993524,0.282000008598,0.0430000014603,-0.00200000032782,0.0454999990761,0.0370000004769,3.0
1,90.9530011026,9104.5,1518246936.0,329173577.5,,2131921.5,1518246936.0,329173577.5,,0.748767533989,-0.283275096465,0.110614634525,-0.0382854705796,0.999245428385,-0.00352213916429,0.00549968182165,-0.0432635959942,0.0649171155821,-0.0512110948015,0.036546077179,0.0793541106541,0.0629803517583,2.41631293296,1.39081901312,5.01407599449,-0.225890073926,1.09319722652,0.241927780211,2132266.5,1518246936.0,327238531.5,,,,,,274716.5,1518246936.0,325764175.0,,-1.17699996624,-0.528000001237,-0.187000010163,0.00500000035392,0.0200000004843,0.0449999999255,3.0
2,91.0555652051,9111.5,1518246936.0,389180753.0,,2131928.0,1518246936.0,394183583.0,,0.746247603572,-0.281637958441,0.107500162079,-0.0398943129879,0.99919343638,-0.00342044947553,0.00303661196393,-0.0506875412018,0.0333485463277,-0.0645102638007,0.0166194954646,0.102673705433,0.0654842378307,3.77303504944,1.32232415676,4.94952583313,-0.105565525591,1.59941375256,0.307497113943,843007.0,1518246936.0,390000128.0,,,,,,274724.0,1518246936.0,399841593.0,,-0.86200002823,0.141999994033,-0.261999990791,0.00849999999627,0.0370000004768,0.0330000007525,3.0
3,91.1581293077,9124.5,1518246936.0,529173543.5,,2131941.5,1518246936.0,529173543.5,,0.740220255222,-0.277914247618,0.0994748024205,-0.0452074179026,0.998962553881,-0.00448681961125,-0.00308143718115,-0.0470479285542,0.00896765673372,-0.0703835443063,-0.017512192805,0.106093965978,0.0249094829226,3.85593056679,0.625606477261,5.40859818458,0.161475531757,1.57826036214,0.303114742041,2132286.0,1518246936.0,522262941.0,,,,,,274736.5,1518246936.0,525260749.5,,-1.7470000187,0.651999998465,0.542999986559,0.0220000008121,0.0250000003725,0.0240000002086,3.0
4,91.2606934103,9131.5,1518246936.0,594179843.0,,2131948.0,1518246936.0,594179843.0,,0.738027086697,-0.275193241376,0.0955670255955,-0.0468457749142,0.998879178607,-0.00428596377547,-0.00524313196803,-0.0219117248227,0.0277515589357,-0.0582516457129,-0.0143175458438,0.0277614114321,0.002901769819,3.07215166092,0.877480447292,5.55229282379,-0.0565502569079,1.34524691105,0.260132670403,843015.0,1518246936.0,592000000.0,,,,,,274743.5,1518246936.0,595425594.0,,-2.06200001631,-0.0429999943824,0.0329999960959,0.0149999996647,0.04649999924,0.0305000003428,3.0
5,91.3632575128,9143.5,1518246936.0,714188358.0,,2131960.0,1518246936.0,714188358.0,,0.733321729512,-0.273204783022,0.0897343285899,-0.0493583029615,0.998717888861,-0.00458530728284,-0.0102558148477,-0.0385466190987,0.00112386868051,-0.0394763828978,-0.0416238274071,0.0787377391682,0.0596454210923,2.6965996623,0.935185790062,5.32024455071,-0.139024063945,1.19162359834,0.27833352983,1487663.0,1518246936.0,717628100.0,,,,,,274755.5,1518246936.0,714820628.5,,-0.79700000081,0.0819999981671,0.382999990136,0.0164999999106,0.0329999998211,-0.000499999849125,3.0
6,91.4658216154,9151.5,1518246936.0,799177940.0,,2131968.5,1518246936.0,799177940.0,,0.731172729447,-0.273366691771,0.0868095203383,-0.0512343659832,0.998591620778,-0.0061547424451,-0.012318246736,-0.0211007057023,-0.0022923491123,-0.0476161735469,-0.0188022876127,0.0323583112809,0.0409633713283,3.54119467736,1.07462918758,5.18489742279,-0.0100513584912,1.43311089277,0.252596490085,843023.0,1518246936.0,793999872.0,,,,,,274764.0,1518246936.0,800963457.5,,-1.61200002823,0.206999990717,0.397999990732,0.00300000002608,0.0400000009686,0.0125000001862,3.0
7,91.5683857179,9165.5,1518246936.0,929174676.0,,2131981.5,1518246936.0,929174676.0,,0.729029481226,-0.271989110812,0.0818881943703,-0.0532545201403,0.998464449022,-0.00603150356909,-0.0140090430924,-0.0105036491115,0.0159894038431,-0.0363110892866,0.0161721129943,0.00365225798313,0.0229458397758,2.96972382069,1.05103603005,4.99678516387,-0.13959537819,1.46267145872,0.261115357279,2132326.5,1518246936.0,927243224.5,,,,,,274777.5,1518246936.0,936378688.0,,-1.01199997459,0.726999986545,-0.676999997348,0.0244999993592,0.0190000010188,0.00150000001304,3.0
8,91.6709498205,9172.5,1518246937.0,9178462.5,,2131989.5,1518246937.0,9178462.5,,0.728215697141,-0.270763835614,0.079560111863,-0.0527779650736,0.99848183071,-0.00591123620994,-0.0146045723221,-0.00886696416386,-0.00140187905595,-0.0272413142011,0.0104631379646,-0.00023117144036,-0.0356269651388,3.56349134445,1.48577797413,5.4325299263,-0.358297109604,1.61851722002,0.201028786599,1487682.5,1518246936.5,499115983.5,,,,,,274784.5,1518246937.0,6125887.0,,1.13300000634,0.276999983564,0.0529999937862,0.0124999999534,0.0260000005365,0.0140000001993,3.0
9,91.7735139231,9186.5,1518246937.0,149179816.5,,2132003.5,1518246937.0,149179816.5,,0.726310142728,-0.270041300373,0.0747802035069,-0.0552568297127,0.998315231436,-0.0069257443773,-0.0162794311822,-0.00121057044691,-8.398788585e-05,-0.0237192819171,-0.0246955515688,-0.00824515733087,0.0403223437357,1.99017268419,0.871231943369,4.53586697578,-0.0498033650221,0.781509101391,0.217423558235,1487692.0,1518246937.0,140136803.0,,,,,,274798.5,1518246937.0,146138787.5,,-0.716999987699,0.806999999658,-0.316999997944,0.00349999975879,0.019499999471,0.0180000001565,3.0
10,91.8760780256,9193.5,1518246937.0,219177434.5,,2132010.5,1518246937.0,219177434.5,,0.72656723901,-0.269124352619,0.0724839322266,-0.0569007451318,0.998229374084,-0.00723932842146,-0.0157410430971,-0.00159877946326,0.00422818036903,-0.020739675111,-0.0105333545218,0.00436140773338,0.016870640975,1.50956100225,1.06706872582,5.23940277099,-0.1541303657,0.880682706833,0.230135008692,2132355.5,1518246937.0,217259011.0,,,,,,274806.0,1518246937.0,222289055.0,,-1.72700003777,0.457000020519,0.0529999975115,0.019499999471,0.0130000002682,0.00499999994645,3.0
11,91.9786421282,9207.5,1518246937.0,349176679.5,,2132023.5,1518246937.0,349176679.5,,0.7252058379,-0.267717205708,0.0684024161904,-0.0579644812054,0.998154358878,-0.00664706425942,-0.0168428853192,-0.00563971438228,0.0124960032254,-0.0326889585183,0.0117557802623,0.00777071848166,0.008980024309,2.65230822563,1.30583047867,4.59556984901,-0.370336681605,1.07484447956,0.197496011853,843045.0,1518246937.0,350000128.0,,,,,,274819.5,1518246937.0,357941290.5,,-1.52699993048,0.197000000253,-1.09199998901,0.0435000006109,-0.0134999998845,0.0055000000284,3.0
12,92.0812062308,9213.5,1518246937.0,414178955.0,,2132030.0,1518246937.0,414178955.0,,0.725388093232,-0.266684433249,0.0665628634267,-0.0576363608754,0.998180255144,-0.00630001089289,-0.016569188513,0.00312181414626,0.00273076969134,-0.0248820183229,-0.0258950122804,-0.000903451370332,-0.0065611945517,2.67969250679,1.47894906998,4.31299734116,-0.367819964886,1.17532169819,0.168992832303,843047.5,1518246937.0,411500032.0,,,,,,274825.5,1518246937.0,417673408.0,,-1.02699999009,0.297000013851,-1.21700004861,0.038500001654,-0.0120000001043,0.0255000004545,3.0
13,92.1837703333,9226.5,1518246937.0,544178564.0,,2132043.0,1518246937.0,544178564.0,,0.724360889744,-0.265789136991,0.0613380107112,-0.0577745255182,0.998164139844,-0.0051263768361,-0.0174405960707,0.00375249025362,-0.00197499696463,-0.0443846620276,0.0283727497803,-0.00710001262415,-0.00921849543093,3.1991648674,1.17750954628,4.87218856812,-0.363157808781,1.51247131824,0.184314519167,1487720.0,1518246937.0,542113809.5,,,,,,274838.5,1518246937.0,547037065.5,,-1.00700000916,-0.967999976499,-0.461999993771,0.0224999999628,0.0315000005066,0.0264999996871,3.0
14,92.2863344359,9234.5,1518246937.0,629175441.0,,2132051.5,1518246937.0,629175441.0,,0.72414397006,-0.264932017322,0.057745161903,-0.0593884637702,0.998063336918,-0.00522085102862,-0.0177525692987,-0.00639179255379,-0.0193123044691,-0.0502948762004,-0.0286899614652,0.00573891280723,0.0149976164549,4.09269213676,0.615050762892,4.3882958889,0.0886747799814,1.84790056944,0.230847924948,2132396.5,1518246937.0,627229745.5,,,,,,274846.5,1518246937.0,627337103.5,,-2.01200006399,-0.358000003174,-0.566999983042,0.00650000013411,0.0519999992103,0.0259999996052,3.0
15,92.3888985385,9245.5,1518246937.0,739184286.5,,2132062.5,1518246937.0,739184286.5,,0.723609172879,-0.264108855441,0.0536483444881,-0.0592748394397,0.998061528502,-0.00387935258003,-0.0185606777591,-0.00265223807062,0.012715122454,-0.0375477660962,0.0154067157254,0.0302716085391,0.00963854125342,2.1298006773,1.4742936492,4.36686968803,-0.409299448133,0.897211730483,0.164267100394,2132407.0,1518246937.0,732266481.0,,,,,,274857.5,1518246937.0,736410860.5,,-2.01200006399,-0.0480000045148,0.153000000865,0.0115000000224,0.0130000002682,0.0265000006184,3.0
16,92.491462641,9255.5,1518246937.0,829177359.0,,2132072.0,1518246937.0,834178652.0,,0.72411466821,-0.263349766208,0.0497414877662,-0.0602270191912,0.998013651754,-0.00344694242885,-0.0181542187629,0.016750970185,-0.00183459625087,-0.0321386280628,-0.00757978017119,-0.036139009115,0.0149360668134,2.26557350159,1.37092685699,4.7531170845,-0.491589039564,0.980686843395,0.147759377956,2132417.0,1518246937.0,832274631.0,,,,,,274867.5,1518246937.0,837006568.5,,-1.75699994955,0.132000010088,-0.826999973506,0.0034999996424,0.0264999996871,0.0490000005812,3.0
17,92.5940267436,9268.5,1518246937.0,969183529.5,,2132085.5,1518246937.0,969183529.5,,0.724216509892,-0.264607921389,0.0451117151411,-0.0580526990726,0.998140352488,-0.00391393540864,-0.0181752904053,-0.00665788297471,-0.00844610628008,-0.0357714287461,-0.0163706740412,0.0208292067988,-0.0863900400272,3.52348160744,1.27053076029,3.84762692451,-0.355203777552,1.38320851326,0.153474628925,1487750.0,1518246937.0,964134307.0,,,,,,274880.5,1518246937.0,966866645.0,,-0.651999990083,0.606999981776,-0.461999993771,0.0185000002384,0.0194999999367,0.00649999990128,3.0
18,92.6965908462,9277.5,1518246938.0,59196065.0,,2132094.5,1518246938.0,59196065.0,,0.724686528522,-0.26508931388,0.0417462177015,-0.057086361232,0.998203764994,-0.0039710537702,-0.0177319241361,0.0134764740921,-0.0079973358785,-0.0339548784243,-0.00577726792996,-0.027656134094,-0.00313639588143,2.90590572357,1.15027558803,4.17677187919,-0.409632101655,1.16637939215,0.110571146011,2132438.5,1518246938.0,47232817.0,,,,,,274889.5,1518246938.0,57607322.0,,-1.05699996147,1.68699999489,-0.226999994368,0.0140000003157,0.00950000016018,0.00149999978021,3.0
19,92.7991549487,9285.5,1518246938.0,134175890.0,,2132102.0,1518246938.0,134175890.0,,0.726720408095,-0.266662098859,0.0390743937873,-0.0555910535259,0.998324103962,-0.00369026153083,-0.0156524818012,0.0218733995705,-0.040262980455,-0.0387077644773,0.00820278346147,-0.0455649455918,-0.0596126797769,3.69702339172,1.36277794838,4.21243286133,-0.338690489531,1.63913333416,0.199009150267,2132447.0,1518246938.0,132229821.0,,,,,,274897.5,1518246938.0,137874209.5,,-1.42700002584,0.23700000681,0.66799998656,0.0139999995008,0.00900000007823,0.0280000008643,3.0
20,92.9017190513,9296.5,1518246938.0,249190880.5,,2132113.5,1518246938.0,249190880.5,,0.727913253348,-0.266456606769,0.0373066057531,-0.0548595123996,0.998384095808,-0.0026931163305,-0.0145692384224,0.0197917656697,0.00729798308045,0.010568336398,0.0375651058439,-0.0381351401035,-0.0356135868238,1.59372264147,1.43942970037,1.84267169237,-0.734675168991,0.587290108204,0.158786676825,2132457.0,1518246938.0,232250094.0,,,,,,274908.5,1518246938.0,246823254.0,,-0.056999998726,0.802000034228,-5.76700006053,-0.32500000298,0.155000001192,-0.050000000745,3.0
21,93.0042831538,9306.5,1518246938.0,349179991.0,,2132123.5,1518246938.0,349179991.0,,0.72711689028,-0.266968568879,0.036910443055,-0.0549468140229,0.998365030219,-0.00307061229027,-0.0154439041559,0.00514970356144,0.00425661956135,-0.00747657586091,0.00577985886794,-0.0065361163412,-0.0103123216202,3.84501862526,1.28577166796,1.11617201567,-0.421458899975,1.49106734991,0.191707864404,2132467.0,1518246938.0,332275548.0,,,,,,274918.5,1518246938.0,348328712.5,,-1.53199998531,0.277000013366,-3.34699998423,-0.129000000656,0.0935000032186,-0.0130000003265,-1.0
22,93.1068472564,9317.5,1518246938.0,454582973.0,,2132134.0,1518246938.0,454582973.0,,0.727059454796,-0.266504375733,0.0367863031724,-0.0546765213905,0.998378669321,-0.00281324072395,-0.0155755041966,-0.00548878249516,0.0243568235349,-0.00516863953224,-0.000939103962249,0.0093041379168,0.0484684353896,2.80651545525,1.17736852169,1.11369860172,-0.320908993483,1.08852624893,0.204549506307,2132477.0,1518246938.0,432268141.0,,,,,,274929.5,1518246938.0,457631642.0,,0.0780000066384,2.00199999251,-2.81200001761,-0.112500000745,0.118499998004,-0.0260000005364,-1.0
23,93.209411359,9329.5,1518246938.0,569583763.0,,2132145.5,1518246938.0,569583763.0,,0.727390308215,-0.266671305624,0.0370394413536,-0.0549105287182,0.998373776376,-0.00297083678289,-0.0150246363318,0.0102849862504,0.00885299466512,0.00398610077079,0.0101173706917,-0.0237518815475,-0.00425250132155,3.73198413849,1.15640175342,1.18306845427,-0.316142350435,1.46719670296,0.185822054743,2132490.5,1518246938.0,567658295.0,,,,,,274941.5,1518246938.0,576996795.5,,0.328000002913,0.862000006809,-3.70200000331,-0.117499999702,0.115499999374,-0.0214999997988,-1.0
24,93.3119754615,9337.5,1518246938.0,654590206.5,,2132154.0,1518246938.0,654590206.5,,0.727471143361,-0.265858338025,0.037248954398,-0.0555535350596,0.998335479028,-0.00306685484353,-0.0151876247116,-0.00694406895921,-0.00148697604407,0.000790949892885,-0.000592492765455,0.00691506833065,0.0108233872751,3.03885042668,1.1878221035,1.20605325698,-0.386045187711,1.18652248383,0.176987566054,2132497.0,1518246938.0,632678484.0,,,,,,274949.5,1518246938.0,657325644.5,,1.07300000396,2.24200000204,-3.75200007484,-0.185500003398,0.151499994099,-0.0655000023543,-1.0
25,93.4145395641,9350.5,1518246938.0,779587895.5,,2132166.5,1518246938.0,779587895.5,,0.727288876063,-0.26640795303,0.0368559699582,-0.0548129719571,0.998375625677,-0.00299302661575,-0.0152290669625,-0.00290191724447,-0.0166185420757,0.00239535787683,-0.00947308742453,0.0008303173071,-0.0171669778682,3.21923410892,1.15373140573,1.08462518454,-0.332588225603,1.16254061461,0.170394390821,2132511.5,1518246938.0,777661392.0,,,,,,274962.5,1518246938.0,787597775.5,,-0.952000002005,0.176999989525,-3.41200004146,-0.112500000745,0.10550000146,-0.0159999998286,-1.0
26,93.5171036667,9360.5,1518246938.0,884592646.0,,2132177.0,1518246938.0,884592646.0,,0.728438701352,-0.266335578448,0.0370246091461,-0.0551315109479,0.998378567235,-0.00284035266501,-0.0138792973915,0.00121325990142,-0.00722334179765,-0.00635686739017,-0.000255360795019,0.0022414318382,-0.00779301880707,3.0878367424,1.18434506654,0.9380659163,-0.345944330096,1.00613516569,0.159228727221,1487813.5,1518246938.0,880843599.0,,,,,,274972.5,1518246938.0,888926436.0,,0.333000002801,1.91700007357,-3.83699999377,-0.208499997854,0.237499997019,-0.00550000020303,-1.0
27,93.6196677692,9367.5,1518246938.0,949587882.5,,2132183.5,1518246938.0,949587882.5,,0.727822274317,-0.266093152442,0.0369143689223,-0.0549630459446,0.998379789398,-0.00275519281996,-0.014465064383,0.00954019486834,-0.00209124447555,0.00200792874479,0.00230021235542,-0.019938128346,-0.00287805125,3.75123143196,1.26890265942,0.869427472353,-0.381111249327,1.27023160457,0.15999905765,843108.0,1518246938.0,939000064.0,,,,,,274979.5,1518246938.0,958751415.5,,-0.477000007965,1.13699998297,-3.14699993655,-0.192000001669,0.210500001908,-0.0149999996647,-1.0
28,93.7222318718,9381.5,1518246939.0,89592281.5,,2132198.0,1518246939.0,94588751.0,,0.727640515527,-0.265365797662,0.0364746929612,-0.055540062366,0.998344343902,-0.00261900908768,-0.0147313700071,0.0186464100392,-0.0128463739132,0.0118486299598,-0.00529962436237,-0.0329634233583,-0.0400502338938,3.70982980728,1.17920231819,0.913967251778,-0.337683171034,1.2562943697,0.177236407995,843114.0,1518246939.0,89999872.0,,,,,,274993.5,1518246939.0,98967861.0,,0.533000012301,1.20199998059,-3.94699988886,-0.192000001669,0.221500001848,-0.0415000002831,-1.0
29,93.8247959744,9388.5,1518246939.0,159586220.5,,2132204.5,1518246939.0,159586220.5,,0.728064940342,-0.266065248075,0.036719823415,-0.0547257050984,0.998396744151,-0.00260927599224,-0.0142113192814,0.00784314836814,0.0129352087023,-0.000753790878251,-0.0151286537249,-0.0190874218604,0.0396162701989,3.20913410187,1.16454339027,1.06194663048,-0.313636809588,1.08927416802,0.182890713215,843116.5,1518246939.0,156000000.0,,,,,,275000.5,1518246939.0,169161331.0,,0.393000000529,1.55199994482,-3.69700012729,-0.190999999643,0.232000000775,-0.0509999990463,-1.0
30,93.9273600769,9400.5,1518246939.0,284613033.0,,2132217.0,1518246939.0,284613033.0,,0.728011540707,-0.265171997067,0.0368533454269,-0.0556227606246,0.998345829389,-0.00256071395819,-0.0143232742799,-0.00125288491082,0.00895952704687,-0.00153942667663,0.00797836123075,-0.00140030404223,0.010123963075,3.05042886734,1.10762059689,1.05353140831,-0.269389510155,1.01360416412,0.185234040022,1487841.5,1518246939.0,282821932.5,,,,,,275012.5,1518246939.0,289183710.5,,0.193000000343,1.16700001396,-4.20699987933,-0.182000003755,0.214500002563,-0.0235000001266,-1.0
31,94.0299241795,9410.5,1518246939.0,384587697.0,,2132227.0,1518246939.0,384587697.0,,0.727642641267,-0.266060155641,0.0368715865124,-0.0550645866411,0.998370342925,-0.00282637087566,-0.0147118729042,-0.00837909777094,0.00274356511375,-0.00273876278704,0.00263366926388,0.0135903540605,-0.0029656415803,3.46117317677,1.21664249897,1.02692732215,-0.303427606822,1.16017496586,0.193607181311,1487849.0,1518246939.0,387836145.0,,,,,,275022.5,1518246939.0,388753754.0,,-0.347000012734,-0.577999998257,-3.83199999854,-0.135000005364,0.17650000006,-0.0189999993891,-1.0
32,94.1324882821,9419.5,1518246939.0,474587399.0,,2132236.0,1518246939.0,474587399.0,,0.727912051847,-0.265444936381,0.0366665104718,-0.0557751648496,0.998338574889,-0.00253379376445,-0.0142408132914,-0.00207111651479,-0.000768586125478,-0.00671919731817,0.000753467599556,-0.000560791969188,-0.011263332833,3.53088116646,1.09195017815,1.0516513586,-0.257594347,1.20129930973,0.191785424948,1487855.0,1518246939.0,473839139.5,,,,,,275031.5,1518246939.0,479553295.0,,0.783000010437,0.346999991312,-3.2020000033,-0.122000001371,0.164499998092,-0.0629999991507,-1.0
33,94.2350523846,9430.5,1518246939.0,579587670.0,,2132247.0,1518246939.0,584588099.0,,0.727959946927,-0.26624827342,0.0369337151922,-0.0549889773874,0.998381618386,-0.00257079163051,-0.0142687021683,0.00445296948585,0.00906142883215,0.00397756299915,0.00495184324705,-0.00783460762855,0.0115207893661,3.35603439808,1.10321772099,0.965885013343,-0.320289999247,1.13895565271,0.172446735203,1487862.5,1518246939.0,579817717.0,,,,,,275042.5,1518246939.0,588697359.5,,3.12300004568,0.466999996081,-3.54700003192,-0.13750000298,0.171500004828,-0.0175000000745,-1.0
34,94.3376164872,9442.5,1518246939.0,704592273.5,,2132259.0,1518246939.0,704592273.5,,0.727468257953,-0.266335458288,0.0367331726551,-0.0547191669399,0.998387574058,-0.00278610965124,-0.0148361702608,0.00925844019655,-0.00840826510169,-0.00051442892765,8.740122045e-05,-0.01913492839,-0.0152031199422,3.34886312485,0.963641941546,1.07765191793,-0.23670861125,1.12591922283,0.186791725456,843138.0,1518246939.0,696999936.0,,,,,,275054.5,1518246939.0,709343603.0,,0.142999996804,1.27699996866,-4.30700002238,-0.18599999696,0.220499999821,-0.0449999999255,-1.0
35,94.4401805897,9452.5,1518246939.0,804588604.0,,2132269.0,1518246939.0,804588604.0,,0.727828439498,-0.266268814386,0.0368806826831,-0.0541486187324,0.998422039099,-0.00252919379176,-0.0146615862095,0.00038209933191,-0.000853734085169,0.00686700560889,-0.00332665585311,-0.00278813144426,0.0141597806464,3.52714800835,1.2142264843,1.03299438953,-0.327843159437,1.21578168869,0.193146705627,843142.0,1518246939.0,798000128.0,,,,,,275064.5,1518246939.0,809464623.0,,0.803000023028,0.0619999948889,-4.01200018451,-0.18599999696,0.190999999643,-0.0259999996051,-1.0
36,94.5427446923,9460.5,1518246939.0,884582475.0,,2132277.5,1518246939.0,889597880.5,,0.727478868977,-0.265659222924,0.0368060949804,-0.0557341588548,0.998331330033,-0.00287140216297,-0.0148236075695,-0.00717580635443,-0.0228365155188,-0.00403514850272,-0.00375322046085,0.0202372548448,-0.0418513849325,3.39121723175,0.869854420424,1.04703336954,-0.151302691549,1.15040677786,0.19943062216,2132622.0,1518246939.0,882667364.0,,,,,,275072.5,1518246939.0,888603224.5,,1.20300002899,-0.533000003919,-3.44200001284,-0.181999996305,0.206500001252,-0.0250000003725,-1.0
37,94.6453087949,9470.5,1518246939.0,979586089.5,,2132286.5,1518246939.0,979586089.5,,0.728021680359,-0.266502518204,0.0368573233877,-0.0546931011287,0.998397490311,-0.00277193021691,-0.0142617610369,0.00540555461147,-0.00782323702442,0.00511322820346,-0.0029637315746,-0.0135654055479,-0.0171392832715,3.4677810669,1.11628466845,1.0097464025,-0.285098478198,1.16882914305,0.188279770315,2132632.0,1518246939.0,982671994.0,,,,,,275082.5,1518246939.0,988564182.0,,0.642999996804,1.04200001396,-3.44200001285,-0.16550000012,0.205499999225,-0.0280000008643,-1.0
38,94.7478728974,9481.5,1518246940.0,89664062.0,,2132297.5,1518246940.0,89664062.0,,0.727751415794,-0.265336241927,0.0371099356886,-0.055444525424,0.998352019384,-0.00252478850282,-0.0145854132463,0.00777646507305,-0.00372283878334,0.0114492228496,0.00231475149689,-0.0235068684425,-0.0126138609982,3.30799639225,0.968814849854,1.05221503973,-0.240121804178,1.1211745143,0.174233429134,1487898.0,1518246940.0,92380418.0,,,,,,275093.5,1518246940.0,98924177.0,,-0.122000011243,2.1419999782,-3.83199999854,-0.189000003039,0.219499997795,-0.0389999998733,-1.0
39,94.850437,9494.5,1518246940.0,219669750.0,,2132310.5,1518246940.0,219669750.0,,0.727793721587,-0.266032357735,0.0370337014417,-0.0549125051994,0.998381011875,-0.00263320955546,-0.0145932657674,-0.00302650805178,-0.00326904135298,0.00111157141945,-0.000187651483975,-0.00337366072229,0.00233195299095,3.57948207855,0.917427808046,1.0969107151,-0.176926992834,1.20193231106,0.196715086699,1487907.0,1518246940.0,223390896.0,,,,,,275106.5,1518246940.0,229697161.0,,-0.357000003196,2.5319999639,-3.91699991748,-0.183000005781,0.217500001192,-0.0175000005402,-1.0
