,Unnamed: 0,.header.seq,.header.stamp.secs,.header.stamp.nsecs,.header.frame_id,.endpoint_state.header.seq,.endpoint_state.header.stamp.secs,.endpoint_state.header.stamp.nsecs,.endpoint_state.header.frame_id,.endpoint_state.pose.position.x,.endpoint_state.pose.position.y,.endpoint_state.pose.position.z,.endpoint_state.pose.orientation.x,.endpoint_state.pose.orientation.y,.endpoint_state.pose.orientation.z,.endpoint_state.pose.orientation.w,.endpoint_state.twist.linear.x,.endpoint_state.twist.linear.y,.endpoint_state.twist.linear.z,.endpoint_state.twist.angular.x,.endpoint_state.twist.angular.y,.endpoint_state.twist.angular.z,.endpoint_state.wrench.force.x,.endpoint_state.wrench.force.y,.endpoint_state.wrench.force.z,.endpoint_state.wrench.torque.x,.endpoint_state.wrench.torque.y,.endpoint_state.wrench.torque.z,.joint_state.header.seq,.joint_state.header.stamp.secs,.joint_state.header.stamp.nsecs,.joint_state.header.frame_id,.joint_state.name,.joint_state.position,.joint_state.velocity,.joint_state.effort,.wrench_stamped.header.seq,.wrench_stamped.header.stamp.secs,.wrench_stamped.header.stamp.nsecs,.wrench_stamped.header.frame_id,.wrench_stamped.wrench.force.x,.wrench_stamped.wrench.force.y,.wrench_stamped.wrench.force.z,.wrench_stamped.wrench.torque.x,.wrench_stamped.wrench.torque.y,.wrench_stamped.wrench.torque.z,.tag
0,160.479555,16053.5,1518247005.0,814956428.0,,2138870.5,1518247005.0,819956539.5,,0.752110333143,-0.284439210682,0.116589216781,-0.0344616571529,0.999370312571,-0.00022149343272,0.00841369311255,-0.0544154258132,0.0475764773817,-0.0354381059561,-0.0204253240396,0.112162577672,0.0960433843246,3.26691043377,1.46237403155,4.09860992432,-0.340705104172,1.35849946738,0.273388296366,1492484.5,1518247005.0,806020440.5,,,,,,281659.0,1518247005.0,820057178.5,,-1.50399992764,0.963999983669,-1.04299999028,-0.00700000021605,-0.00849999964705,0.0219999998808,3.0
1,160.582119103,16067.5,1518247005.0,949953941.5,,2138883.5,1518247005.0,949953941.5,,0.747585634958,-0.281365296884,0.109622925826,-0.039566964111,0.999203747315,-0.00245793471902,0.00442538294639,-0.0293291769027,0.00473804423984,-0.057060509322,-0.0677916564528,0.053104452959,0.0704394113949,1.72343581915,0.785396724939,4.81114315986,0.0666056089103,0.831544935705,0.270706951618,845759.0,1518247005.0,940999936.0,,,,,,281672.5,1518247005.0,955990852.5,,-2.31900004446,2.25400002002,-0.00799998641035,0.00750000035625,0.010000000475,0.0265000006184,3.0
2,160.684683205,16073.5,1518247006.0,9955213.0,,2138889.5,1518247006.0,9955213.0,,0.745321379538,-0.280142612495,0.106219854814,-0.0419560955758,0.999110160705,-0.00355635185967,0.00242860937399,-0.0467722411128,0.0418516704389,-0.0682464145432,-0.0165199769064,0.0925779306581,0.0825147507895,2.38324034214,1.04151180387,4.45610523224,-0.0748486965895,1.07265084982,0.245872840285,2139235.0,1518247006.0,13043093.5,,,,,,281678.5,1518247006.0,15658664.5,,-2.01399997771,1.01400001049,-0.557999998332,0.0170000004582,0.00299999979324,0.0120000003372,3.0
3,160.787247308,16085.5,1518247006.0,129951042.0,,2138901.5,1518247006.0,129951042.0,,0.74140722063,-0.27534536717,0.0990331785382,-0.0442951558855,0.999015026231,-0.00207150569656,-0.00147200618263,-0.0411286173674,0.0318966674458,-0.0709832394014,-0.0166935713506,0.0878110774599,0.033203212802,3.66946613789,0.993471473457,4.80136084557,-0.176203642041,1.49513524771,0.270401716232,1492506.5,1518247006.0,137503370.5,,,,,,281691.0,1518247006.0,139030264.0,,-1.56900004447,0.963999998569,-0.722999989986,0.0189999993891,0.0130000002682,0.0419999994338,3.0
4,160.88981141,16095.5,1518247006.0,229947147.5,,2138911.5,1518247006.0,229947147.5,,0.73785166556,-0.272928145425,0.0933388464598,-0.0484561445188,0.998805042322,-0.00318597441111,-0.00550640435551,-0.0440799160702,0.0412762060305,-0.056202399714,0.0007313401246,0.103259718019,0.0794504760128,1.18267044425,0.882884919644,5.6057472229,-0.0372745990753,0.68696990609,0.247705988586,1492513.0,1518247006.0,232526808.5,,,,,,281700.5,1518247006.0,235851809.5,,-0.99399999678,1.29399999678,-0.187999993563,0.0219999994151,-0.00050000002375,0.0139999995008,3.0
5,160.992375513,16106.5,1518247006.0,339463970.0,,2138922.5,1518247006.0,339463970.0,,0.731942934429,-0.271596624537,0.0876677597177,-0.050633329759,0.998640158536,-0.00364344320461,-0.0118660885616,-0.0498685650014,0.0143394071956,-0.0499658922716,-0.0191823685592,0.101004121114,0.0665923175506,3.35856747627,0.896955162287,5.20315790176,-0.119584809988,1.43270283938,0.223619863391,845774.5,1518247006.0,345500032.0,,,,,,281711.5,1518247006.0,345066018.5,,-1.38899997771,1.79400000423,-0.502999991179,0.0155000004452,0.0535000003875,-0.00199999997858,3.0
6,161.094939615,16118.5,1518247006.0,459953860.5,,2138934.5,1518247006.0,459953860.5,,0.727851882423,-0.270180197943,0.0826952562639,-0.0531025605597,0.998448444012,-0.00423708504103,-0.0162009292272,-0.0189161586128,0.0406107539948,-0.0397920989292,0.0433191882286,0.0409446386175,0.00840814215095,3.13827943802,0.985223323107,4.89315986633,0.024986770004,1.2030774951,0.234216146171,1492529.5,1518247006.0,456017862.5,,,,,,281723.5,1518247006.0,466453690.5,,-0.473999986052,2.57400001288,0.161999970675,0.0290000000969,-0.00050000002375,-0.0134999998845,3.0
7,161.197503718,16128.5,1518247006.0,564954231.0,,2138945.0,1518247006.0,564954231.0,,0.728889048656,-0.270266618451,0.0794699982651,-0.0525907499538,0.998502700207,-0.00488179232818,-0.014216687016,0.0133610460692,0.0166893413659,-0.0334195276118,-0.0360329588407,-0.0445723695622,0.081577556675,3.8492230177,1.43996679783,5.12967395783,-0.442840769887,1.88152080774,0.18105815351,1492537.0,1518247006.0,561999363.5,,,,,,281734.0,1518247006.0,569371716.0,,-0.159000018239,0.899000000954,-1.18799999543,0.0339999990538,0.00150000024585,0.0279999999329,3.0
8,161.300067821,16139.5,1518247006.0,674466816.5,,2138956.0,1518247006.0,674466816.5,,0.728325712371,-0.269238693386,0.0766222370716,-0.0543683685492,0.998401903836,-0.00551084622918,-0.014395922527,-0.0164019859901,-0.0034230807874,-0.027325486434,0.00213106723275,0.0326880727511,0.00209200805425,2.46443796158,1.15744251013,4.37702322006,-0.198027223349,1.08212262392,0.194533675909,2139301.0,1518247006.0,672526312.0,,,,,,281744.5,1518247006.0,676504133.5,,-0.993999996779,1.10399998799,-1.22299999557,0.0209999997169,-0.0345000009984,0.00849999999627,3.0
9,161.402631923,16147.5,1518247006.0,754952328.0,,2138964.0,1518247006.0,754952328.0,,0.726772487065,-0.267607103656,0.0741432708494,-0.0555187233276,0.998316649234,-0.00478014512564,-0.0160767841079,-0.0338486297957,0.0216580166801,-0.0319372765359,0.0133688252833,0.0783097044529,0.0300365467932,1.81407922506,1.44659614563,4.4724240303,-0.390994146466,0.896119087935,0.1788931638,845791.0,1518247006.0,752999936.0,,,,,,281752.5,1518247006.0,756807072.5,,-1.1839999944,2.21399999857,-0.952999994159,0.0135000003502,-0.0204999996349,0.0164999999106,3.0
10,161.505196026,16159.5,1518247006.0,869947895.0,,2138975.5,1518247006.0,869947895.0,,0.724864180085,-0.266191505116,0.0702930168143,-0.0575406603021,0.99817673709,-0.00464138792519,-0.017626067164,-0.0032237313113,0.0274894110493,-0.0323022279483,0.0270901703237,0.00422754666184,0.0390625028742,4.18837380409,1.37543231249,4.29153442383,-0.327661186456,1.77428567409,0.163663208485,2139320.5,1518247006.0,868037715.0,,,,,,281764.5,1518247006.0,876108730.5,,-1.66399995386,0.264000010491,-0.747999995947,0.0165000008419,-0.0210000006482,-0.00649999990128,3.0
11,161.607760128,16167.5,1518247006.0,954950580.0,,2138984.0,1518247006.0,954950580.0,,0.724753120958,-0.264735522186,0.0674753773177,-0.0568639383748,0.998220822438,-0.00432950543579,-0.0174049633481,-0.00595654148255,-0.0058368569423,-0.033566737319,-0.00275204952939,0.010888786522,-0.0603138007154,2.95906102657,1.11838132143,4.6193368435,-0.323412969708,1.41780295968,0.208678230643,1492564.0,1518247006.0,956019104.0,,,,,,281773.0,1518247006.0,960674790.0,,-2.08400003016,1.49900000059,-0.25799998641,0.00999999977649,-0.0094999996363,0.0164999999106,3.0
12,161.710324231,16180.5,1518247007.0,79964694.0,,2138996.5,1518247007.0,79964694.0,,0.723720975244,-0.265423945805,0.0628705505597,-0.0578179390794,0.998144081282,-0.00526487050274,-0.0183740449875,-0.00277626460325,-0.0100167607232,-0.0387821620061,0.00663132968705,-0.00015906185055,-0.00908474271717,4.02758407593,0.89507868886,3.94862139225,-0.105137966573,1.54158896208,0.187461040914,2139341.5,1518247007.0,78050000.5,,,,,,281785.5,1518247007.0,86191939.0,,-0.83400003016,3.8589999795,-0.173000007868,0.0109999999986,0.0205000005662,-0.035000000149,3.0
13,161.812888333,16187.5,1518247007.0,149956871.0,,2139003.5,1518247007.0,149956871.0,,0.723608193456,-0.264117181671,0.0607669034412,-0.0588024401452,0.998087578487,-0.00464813472218,-0.0184880731775,0.00400047313068,0.0239924454223,-0.0374030740661,0.0268723526593,-0.0127235136961,0.0267902243108,2.63095915318,0.815087020398,4.05286192894,-0.102816745639,1.1218598485,0.208301320672,845806.5,1518247007.0,154499968.0,,,,,,281792.5,1518247007.0,156139232.5,,-1.93900004924,3.15899999141,-0.482999980449,0.00200000003679,0.0189999993891,0.0120000001625,3.0
14,161.915452436,16197.5,1518247007.0,249949404.0,,2139013.5,1518247007.0,249949404.0,,0.724062441723,-0.264035339211,0.0569265109205,-0.0590091143716,0.998090363816,-0.00428966279694,-0.0177510355104,0.00290208988493,-0.00309224587527,-0.0407378390793,-0.0105786394383,-0.01038124739,0.0100400278409,4.36226415634,1.18851041793,4.40302276611,-0.402924463153,1.90039223432,0.12364128232,1492584.0,1518247007.0,245033239.5,,,,,,281802.5,1518247007.0,256793214.5,,-0.658999988437,3.53400005102,-0.023000001907,0.0100000002421,0.0125000001863,0.00499999988824,3.0
15,162.018016538,16210.5,1518247007.0,379959814.0,,2139026.5,1518247007.0,379959814.0,,0.723613130398,-0.265035823173,0.0519771185998,-0.058945885655,0.998068034831,-0.00464998371028,-0.0190708366308,0.001260983226,-0.0178021038003,-0.0378684536395,0.00658271156001,0.0047783546525,-0.0462538017718,3.12216770649,1.13994318247,3.89580297471,-0.23953551054,1.29255241156,0.172201469541,2139371.5,1518247007.0,378038121.0,,,,,,281815.5,1518247007.0,386623264.5,,-1.97900001109,0.999000009893,0.192000001669,0.00950000016017,-0.00300000002607,-0.00199999986216,3.0
16,162.120580641,16219.5,1518247007.0,474958130.0,,2139036.0,1518247007.0,474958130.0,,0.724489451859,-0.2651398742,0.0478541942504,-0.0572312338592,0.9981868076,-0.00394145297737,-0.0182249267079,0.00303056148505,0.0108795925194,-0.038880722831,0.0282210611576,0.00240537470654,-0.0868156299533,1.84162151814,0.992726922035,4.47231578827,-0.263141483068,0.790754675865,0.137495115399,2139381.0,1518247007.0,473026428.0,,,,,,281824.5,1518247007.0,477391255.5,,-2.24399999678,0.604000014066,-0.352999985218,0.00300000002608,-0.0104999999167,0.0405000001192,3.0
17,162.223144744,16228.5,1518247007.0,569018867.0,,2139045.5,1518247007.0,569018867.0,,0.724903364311,-0.265900353539,0.0444285058002,-0.0560541512614,0.998264909064,-0.00375584748566,-0.0176328678882,-0.00594978580846,-0.00417138700605,-0.0384958082004,-0.00828371243145,0.0135574828616,0.0136910648245,3.84248805046,1.24189633131,3.91610097885,-0.351935848594,1.66506713629,0.169037282467,2139390.5,1518247007.0,567089603.0,,,,,,281834.0,1518247007.0,573933973.0,,-1.26899997294,1.30400000215,-0.0329999625683,0.00800000037998,0.00899999961257,0.00200000009499,3.0
18,162.325708846,16240.5,1518247007.0,684031756.5,,2139057.0,1518247007.0,684031756.5,,0.724742998621,-0.266749881942,0.0402864485029,-0.0558641890362,0.998265973865,-0.00408854590129,-0.0180847371151,-0.00048260228707,-0.0114969192654,-0.0432960041169,-0.00404937996509,0.000494862724695,-3.2569470905e-05,3.78582942486,1.05316948891,3.49335134029,-0.132337812334,1.46142232418,0.190679453313,2139401.5,1518247007.0,677107176.5,,,,,,281845.5,1518247007.0,687219184.0,,-0.318999999762,1.62399999499,-0.752999987454,0.0170000004582,0.00399999984075,0.00500000012107,3.0
19,162.428272949,16249.5,1518247007.0,774035414.5,,2139066.0,1518247007.0,774035414.5,,0.725631940106,-0.267663066921,0.0373566995465,-0.0548837364396,0.998337568593,-0.00351818108866,-0.0172449082648,0.0175380425596,-0.0146527335019,-0.0334968327695,0.00481860915544,-0.0340634969429,-0.0089559282388,2.52298212051,1.13471925259,3.73294150829,-0.247486159205,0.952002465725,0.158863775432,2139411.0,1518247007.0,772108683.0,,,,,,281854.5,1518247007.0,777924799.0,,-0.29399998635,0.878999982775,-2.02799999714,-0.0115000000224,-0.0079999998561,0.00300000014249,3.0
20,162.530837051,16260.5,1518247007.0,889049340.5,,2139077.5,1518247007.0,889049340.5,,0.726331303522,-0.268392457752,0.0370623500376,-0.0538333648868,0.998403991466,-0.00355065317246,-0.0166964387907,0.00776896947258,0.00091465012469,-0.00287070665186,-0.0082536539362,-0.0232308282515,-0.0007033616178,4.10952472687,1.1456258893,-0.398108825088,-0.20936088264,1.1432992816,0.216295078397,2139421.5,1518247007.0,877112454.5,,,,,,281865.5,1518247007.0,886692899.0,,0.311000010371,1.80899999737,-4.72800001502,-0.143500000239,0.107000000775,-0.0694999992848,-1.0
21,162.633401154,16269.5,1518247007.0,974045141.5,,2139086.0,1518247007.0,974045141.5,,0.726673110564,-0.267755754122,0.0371029420229,-0.0546710356112,0.998366328437,-0.00359666403302,-0.0162105447709,0.00092944785145,-0.00473741185218,0.00446277242198,-0.0159529556653,-0.0023666229899,0.00372401817623,3.7971855402,1.26089066267,0.600005149841,-0.351683869958,1.19527322054,0.183945059776,2139430.5,1518247007.0,967119920.0,,,,,,281874.5,1518247007.0,977494226.0,,1.04600001723,2.07900000065,-4.98300001026,-0.152499996125,0.188999995589,-0.0554999988526,-1.0
22,162.735965256,16281.5,1518247008.0,89051976.5,,2139097.5,1518247008.0,89051976.5,,0.726903981141,-0.267824353563,0.0370423217022,-0.054077217597,0.998403653379,-0.00335679981869,-0.0159500475135,-0.00208066865571,0.000842841215318,0.00376816217616,-0.00640203025287,0.00774405212964,0.0135720377569,3.50020122528,1.58306002617,0.467370733619,-0.566116988659,1.07356238365,0.127219207585,2139442.0,1518247008.0,82112697.0,,,,,,281886.5,1518247008.0,96835483.5,,0.0309999942779,2.3439999938,-6.59799990058,-0.218999996781,0.216499999166,-0.0934999994932,-1.0
23,162.838529359,16290.5,1518247008.0,189038774.5,,2139107.5,1518247008.0,189038774.5,,0.726552003964,-0.267654295041,0.0367307850816,-0.0542890517275,0.998388800897,-0.00328790433872,-0.0161594099265,-0.0055264727805,0.00415754576015,-0.00282093462916,0.00220558205251,0.00995325750716,-0.000330684111,3.97634387016,1.47595369816,0.528018638492,-0.513874992729,1.31205058098,0.138283696026,2139452.0,1518247008.0,182111916.0,,,,,,281895.5,1518247008.0,187203670.5,,0.331000002474,1.9539999783,-4.7729999721,-0.168499998748,0.247000001371,-0.0769999995828,-1.0
24,162.941093462,16299.5,1518247008.0,274034743.0,,2139116.0,1518247008.0,274034743.0,,0.726501829185,-0.267176050233,0.0368693603678,-0.0544646894348,0.998376241192,-0.00323841838761,-0.016370439042,-0.0126820438607,-0.0184683113414,-0.00739626261611,-0.00645597475488,0.0348543978351,-0.0152981591096,3.43157243729,1.4909734726,0.510296285152,-0.548183143139,1.09627175331,0.112873017788,2139461.0,1518247008.0,272138917.0,,,,,,281904.5,1518247008.0,277745874.0,,0.491000002623,2.48900000453,-4.9129999578,-0.171000003815,0.266499996185,-0.0980000011623,-1.0
25,163.043657564,16313.5,1518247008.0,414040804.0,,2139130.0,1518247008.0,414040804.0,,0.726476432624,-0.267685798083,0.0368247478131,-0.0541317617119,0.998393247408,-0.00335694690848,-0.0164136166311,0.00991350300618,0.0107439295683,0.0119991908866,-0.0105614658265,-0.0194047279245,0.0328937796459,3.44513106346,1.71362411976,0.498054534197,-0.643945395947,1.07586240768,0.128193259239,1492664.5,1518247008.0,399046426.5,,,,,,281918.5,1518247008.0,417345709.0,,0.321000000834,1.76399999559,-4.5229999721,-0.153999999166,0.222500003875,-0.0795000009239,-1.0
26,163.146221667,16320.5,1518247008.0,484036717.0,,2139137.0,1518247008.0,484036717.0,,0.72626998453,-0.266657976156,0.036744991682,-0.0547488363239,0.998356830842,-0.00296177506645,-0.0166562637112,-0.0163752812485,0.00429415555187,-0.0111943655313,0.0102231936276,0.0301834156721,-0.00911086613693,3.53835773468,1.76265966892,0.52491992712,-0.772634744644,1.11144518852,0.0692031979561,2139481.5,1518247008.0,477088473.0,,,,,,281925.5,1518247008.0,487499523.5,,0.426000005007,1.32400000169,-5.68799981475,-0.203500002623,0.266499996186,-0.0859999991953,-1.0
27,163.248785769,16332.5,1518247008.0,604033540.0,,2139149.0,1518247008.0,604033540.0,,0.726725017157,-0.267664188381,0.0370024822087,-0.0540371415338,0.998404860641,-0.00331343412712,-0.0160183223582,0.00625417394895,-0.00915441974223,0.00518702227202,0.00198809264933,-0.0133055546908,-0.0133857690544,3.56375241279,1.5346403122,0.636780619622,-0.528733581305,1.14583277703,0.140049032867,2139492.0,1518247008.0,582089073.0,,,,,,281938.0,1518247008.0,612914143.5,,-0.303999984264,2.03900000155,-5.10300013423,-0.180500000715,0.249000005424,-0.0945000015199,-1.0
28,163.351349872,16340.5,1518247008.0,684038605.5,,2139157.0,1518247008.0,684038605.5,,0.726689624446,-0.267175775922,0.0367970330247,-0.0543141890098,0.998385591584,-0.00324288154692,-0.0162969538342,0.00417434053602,-0.00197560294845,0.00650137184025,7.0323418365e-05,-0.010462887676,0.00512219921965,3.57636487484,1.56800699234,0.628062039613,-0.518269822001,1.150611341,0.130981639027,2139501.5,1518247008.0,677105342.5,,,,,,281945.5,1518247008.0,688919494.5,,0.521000003814,1.61400000453,-5.07300004363,-0.178999997676,0.254999995231,-0.0835000015796,-1.0
29,163.453913974,16352.5,1518247008.0,804057168.0,,2139169.0,1518247008.0,804057168.0,,0.726522114717,-0.267498535634,0.0366008946079,-0.0544145791065,0.99837815748,-0.0034375134247,-0.0163796138027,-0.0108629787364,-0.00534183033882,-0.0134209403884,0.0170007841744,0.0217888076201,0.00146955829751,3.74583292007,1.36266517639,0.728994905949,-0.401144951582,1.23161244392,0.143058866262,2139513.5,1518247008.0,797124555.5,,,,,,281957.5,1518247008.0,808590999.5,,0.306000004895,0.774000000953,-4.55800005794,-0.149499997497,0.237999998033,-0.0970000028612,-1.0
30,163.556478077,16362.5,1518247008.0,909040956.0,,2139179.5,1518247008.0,909040956.0,,0.726507110274,-0.267718022715,0.0367355415689,-0.0541524558214,0.998392645053,-0.0033327873248,-0.0163758353903,0.0148881582156,-0.00918708062858,0.00751833239168,0.00070516435125,-0.0319685425225,-0.0187475397217,3.35554194451,1.26455849409,0.753814697265,-0.371593251824,1.07991564274,0.143476538361,2139523.0,1518247008.0,892113499.0,,,,,,281967.5,1518247008.0,909389036.0,,0.320999998972,-0.23599998951,-4.99300000071,-0.153999999166,0.250999994576,-0.0769999995828,-1.0
31,163.659042179,16373.5,1518247009.0,19033648.5,,2139190.5,1518247009.0,19033648.5,,0.726982982104,-0.267244368501,0.0371601143806,-0.0545521101607,0.998380818459,-0.00327671305819,-0.0157791813519,-0.00465931927507,0.00628897919487,-5.277413536e-05,-0.0060111051825,0.00630549033138,0.0075245329422,3.41908431054,1.12849885225,0.734532475472,-0.316686287522,1.08539837599,0.137983873486,1492706.5,1518247008.5,503042758.5,,,,,,281978.5,1518247009.0,18207788.5,,0.890999993683,2.7189999938,-4.9129999578,-0.165500000119,0.244499996305,-0.114999998361,-1.0
32,163.761606282,16382.5,1518247009.0,99071395.0,,2139198.5,1518247009.0,99071395.0,,0.726786321945,-0.267433925207,0.0371057661332,-0.0542920629978,0.998388869536,-0.0033219899679,-0.0161543284757,0.00864667171894,0.0118996010798,0.00744144795074,0.00193478643747,-0.0134253936808,0.0106328199834,3.27923309803,1.18453913927,0.748402237892,-0.33626781404,1.047757864,0.139131292701,2139543.5,1518247009.0,97138611.5,,,,,,281987.5,1518247009.0,109076063.0,,0.61600000076,1.86400000453,-5.69800004363,-0.193000003696,0.246500000357,-0.106000002473,-1.0
33,163.864170385,16394.5,1518247009.0,224056986.0,,2139211.0,1518247009.0,224056986.0,,0.726292741014,-0.26790110855,0.0367687577153,-0.0537144143996,0.998414618184,-0.00351557520451,-0.0164515230966,-0.00387721548437,0.00325062637408,-0.00152662332076,0.0112764111659,0.00491675372736,0.00575677992136,3.3212826252,1.18748021126,0.77285695076,-0.29869800806,1.03991806507,0.156787484884,1492722.5,1518247009.0,225068119.5,,,,,,281999.5,1518247009.0,228429027.0,,0.416000003368,2.80400000215,-4.8979999721,-0.171999998391,0.243500001729,-0.0975000001489,-1.0
34,163.966734487,16402.5,1518247009.0,304062909.0,,2139219.0,1518247009.0,304062909.0,,0.726688105674,-0.267141571668,0.0371615064162,-0.0548414694977,0.998356980846,-0.00345249632023,-0.0162373164731,1.231005828e-05,0.00611699126234,-0.00711658526796,0.00903442648494,-0.00424800985906,0.00111594804395,3.37744688988,1.03876775503,0.750083297491,-0.243992343545,1.07340067625,0.147304899991,2139563.5,1518247009.0,297125731.0,,,,,,282007.5,1518247009.0,308579949.5,,1.40100001395,0.734000009298,-5.18800005317,-0.130000002682,0.209999993443,-0.0944999977947,-1.0
35,164.06929859,16414.5,1518247009.0,424055797.0,,2139231.0,1518247009.0,424055797.0,,0.726641373285,-0.267348132296,0.0370439186973,-0.0546026110739,0.998370187036,-0.00359299612273,-0.0162053966201,0.00414832217153,0.00254935718322,-0.000618380491567,-0.0146586872807,-0.0115056654808,0.0138842527646,3.36607909203,1.10516321659,0.777861952782,-0.242360264063,1.08173501492,0.16199952364,2139576.0,1518247009.0,422148008.5,,,,,,282019.5,1518247009.0,428200842.5,,0.431000002101,1.83899999857,-5.18800005317,-0.177500002086,0.24699999392,-0.0910000018776,-1.0
36,164.171862692,16426.5,1518247009.0,549062124.0,,2139243.5,1518247009.0,549062124.0,,0.726339363195,-0.267689339796,0.0369418487757,-0.0543666351737,0.998376932409,-0.0035150241438,-0.0165943989227,-0.00121782708775,-0.00228774607144,0.00346738818272,-0.0192904547805,0.0028325073849,0.0013141395184,3.44652652741,1.18333360553,0.745198071003,-0.329646848143,1.11107611657,0.138192974031,2139587.0,1518247009.0,532117974.0,,,,,,282031.5,1518247009.0,549800499.0,,-0.258999982476,3.63400001526,-5.038000077,-0.169500000775,0.241499997676,-0.116000000387,-1.0
37,164.274426795,16434.5,1518247009.0,624058952.5,,2139251.0,1518247009.0,624058952.5,,0.726840010421,-0.26745745501,0.036902195981,-0.0546800344669,0.998370416845,-0.00347529395495,-0.0159525082415,0.00183758417587,0.00403719607705,0.00035461089036,0.00375099828537,0.00393013065352,-0.00339252356398,3.50779759884,1.07985365391,0.82232439518,-0.255402982235,1.13664191961,0.144005432725,2139596.5,1518247009.0,627127018.5,,,,,,282039.5,1518247009.0,629531192.0,,-0.283999988437,1.3590000093,-5.05300006271,-0.164500005543,0.227499999106,-0.0849999971688,-1.0
38,164.376990897,16444.5,1518247009.0,724055263.0,,2139261.0,1518247009.0,724055263.0,,0.726515611811,-0.267989204314,0.0371501596266,-0.0543743224062,0.998382582526,-0.00346928010698,-0.0162362577743,-0.00362181970005,0.00942423909093,0.00143346710794,-0.00819906672362,0.00494220026568,0.0157965933372,2.75418543816,0.987197041512,1.79277467728,-0.249931633472,0.817716777325,0.142696857452,2139606.5,1518247009.0,727171680.5,,,,,,282049.5,1518247009.0,728383048.0,,1.28100000918,1.68400000483,-4.83300003409,-0.159499995411,0.238999992609,-0.0799999982119,-1.0
39,164.479555,16455.5,1518247009.0,839059674.5,,2139272.5,1518247009.0,839059674.5,,0.726641350548,-0.267046851381,0.0369599812457,-0.0548526575774,0.998357620022,-0.00345726129281,-0.0161547015851,-0.00546795169465,-0.00645927746978,-0.00454596959483,0.00310136601835,0.0105754445356,-0.0106640924105,2.77126598358,0.843801856041,1.7292368412,-0.173196949064,0.850214451551,0.157937787474,2139617.0,1518247009.0,832152015.0,,,,,,282060.5,1518247009.0,839535687.5,,1.2210000217,1.19400000647,-4.05800005793,-0.122999999672,0.220999993384,-0.0815000012517,-1.0
