,Unnamed: 0,.header.seq,.header.stamp.secs,.header.stamp.nsecs,.header.frame_id,.endpoint_state.header.seq,.endpoint_state.header.stamp.secs,.endpoint_state.header.stamp.nsecs,.endpoint_state.header.frame_id,.endpoint_state.pose.position.x,.endpoint_state.pose.position.y,.endpoint_state.pose.position.z,.endpoint_state.pose.orientation.x,.endpoint_state.pose.orientation.y,.endpoint_state.pose.orientation.z,.endpoint_state.pose.orientation.w,.endpoint_state.twist.linear.x,.endpoint_state.twist.linear.y,.endpoint_state.twist.linear.z,.endpoint_state.twist.angular.x,.endpoint_state.twist.angular.y,.endpoint_state.twist.angular.z,.endpoint_state.wrench.force.x,.endpoint_state.wrench.force.y,.endpoint_state.wrench.force.z,.endpoint_state.wrench.torque.x,.endpoint_state.wrench.torque.y,.endpoint_state.wrench.torque.z,.joint_state.header.seq,.joint_state.header.stamp.secs,.joint_state.header.stamp.nsecs,.joint_state.header.frame_id,.joint_state.name,.joint_state.position,.joint_state.velocity,.joint_state.effort,.wrench_stamped.header.seq,.wrench_stamped.header.stamp.secs,.wrench_stamped.header.stamp.nsecs,.wrench_stamped.header.frame_id,.wrench_stamped.wrench.force.x,.wrench_stamped.wrench.force.y,.wrench_stamped.wrench.force.z,.wrench_stamped.wrench.torque.x,.wrench_stamped.wrench.torque.y,.wrench_stamped.wrench.torque.z,.tag
0,233.033944,23308.5,1518247078.0,359834026.5,,2146124.5,1518247078.0,359834026.5,,0.754908941155,-0.290311939209,0.118993018179,-0.0304371123965,0.999473741825,-4.34679177199e-05,0.0112084178853,-0.0613334046997,0.0243424367278,-0.0415987829249,-0.0260885237024,0.126278762727,0.0305935719127,2.27437263727,1.49133086205,4.77929115296,-0.349517703056,1.09131973982,0.210855543614,1497546.5,1518247078.0,357449023.0,,,,,,288906.5,1518247078.0,367106672.0,,-0.491999994218,-1.66500003338,0.64799999576,0.0120000001043,-0.0075000000652,0.0565000008792,3.0
1,233.136508103,23322.5,1518247078.0,504815136.0,,2146139.0,1518247078.0,504815136.0,,0.749463660447,-0.284802912409,0.112431764606,-0.0349540337354,0.999368619934,9.15102049414e-05,0.00636935180823,-0.0193524640333,0.0765844035242,-0.050324214375,0.0451072656911,0.0342192539241,0.0915038832069,1.72605025768,1.48645997047,4.26975488663,-0.440098255873,0.835942089558,0.214771866798,1497556.5,1518247078.0,503438471.5,,,,,,288920.5,1518247078.0,506957434.5,,1.47799994499,-3.01000002287,0.282999986224,0.0164999999106,0.000500000023745,0.0620000008493,3.0
2,233.239072205,23331.5,1518247078.0,589813625.0,,2146147.5,1518247078.0,589813625.0,,0.745736542268,-0.283293409975,0.107229307586,-0.038765673912,0.999243307511,-0.00204005960084,0.00241885046424,-0.0573973812165,0.0165615882145,-0.0693364918704,-0.0819384990711,0.121810638808,0.119380632405,2.8833783865,0.610115736723,5.03164315223,0.135138593614,1.25859206915,0.266833379865,848632.0,1518247078.0,592000000.0,,,,,,288929.5,1518247078.0,599207927.5,,-0.301999996602,-2.94000002444,0.242999994568,0.0065000001923,0.0159999998286,0.0614999998361,3.0
3,233.341636308,23341.5,1518247078.0,689800868.0,,2146157.5,1518247078.0,689800868.0,,0.741192118031,-0.279999831966,0.101866112252,-0.0429818333086,0.999069050969,-0.0028833222248,-0.00225180635408,-0.0436679456234,0.0424572207513,-0.0566661546069,0.0291186895594,0.0993758974802,0.0479160124594,3.42352151871,1.05852094293,5.01511669159,-0.111367922276,1.43412309885,0.223216116428,1497569.0,1518247078.0,688446378.5,,,,,,288939.5,1518247078.0,698257851.5,,-0.672000001371,-0.180000019074,0.357999989204,0.022500000894,0.000499999965545,0.0319999996573,3.0
4,233.44420041,23352.5,1518247078.0,799801528.0,,2146168.5,1518247078.0,799801528.0,,0.736789150024,-0.275150904541,0.0957808317496,-0.0445083348186,0.998983802442,-0.00166503516592,-0.00684450316975,-0.0323984154753,0.0347885322351,-0.048688702923,0.00868246055155,0.0581896187254,0.0378939382182,1.86396491527,0.750610381365,4.8976445198,0.0144320651889,0.889033436776,0.254278451204,848640.5,1518247078.0,802000000.0,,,,,,288950.5,1518247078.0,809585878.0,,-0.432000006737,-1.15499998331,0.0530000044033,0.0150000003632,0.0204999996349,0.0419999994338,3.0
5,233.546764513,23363.5,1518247078.0,909805464.5,,2146179.5,1518247078.0,909805464.5,,0.734324616925,-0.27406082757,0.0904164688678,-0.047642507892,0.998816290587,-0.00308309317423,-0.00930095995879,-0.0114879818873,0.0289706465959,-0.0517535009134,-0.0217203418027,0.0131614324468,0.0937738376377,0.992183417084,0.703072309494,5.4930844307,0.119340449572,0.578492075204,0.274492383003,1497585.0,1518247078.0,910450871.5,,,,,,288961.5,1518247078.0,918728577.5,,-0.577000002563,-0.225000095367,0.697999977879,0.0240000002086,0.0235000001266,0.0320000005886,3.0
6,233.649328615,23372.5,1518247078.5,499805954.0,,2146188.5,1518247078.5,499805954.0,,0.732388429295,-0.271634725913,0.0862075171152,-0.0503221961888,0.998667380831,-0.00301583977856,-0.011040285674,-0.010450152984,0.0231563327217,-0.0413131111802,0.0106177706058,0.00398111548775,0.0484644684593,3.79949259758,0.995868742466,5.09823203087,-0.186757721007,1.77258867025,0.230406478047,848648.5,1518247078.5,504000000.0,,,,,,288970.5,1518247079.0,9480048.5,,-0.437000001967,-0.334999990464,-0.067000007816,0.0295000001788,0.0410000011324,0.0400000000373,3.0
7,233.751892718,23380.5,1518247079.0,79804447.5,,2146196.5,1518247079.0,79804447.5,,0.730692454457,-0.270038280006,0.0824488461573,-0.0515436162033,0.998584644439,-0.00260641461167,-0.0128414110551,-0.0132033258691,0.0399368111769,-0.0520259886979,0.0181339615106,0.0168789353575,0.0525212670821,3.70796453953,1.38941156864,4.7321369648,-0.347462028265,1.67749357223,0.2085037902,2146541.5,1518247079.0,77874096.0,,,,,,288978.5,1518247079.0,88291728.5,,-0.526999990642,-1.72500003576,0.0130000015721,0.0169999995269,0.039999999106,0.0465000011026,3.0
8,233.854456821,23394.5,1518247079.0,219810772.0,,2146210.5,1518247079.0,219810772.0,,0.72621631573,-0.268078422953,0.0769163874967,-0.0530030427612,0.998441067548,-0.00267015117981,-0.0172880207572,-0.0377937902251,0.0152770937213,-0.0326707294969,0.00886261032805,0.0852872847468,0.0142553675049,2.47411453723,0.905014246704,4.66874289512,-0.0946309939028,1.09526509046,0.228282734752,2146555.5,1518247079.0,217906308.5,,,,,,288992.5,1518247079.0,228492066.5,,-0.392000015079,-2.12000001669,0.462999993376,0.0185000002384,0.0310000004247,0.0324999997392,3.0
9,233.957020923,23402.5,1518247079.0,299807247.0,,2146219.0,1518247079.0,304805867.0,,0.725219443387,-0.267620163594,0.0738982096815,-0.0542505176849,0.998362610717,-0.0031259333975,-0.0178623234414,-0.00912064966379,-0.00473311722611,-0.0333091906953,-0.0209585878006,0.0139269363336,0.02415002948,3.54456448555,1.06001514196,4.51323485374,-0.182794597,1.49387651681,0.232820920647,2146563.5,1518247079.0,297894246.0,,,,,,289000.5,1518247079.0,308729493.0,,-0.472000013292,-2.16500000357,0.248000004702,-0.0090000004857,0.0509999990463,0.0345000009984,3.0
10,234.059585026,23412.5,1518247079.0,399804928.0,,2146228.5,1518247079.0,399804928.0,,0.724711999284,-0.267388501401,0.0710477006562,-0.0561334697347,0.99824912528,-0.00435099543611,-0.0181296862387,0.00178056205858,0.0208133271022,-0.0330180575266,-0.0145034228841,-0.0101799280229,0.0682922064622,4.18189454078,0.947473347186,5.00478553772,-0.0632370263338,1.860052526,0.21725384891,1497618.5,1518247079.0,397450728.5,,,,,,289010.5,1518247079.0,409765255.5,,-0.991999994219,-1.50000001193,0.457999998144,0.00399999984075,0.058999998495,0.0410000011325,3.0
11,234.162149128,23423.5,1518247079.0,509805757.5,,2146239.5,1518247079.0,509805757.5,,0.724051965524,-0.2665443276,0.0668567282787,-0.0560855312432,0.99824862298,-0.00312856876857,-0.0185408724772,0.00941274021162,0.0103643707682,-0.0382585160922,0.0153901045668,-0.038488860784,0.0109383770872,4.09229016304,1.179299891,4.21635842323,-0.205067481845,1.68444627523,0.186537750065,1497626.5,1518247079.0,508947063.0,,,,,,289021.0,1518247079.0,514492588.0,,-0.706999997795,0.944999861717,0.182999992184,-0.00499999988824,0.0359999984503,-0.00499999988824,3.0
12,234.264713231,23431.5,1518247079.0,594805824.5,,2146248.0,1518247079.0,594805824.5,,0.724049651772,-0.26624891866,0.0641811619137,-0.0561195679525,0.998249293357,-0.00329288200244,-0.0183833857329,-0.00577724201794,0.0105163556181,-0.0295750800195,-0.0263874081764,0.0110195603103,0.0006795968794,1.78003364801,1.2919818759,4.10919332505,-0.410400256515,0.74959987402,0.149645254016,2146592.0,1518247079.0,582889573.0,,,,,,289029.5,1518247079.0,598808302.5,,-0.762000004947,-0.760000061989,-0.112000001222,0.0054999999702,0.0205000001005,0.035000000149,3.0
13,234.367277333,23444.5,1518247079.0,719804945.0,,2146261.0,1518247079.0,724804575.5,,0.722335527448,-0.265726676605,0.0596322627865,-0.0555854592924,0.998244748493,-0.00298207710207,-0.0202111134519,-0.00879744191318,0.00506872651949,-0.0444414281429,0.0202203548671,0.0116529547633,0.0160408137972,4.2054643631,0.992132782935,4.19453763961,-0.189195364714,1.69780540466,0.178137376904,1497642.0,1518247079.0,724950065.0,,,,,,289042.5,1518247079.0,728789659.0,,-0.662000010907,-1.77999998331,0.268000000529,0.0065000000177,0.0374999996275,0.0435000006109,3.0
14,234.469841436,23452.5,1518247079.0,799818330.0,,2146268.5,1518247079.0,799818330.0,,0.722910144152,-0.265614695616,0.0571616844042,-0.0555095999717,0.998266417812,-0.00243910934164,-0.0194073583885,-0.00516157509859,0.00509016298145,-0.0475493543434,0.0178415453154,0.0021394078713,0.0122347266619,3.53213369846,1.09664547444,4.15308928489,-0.328211158514,1.4662809372,0.199715733528,1497646.0,1518247079.0,795939689.0,,,,,,289050.5,1518247079.0,809209912.5,,-0.862000028791,-2.05500003398,-0.636999985762,0.0200000000186,0.035000000149,0.0604999996722,3.0
15,234.572405538,23464.5,1518247079.0,924809247.0,,2146281.0,1518247079.0,924809247.0,,0.723251691399,-0.266284822037,0.0535050454736,-0.0567306034959,0.998199230794,-0.00357013805873,-0.0191621602147,0.00918366771264,-0.0154068728256,-0.0276632522205,-0.0113431117603,-0.00888866419771,-0.0288286508636,3.53339672089,1.25782036781,4.0691947937,-0.269327819347,1.53469705582,0.16911162436,2146626.5,1518247079.0,927886779.0,,,,,,289062.5,1518247079.0,928780846.0,,-1.4419999525,0.179999995232,-0.00700000543147,0.0185000002384,-0.00400000018998,-0.00199999992037,3.0
16,234.674969641,23476.5,1518247080.0,39804255.5,,2146292.5,1518247080.0,39804255.5,,0.723807140937,-0.266264184258,0.0491666206344,-0.0560188007484,0.998247659173,-0.00298998760431,-0.0188252322082,-0.00151539502501,0.00229722898732,-0.0355746438621,0.000727068859275,0.00250016428595,0.0017565009209,3.35817837715,1.18205118179,3.89845764637,-0.22124299407,1.45686793327,0.181838139892,2146637.0,1518247080.0,32854913.0,,,,,,289074.5,1518247080.0,50177026.0,,-1.72699997872,-2.85000002551,0.158000001125,0.0165000008419,0.0135000003502,0.0480000004172,3.0
17,234.777533744,23483.5,1518247080.0,109805826.0,,2146299.5,1518247080.0,109805826.0,,0.724242717321,-0.266781138306,0.0466679839323,-0.0558600498668,0.998262457321,-0.00318186532843,-0.0184788465525,0.00109363618128,-0.00847730153678,-0.0469165621551,0.00659413283207,0.00172891758509,-0.0150204336916,3.48142313957,1.01964560151,3.50368416309,-0.267362475396,1.47932070494,0.164460763335,848692.5,1518247080.0,116499968.0,,,,,,289081.5,1518247080.0,120226545.0,,-0.722000013291,-2.71000002027,0.328000002913,0.011000000406,0.0119999998715,0.0590000003577,3.0
18,234.880097846,23496.5,1518247080.0,239805264.0,,2146313.0,1518247080.0,244806603.0,,0.72378883343,-0.268160940757,0.0416083339461,-0.0542287346852,0.998335072563,-0.00308805245798,-0.0194111091187,-0.00560998697791,-0.0146832026146,-0.0447860120025,0.0157445721705,0.0257482024609,-0.0656110619123,1.5112798214,1.20799160004,3.8992767334,-0.326698571444,0.578368604183,0.103901088238,2146657.0,1518247080.0,232895351.0,,,,,,289094.5,1518247080.0,249587369.5,,-0.331999997795,-1.04500002861,0.837999993376,-0.000499999616295,0.00499999983003,0.0330000016838,3.0
19,234.982661949,23506.5,1518247080.0,339809606.0,,2146322.5,1518247080.0,339809606.0,,0.724432422201,-0.268998692454,0.0371983838188,-0.0526004933635,0.998437768922,-0.00303011903739,-0.0186017016127,0.00644030211708,-0.0103812768592,-0.046014904737,0.0119496964469,-0.00374777330793,-0.0245652398423,3.5731831789,1.34918081761,3.99944925308,-0.353208035231,1.54277467728,0.178364492953,2146667.0,1518247080.0,332890230.0,,,,,,289104.5,1518247080.0,350621742.5,,0.52800000161,0.364999938011,0.403000005894,-0.000500000081955,0.0154999997467,0.0129999998026,3.0
20,235.085226051,23513.5,1518247080.0,409809472.0,,2146329.5,1518247080.0,409809472.0,,0.72510097888,-0.267901375911,0.0365781991705,-0.0524449035704,0.998453587992,-0.00199930527152,-0.018320730279,0.0186854040647,-0.00215290360913,0.00238910553479,0.0180373246347,-0.0280953826499,-0.0261351897744,0.585780203342,1.49621123076,1.83292776346,-0.677220553159,0.175325565041,0.194390967488,1497688.0,1518247080.0,399448013.5,,,,,,289111.5,1518247080.0,420611926.5,,-0.322000007331,0.104999947548,-5.65200010557,-0.297000005841,0.163000002503,-0.0259999996051,3.0
21,235.187790154,23526.5,1518247080.0,539804916.0,,2146342.5,1518247080.0,539804916.0,,0.725528634279,-0.267854105651,0.0364219174261,-0.0525202838775,0.99846003256,-0.00206719277385,-0.0177387769426,0.00442863044554,-0.0163117549936,0.00581634545409,-0.022159275123,0.00574819953497,-0.00955520202566,2.84874808789,1.15149766206,0.722166150808,-0.367832273245,0.920082867147,0.179183520377,2146687.0,1518247080.0,532857343.0,,,,,,289124.5,1518247080.0,549555475.5,,0.827999998629,0.0999999523163,-4.02699998636,-0.241999998689,0.199500001967,-0.0420000012964,-1.0
22,235.290354256,23534.5,1518247080.0,619897427.0,,2146350.5,1518247080.0,619897427.0,,0.725706907253,-0.267491762587,0.0367294325328,-0.0524752280881,0.998464301761,-0.00199647717788,-0.0176445353312,-0.00560410365129,-0.000334271380715,-0.0105619175844,0.00129944615709,0.0188422915224,0.00766997116511,2.9993917942,1.45142811537,0.474873557686,-0.478038579225,0.9381506145,0.171209819615,848712.5,1518247080.0,621999872.0,,,,,,289132.5,1518247080.0,629999130.5,,1.45800002366,-0.0300000429155,-3.4870000245,-0.193999998271,0.200999997556,-0.0359999993816,-1.0
23,235.392918359,23548.5,1518247080.0,764900429.0,,2146365.0,1518247080.0,764900429.0,,0.725064938557,-0.267349838153,0.0363692042869,-0.0531102560345,0.998421832367,-0.00210254852532,-0.0181307651902,-0.00548076172896,0.0036776714263,-0.00458802382803,0.0100262533706,0.0191211559738,-0.0231189909621,3.2039334774,1.4496101141,0.74401307106,-0.461381107569,1.11734163761,0.166279032826,1497712.5,1518247080.0,751491544.5,,,,,,289146.5,1518247080.0,769832930.0,,1.65299995691,-0.135000061989,-3.50199989099,-0.0709999985993,0.156999997794,-0.0565000008791,-1.0
24,235.495482462,23556.5,1518247080.0,839902342.5,,2146372.5,1518247080.0,839902342.5,,0.725969958847,-0.26829452561,0.0369282446393,-0.0522913501992,0.99847821291,-0.00260362358186,-0.0173221911921,0.00143027163426,-0.0180465790667,0.00529506555184,-0.00919464106868,-0.00501499668418,-0.0144851047911,3.09522593021,1.55082654953,0.530542850495,-0.529344290495,1.02774089575,0.148844733834,2146717.0,1518247080.0,832986433.0,,,,,,289154.5,1518247080.0,850157735.5,,0.142999996245,-1.0750000596,-4.45699993391,-0.211500003934,0.213500000537,-0.0325000006706,-1.0
25,235.598046564,23565.5,1518247080.0,929893370.5,,2146381.5,1518247080.0,929893370.5,,0.725850471277,-0.26828498454,0.0362911476393,-0.0521331466801,0.998487452281,-0.0023500169735,-0.017296570554,0.0130162778957,-0.0126212521162,0.0097092141098,-0.0164379844048,-0.0325660979173,0.00969713944356,3.37917995453,1.5181440711,0.630364745855,-0.467779710889,1.1401373148,0.175289139152,1497726.0,1518247080.0,931503421.0,,,,,,289163.5,1518247080.0,940762735.5,,-0.431999973206,-0.400000047686,-3.57200006265,-0.181500002741,0.196500003338,-0.0610000025481,-1.0
26,235.700610667,23578.5,1518247081.0,59909822.5,,2146394.5,1518247081.0,59909822.5,,0.726083126709,-0.267433575869,0.0365952188887,-0.0523766208686,0.998479696197,-0.0019863443865,-0.0170585083372,0.00324565068258,-0.0120264760183,0.00129970171488,0.00329839346239,-0.00460018274463,-0.0283047197834,2.77380943298,1.44116669893,0.682709753513,-0.441797614097,0.919594615698,0.170382797718,2146739.0,1518247081.0,52978711.0,,,,,,289176.5,1518247081.0,70029436.5,,1.08800001889,-1.80000002385,-4.30700007695,-0.152000002563,0.1875,-0.0285000000149,-1.0
27,235.803174769,23586.5,1518247081.0,139904447.5,,2146402.5,1518247081.0,139904447.5,,0.726149827643,-0.267237789891,0.0367868517344,-0.052897524014,0.998452489166,-0.0021461402546,-0.0170243135186,0.00858415432356,0.00798365252557,-0.00075030159452,0.0148187632891,-0.0152297519857,-0.00977215190758,3.48022079468,1.46755599976,0.649288296699,-0.377230420708,1.20604240894,0.184311181307,2146747.0,1518247081.0,132944258.0,,,,,,289184.5,1518247081.0,150147133.5,,0.972999994458,-2.22999999561,-1.60700002927,-0.102499999106,0.144000001252,-0.0240000002086,-1.0
28,235.905738872,23595.5,1518247081.0,229904576.0,,2146411.5,1518247081.0,229904576.0,,0.725825079578,-0.267813042449,0.0366055677988,-0.0527994797884,0.998450758329,-0.00227667896688,-0.0174086775711,5.79257151615e-05,0.0147547708874,-0.00224117948321,0.00986429119884,-0.00175753740533,0.0134611041083,2.99281394482,1.37700039148,0.785877972842,-0.333750993013,1.01541769505,0.216007418931,1497747.0,1518247081.0,232992890.5,,,,,,289193.5,1518247081.0,240863706.5,,0.707999988271,0.414999890328,-4.34699980039,-0.204499997198,0.224500000477,-0.066499998793,-1.0
29,236.008302974,23607.5,1518247081.0,349899079.0,,2146423.5,1518247081.0,349899079.0,,0.725657608534,-0.267830400888,0.0366033909261,-0.0527084230894,0.998452404826,-0.00233377220255,-0.0175823989558,0.00390829505438,0.0098710807259,0.00934385980304,-0.0017571650087,-0.00713099303825,0.00866566326897,2.95218408108,1.49700260163,0.736972332001,-0.404598891735,0.985865563153,0.191960901022,2146767.0,1518247081.0,332953364.0,,,,,,289205.5,1518247081.0,359955436.5,,1.12300001532,-0.560000014305,-3.33699992914,-0.169500000775,0.179499998689,-0.035000000149,-1.0
30,236.110867077,23619.5,1518247081.0,469895495.5,,2146436.0,1518247081.0,474892196.5,,0.726030245159,-0.267678438239,0.0366913711788,-0.0527275780989,0.998458693608,-0.00234864284675,-0.0171448603754,-0.0113702810003,-0.00982978220031,-0.00747308023018,-0.00643665782736,0.0187140358005,-0.0155231931855,3.13630509377,1.46631026268,0.722924619913,-0.356927916407,1.0756175518,0.214547976852,848746.5,1518247081.0,480499968.0,,,,,,289217.5,1518247081.0,480961634.0,,0.763000015915,-0.830000114441,-3.69199994821,-0.158500000834,0.183499999344,-0.0465000011027,-1.0
31,236.213431179,23630.5,1518247081.0,579903189.5,,2146446.5,1518247081.0,579903189.5,,0.72564054154,-0.267988195435,0.0366969979638,-0.0525403827649,0.99846056087,-0.00243583373954,-0.0176045603558,-0.00848755968214,-0.00360535583199,-0.00626124754182,-0.00180442933103,0.0130887958663,-0.00701744245841,3.11980009079,1.19485896825,0.81427025795,-0.200700432062,1.06832158565,0.216969422996,848750.5,1518247081.0,581499904.0,,,,,,289228.5,1518247081.0,591819160.5,,1.01799999624,-2.79500002116,-3.40699998159,-0.0914999991655,0.154500000179,-0.0130000002682,-1.0
32,236.315995282,23637.5,1518247081.0,649892497.0,,2146453.5,1518247081.0,649892497.0,,0.725732288315,-0.267999416639,0.0364248642991,-0.0524637688264,0.998464755208,-0.00238384610187,-0.017602247911,0.000922310546195,-0.0163675192101,0.00188984974806,-0.0118289381537,-0.0014567022912,-0.0231414155509,3.08380210399,1.2114303112,0.76848089695,-0.229462623596,1.05877143145,0.217004723847,1497776.5,1518247081.0,648999117.5,,,,,,289235.5,1518247081.0,661827805.0,,0.513000005669,-3.21500003133,-3.39699999112,-0.0984999984502,0.163000002503,-0.0145000005141,-1.0
33,236.418559385,23650.5,1518247081.0,779898566.0,,2146466.5,1518247081.0,779898566.0,,0.725487020731,-0.267333756375,0.0366612223537,-0.0532513682659,0.998421472711,-0.00235984856426,-0.0176933756456,-0.00267052765053,-0.00704545077172,-0.00071021548817,0.0075552461199,0.008885763357,-0.0233607860933,3.09327983856,1.41775846481,0.72454598546,-0.328110605479,1.05188065767,0.210914745927,848758.5,1518247081.0,782999936.0,,,,,,289248.5,1518247081.0,791306139.5,,0.157999996841,-1.83000002503,-2.75700000543,-0.089999999851,0.151000000536,-0.00350000004982,-1.0
34,236.521123487,23660.5,1518247081.0,879897614.0,,2146476.5,1518247081.0,879897614.0,,0.725916741483,-0.26759921464,0.0366540314905,-0.0528729739505,0.998450085042,-0.00219757522473,-0.0172298393865,-0.00325667700339,-0.00522024747667,-0.00865314110585,-0.00462037351864,0.0122084577432,-0.00984554790502,2.95251166821,1.22562843561,0.801403462886,-0.21405248344,1.00815418363,0.23215213418,1497792.5,1518247081.0,884984144.5,,,,,,289258.5,1518247081.0,892150130.5,,-0.186999991722,-1.97000004053,-3.66199997682,-0.179000005126,0.196000002325,-0.00149999989663,-1.0
35,236.62368759,23667.5,1518247081.0,949898530.5,,2146483.5,1518247081.0,949898530.5,,0.725507774353,-0.26783835088,0.0365689813359,-0.0528939168933,0.998439547541,-0.00245112739651,-0.0177307225681,-0.00535484145573,0.0114313825767,-0.00294084872827,0.00908491604731,0.00722092779975,0.00907086277055,3.10523235797,1.1617397666,0.906154513359,-0.171720709651,1.0829744339,0.241467736661,1497797.5,1518247081.0,949995796.5,,,,,,289265.0,1518247081.0,955939290.5,,-1.07700000256,-1.35000003576,-2.97700003404,-0.13899999857,0.1875,-0.0125000001863,-1.0
36,236.726251692,23681.5,1518247082.0,89898948.0,,2146497.5,1518247082.0,89898948.0,,0.726220176538,-0.268155293134,0.0367344285701,-0.0524399536804,0.998475160156,-0.00247744471384,-0.0170619991904,0.00386319931758,0.00099874597355,-0.00195532629784,-0.000378574969173,-0.00946235519396,0.00347412246622,2.9423046112,1.16914486885,0.822589218617,-0.156345553696,1.00284457207,0.231393858791,848771.0,1518247082.0,88999936.0,,,,,,289279.0,1518247082.0,95936659.5,,0.55800000839,-1.80000002385,-3.35700002927,-0.157999999821,0.180999994278,-0.00950000016017,-1.0
37,236.828815795,23691.5,1518247082.0,189895035.5,,2146507.5,1518247082.0,189895035.5,,0.725630309679,-0.268070913257,0.036532114454,-0.05227274612,0.998474675273,-0.00235298654355,-0.0176149896554,0.016343008656,-0.00674228315385,0.00515218495222,0.000345135928565,-0.0332134342829,-0.0156815652521,3.19152665138,1.09901207686,0.865991443395,-0.126922551542,1.1120840311,0.247030980885,848775.0,1518247082.0,190000128.0,,,,,,289289.5,1518247082.0,202649027.0,,0.987999995053,-2.12500004172,-2.42699996252,-0.125000003725,0.170499995351,-0.00450000003911,-1.0
38,236.931379897,23702.5,1518247082.0,299901845.0,,2146518.5,1518247082.0,299901845.0,,0.725956930131,-0.267401460142,0.0367019905038,-0.0528269529359,0.998450411694,-0.00227862593356,-0.0173462248553,-0.00133711259314,0.0121067642549,0.0028216179556,-0.00316681099048,0.00279983593686,0.0195239406862,3.05215096474,1.01390075683,0.876232802868,-0.0850537288934,1.04555112123,0.244873337447,848779.0,1518247082.0,289999872.0,,,,,,289300.5,1518247082.0,311623656.5,,-0.452000002563,-0.945000064371,-4.08700004835,-0.195000000298,0.201999999583,-0.0315000005066,-1.0
39,237.033944,23708.5,1518247082.0,359901057.5,,2146524.5,1518247082.0,359901057.5,,0.726063200533,-0.267547907333,0.0368513943404,-0.0530600758259,0.998440446127,-0.0023454260471,-0.0171964823589,-0.00602345681792,-0.0062734452497,-0.00519249253683,-0.0106369820838,0.0163832000912,0.0004638662998,3.16514015197,1.15497136116,0.793261915445,-0.150019429624,1.08065772057,0.235475435853,1497826.0,1518247082.0,357006982.5,,,,,,289306.5,1518247082.0,371487624.5,,0.112999994121,-0.955000054838,-3.52199999112,-0.171999998391,0.181499995292,-0.0260000005365,-1.0
