,Unnamed: 0,.header.seq,.header.stamp.secs,.header.stamp.nsecs,.header.frame_id,.endpoint_state.header.seq,.endpoint_state.header.stamp.secs,.endpoint_state.header.stamp.nsecs,.endpoint_state.header.frame_id,.endpoint_state.pose.position.x,.endpoint_state.pose.position.y,.endpoint_state.pose.position.z,.endpoint_state.pose.orientation.x,.endpoint_state.pose.orientation.y,.endpoint_state.pose.orientation.z,.endpoint_state.pose.orientation.w,.endpoint_state.twist.linear.x,.endpoint_state.twist.linear.y,.endpoint_state.twist.linear.z,.endpoint_state.twist.angular.x,.endpoint_state.twist.angular.y,.endpoint_state.twist.angular.z,.endpoint_state.wrench.force.x,.endpoint_state.wrench.force.y,.endpoint_state.wrench.force.z,.endpoint_state.wrench.torque.x,.endpoint_state.wrench.torque.y,.endpoint_state.wrench.torque.z,.joint_state.header.seq,.joint_state.header.stamp.secs,.joint_state.header.stamp.nsecs,.joint_state.header.frame_id,.joint_state.name,.joint_state.position,.joint_state.velocity,.joint_state.effort,.wrench_stamped.header.seq,.wrench_stamped.header.stamp.secs,.wrench_stamped.header.stamp.nsecs,.wrench_stamped.header.frame_id,.wrench_stamped.wrench.force.x,.wrench_stamped.wrench.force.y,.wrench_stamped.wrench.force.z,.wrench_stamped.wrench.torque.x,.wrench_stamped.wrench.torque.y,.wrench_stamped.wrench.torque.z,.tag
0,219.646976,21980.5,1518246691.0,189298062.5,,2107407.5,1518246691.0,189298062.5,,0.762035836068,-0.291486689273,0.126833287854,-0.0263701904654,0.999498959143,0.0035843573217,0.0171308084703,-0.025153115204,0.0086888929678,-0.0243819118138,-0.0249781968434,0.0486651327798,0.0427992767788,0.692012667656,1.65541237593,5.01866602897,-0.568333506584,0.464671522378,0.212598651648,1470529.5,1518246691.0,192179945.0,,,,,,250228.5,1518246691.0,199329484.0,,1.82499998994,0.444999985397,-0.294000001251,-0.00450000015553,0.00699999998324,0.0250000003725,3.0
1,219.749540103,21990.5,1518246691.0,289294529.0,,2107417.5,1518246691.0,289294529.0,,0.758530449695,-0.291764526445,0.124104434691,-0.0279628150159,0.9995108301,0.0016865304808,0.0138733807278,-0.0324573014038,0.00205127460127,-0.0337017149502,-0.0441977500929,0.0551579782252,0.0508778668936,0.749605357647,1.03986620903,5.67173409462,-0.217228122056,0.420443415642,0.264977321029,2107762.5,1518246691.0,287368121.5,,,,,,250238.0,1518246691.0,294131990.0,,1.8649999816,-0.114999987185,0.405999979377,-0.00499999988824,0.0209999997169,0.0270000007004,3.0
2,219.852104205,21999.5,1518246691.0,379297318.0,,2107426.5,1518246691.0,379297318.0,,0.756906355544,-0.289961342765,0.120873094761,-0.0303635564859,0.999453368675,0.00119608171166,0.0130188174735,-0.0199337210331,0.0010340455803,-0.0343606954684,-0.0198664400713,0.0164285295723,0.0409836529742,0.690744638443,1.5227239132,5.87805724144,-0.484692305326,0.494454324245,0.191347241402,1470543.5,1518246691.0,379701506.0,,,,,,250247.5,1518246691.0,388892812.0,,2.41499999352,0.229999996722,0.316000005603,0.00150000024587,-0.00200000009499,0.0240000011399,3.0
3,219.954668308,22007.5,1518246691.0,459292652.5,,2107434.5,1518246691.0,459292652.5,,0.753980159926,-0.288738027322,0.118644993987,-0.033012339883,0.999401505796,-0.000293399493471,0.010303593117,-0.0439963379254,0.00895888743268,-0.0380031432798,-0.0577082588227,0.0845681960746,0.0737234887223,1.80716615916,1.51331830024,4.98239707947,-0.51137201488,0.879783838986,0.201550684869,1470548.5,1518246691.0,460201849.5,,,,,,250254.5,1518246691.0,460687345.0,,2.38500002212,-1.23500005156,0.140999993682,0.0200000004843,-0.00199999992037,0.0125000006519,3.0
4,220.05723241,22019.5,1518246691.0,579303867.0,,2107446.5,1518246691.0,579303867.0,,0.750130062845,-0.286705110341,0.113709641138,-0.0362560529524,0.999312635143,-0.00337008808157,0.00695099141848,-0.0289660658277,0.00105449477049,-0.051990465353,-0.0758875385223,0.0534308245456,0.0546173144018,3.21067035198,1.12470865249,4.95326256752,-0.137838672847,1.27889811993,0.225506179034,1470557.0,1518246691.0,576187748.5,,,,,,250267.0,1518246691.0,583872984.5,,2.19499996491,0.424999974668,0.390999993682,0.0130000002682,0.0200000009499,0.00200000009499,3.0
5,220.159796513,22031.5,1518246691.0,699300142.5,,2107458.5,1518246691.0,699300142.5,,0.746825092447,-0.281761890831,0.108103013326,-0.0413189460925,0.999130208704,-0.0039475340353,0.00399212374359,-0.0290420495685,0.0441495896489,-0.0489185408291,-0.00807215714569,0.0523842155029,0.0802566157373,0.611940532922,0.937219947578,4.95113778114,-0.178315095604,0.371481075883,0.281726837158,1470565.0,1518246691.0,700199889.0,,,,,,250278.5,1518246691.0,700733179.0,,1.52999997326,-1.85000000149,-0.179000006616,0.031000001356,0.00150000001303,0.0309999994934,3.0
6,220.262360615,22041.5,1518246691.0,799297834.5,,2107468.5,1518246691.0,799297834.5,,0.743860669273,-0.278776077939,0.10286610248,-0.0454265800078,0.998954440506,-0.00487728346667,0.00160601599221,-0.0268483746957,0.0302904679477,-0.0537076904381,-0.0514286792437,0.0422258152125,0.11056987436,2.0029143095,0.873356193304,5.82421016693,-0.137981321663,0.926463842394,0.21229519695,1470572.0,1518246691.0,800693688.5,,,,,,250289.0,1518246691.0,803375148.0,,2.03499993868,-1.00499997288,0.0159999936819,0.01600000076,0.0,0.0170000009239,3.0
7,220.364924718,22048.5,1518246691.0,869294040.0,,2107475.5,1518246691.0,869294040.0,,0.740949524276,-0.276728300137,0.0992247510631,-0.0469101681713,0.998884013422,-0.00524842785101,-0.00158691391212,-0.0541145218684,0.0481272904214,-0.0485397371173,0.002945646334,0.125951372427,0.0334108696129,2.24553120136,0.898019015789,4.85664176941,-0.0297547914088,1.01963710785,0.23639766872,833333.5,1518246691.0,866499968.0,,,,,,250296.5,1518246691.0,879458218.5,,1.65999996848,0.039999984205,-0.343999990821,-0.00099999993108,-0.000500000081955,0.0310000004247,3.0
8,220.467488821,22062.5,1518246691.5,504293388.5,,2107489.0,1518246691.5,504293388.5,,0.734536566869,-0.274212564404,0.0928884366099,-0.0495941729523,0.998717136595,-0.00535228212836,-0.00865620119218,-0.0599793643733,-0.00205369785985,-0.0504400755109,-0.0233623559064,0.126155050338,0.0441331841823,4.10060060025,0.863872766495,4.85319542885,-0.107453234494,1.6984680891,0.263967566192,833339.0,1518246692.0,9999872.0,,,,,,250309.5,1518246692.0,10654695.0,,0.609999986367,-0.245000012219,-0.588999998383,0.0209999997169,0.00350000016624,0.0230000000447,3.0
9,220.570052923,22069.5,1518246692.0,79297868.0,,2107496.5,1518246692.0,79297868.0,,0.732086770457,-0.273101090795,0.0895788433011,-0.0524020054313,0.998541786353,-0.00646637348485,-0.0112417653642,-0.0256968934785,-0.0004250272292,-0.0460821602708,-0.0303887516758,0.0531212382429,0.0432956708538,2.30950438976,0.982910543678,4.75974297523,-0.101284816861,0.951267063618,0.21440487355,2107841.5,1518246692.0,77387751.0,,,,,,250317.5,1518246692.0,90470267.0,,2.05999997445,-0.405000008643,-0.198999994993,0.0200000004843,-0.00200000009499,0.0455000009387,3.0
10,220.672617026,22083.5,1518246692.0,219289812.5,,2107510.5,1518246692.0,219289812.5,,0.730801252344,-0.270919577435,0.0838075041144,-0.053673478292,0.998466425055,-0.00621679004667,-0.0120525985266,-0.0367025711262,0.00422635782685,-0.0509838824864,-0.00295457346561,0.079097846086,-0.0873262288672,2.79938042164,1.3747716546,5.41192507744,-0.381764039397,1.38421368599,0.175196282566,833347.5,1518246692.0,220500096.0,,,,,,250331.0,1518246692.0,223487768.0,,0.86499999091,1.00000000279,-0.269000002742,0.0134999998845,0.00750000029802,0.0159999998286,3.0
11,220.775181128,22089.5,1518246692.0,279296646.5,,2107516.5,1518246692.0,279296646.5,,0.729372050513,-0.270430770792,0.0813286680927,-0.0533305234783,0.99846895941,-0.00587710185302,-0.0134515303957,-0.0258537952504,0.0267832894483,-0.0439865651134,0.0139923596363,0.035888154592,0.0587967154758,2.96059596539,1.27232772112,4.73753404617,-0.226657345891,1.1947285533,0.218199796975,1470606.0,1518246692.0,280176722.5,,,,,,250337.0,1518246692.0,284867584.5,,1.31999999471,0.230000011623,-0.388999998197,0.00300000049176,0.0270000007003,0.0320000015199,3.0
12,220.877745231,22100.5,1518246692.0,389302395.5,,2107527.5,1518246692.0,389302395.5,,0.72808604741,-0.270098387768,0.0777848870613,-0.0551095392969,0.998350628568,-0.00674889123489,-0.0146063167645,-0.00105231054058,-0.00167446355522,-0.0305913928227,-0.0283429434355,-0.0127667784875,0.0507947657806,4.11781823635,1.28664547205,4.4834792614,-0.235013321043,1.6178022027,0.184686668218,2107872.5,1518246692.0,387390856.5,,,,,,250348.0,1518246692.0,395823933.5,,1.24500000663,2.27999999374,-0.354000011087,-0.00199999986217,0.026999999769,0.00199999986217,3.0
13,220.980309333,22114.5,1518246692.0,529291361.0,,2107541.5,1518246692.0,529291361.0,,0.727306820343,-0.269272497637,0.073490985725,-0.0571998214514,0.99822875673,-0.0071031698833,-0.0147315705099,0.00334489369452,0.0101615631011,-0.026575596648,0.0200147672575,-0.0162400609475,0.00425583878303,3.40210592747,1.11141377688,4.48727178574,-0.177136749029,1.48182851076,0.205564498901,1470623.5,1518246692.0,531677594.5,,,,,,250362.0,1518246692.0,535687073.0,,1.73000002093,2.07500001043,-0.533999999613,0.0080000004382,0.00349999975879,-0.00900000007823,3.0
14,221.082873436,22123.5,1518246692.0,619300007.0,,2107550.5,1518246692.0,619300007.0,,0.726323009863,-0.268245887549,0.0706134407086,-0.0572388365672,0.998218262865,-0.00630047407608,-0.0156280659598,-0.0170225535183,-0.0164015014149,-0.035418451586,-0.0151737942045,0.0430690756147,-0.062808699016,2.95817685127,1.36684733629,4.06306910515,-0.395941644907,1.23166269064,0.17345751822,833363.0,1518246692.0,617999872.0,,,,,,250370.5,1518246692.0,621687150.0,,2.96500000544,0.879999998957,-0.879000002144,0.0164999999106,-0.0415000002831,-0.00299999979324,3.0
15,221.185437538,22134.5,1518246692.0,729305872.5,,2107561.5,1518246692.0,729305872.5,,0.726547072729,-0.267041693871,0.0667285118455,-0.0575860381776,0.998205271044,-0.00599065433724,-0.0153011297099,-0.0112208346703,-0.00774616872354,-0.0384548910647,-0.0229888039681,0.0216106532288,0.0203614777993,2.34987497329,1.14062458276,4.29635071754,-0.273749232292,1.06046119332,0.169400647283,1470637.0,1518246692.0,726187142.5,,,,,,250381.5,1518246692.0,730939571.5,,1.68500000425,0.669999998063,0.250999978184,0.0104999998584,-0.0140000004321,0.0204999991693,3.0
16,221.288001641,22143.5,1518246692.0,819296921.5,,2107570.5,1518246692.0,819296921.5,,0.725635432854,-0.266173138025,0.0627680335636,-0.0596936973414,0.998064811217,-0.00657746588653,-0.0161192920015,-0.0128651145256,0.0112892952005,-0.0472169857147,-0.0200790285219,0.0292620343258,0.06928743063,4.29629087448,0.946097314356,4.31069612503,-0.224637970328,1.98780614138,0.164213560521,1470642.5,1518246692.0,811672967.5,,,,,,250390.5,1518246692.0,821510935.0,,0.330000007525,1.51500000805,-0.523999997974,0.0114999995567,0.0139999999665,0.0244999993592,3.0
17,221.390565744,22151.5,1518246692.0,899300412.0,,2107578.5,1518246692.0,899300412.0,,0.723789876796,-0.266716578348,0.059236079118,-0.0593079478237,0.998051784827,-0.00606817762377,-0.0183930768911,-0.0167320735861,-0.00380199805034,-0.0460055096555,0.0115769860733,0.0320574730249,0.00614943782125,4.5469481945,1.50344341993,3.98675537109,-0.452230334282,1.82046836615,0.141620583833,2107923.5,1518246692.0,897380492.5,,,,,,250398.5,1518246692.0,901880401.0,,1.97000000067,0.494999997318,0.0360000044107,0.00799999991432,0.0139999995008,0.0235000001266,3.0
18,221.493129846,22163.5,1518246693.0,19298150.0,,2107590.5,1518246693.0,19298150.0,,0.723751526269,-0.266843946351,0.0537655788694,-0.0593191678604,0.99805180021,-0.0054830500615,-0.0185395466683,0.0026560904429,0.0182746847283,-0.0464544249261,0.00103513220232,0.00111913977815,0.027312596863,3.92275321483,0.896122276783,4.52457475662,-0.260898754,1.69017761945,0.163737371564,1470656.5,1518246693.0,13173624.0,,,,,,250410.5,1518246693.0,21289078.5,,1.26999999769,2.70000001043,-0.388999996334,0.010000000475,0.0190000003203,0.00350000004982,3.0
19,221.595693949,22172.5,1518246693.0,109306489.0,,2107599.5,1518246693.0,109306489.0,,0.724064590029,-0.266371882045,0.0507872445991,-0.0579128372773,0.99813332408,-0.00563517383638,-0.018544763672,-0.00637665134471,-0.0267063464289,-0.029434649673,-0.0312951190262,0.0213351826305,-0.0503470697717,1.94126403332,1.33084195852,4.30685162544,-0.462369456887,0.838724315167,0.139237940311,2107944.0,1518246693.0,102352183.0,,,,,,250419.5,1518246693.0,112056434.5,,1.10999998264,1.51499999315,0.0360000044107,-0.0055000000866,-0.0144999995828,0.0154999997467,3.0
20,221.698258051,22183.5,1518246693.0,219293866.5,,2107610.5,1518246693.0,219293866.5,,0.725024128336,-0.266283458308,0.0490600900315,-0.056782437789,0.998221289579,-0.004880955853,-0.0174974172282,0.00667593835833,0.0215584820502,-0.0107572357629,0.0264348604366,-0.0186349200902,0.0186899599559,2.69741332531,1.51728171111,1.96940106154,-0.785531431437,0.967206358909,0.165135599673,1470670.5,1518246693.0,214183780.0,,,,,,250430.5,1518246693.0,220743577.5,,2.28999999352,0.88999999501,-2.88399992287,-0.18599999696,0.0690000019967,-0.0175000000745,-1.0
21,221.800822154,22195.5,1518246693.0,339310361.0,,2107622.5,1518246693.0,339310361.0,,0.724548738938,-0.265319452629,0.0492088711868,-0.0581424329093,0.998136469243,-0.00511115448478,-0.0177953981176,0.00775327705036,0.00756670079189,-0.00543779189993,0.0037769424562,-0.014287748405,-0.00116168614705,3.56916844844,1.37781935931,1.78404015303,-0.464530542493,1.34006625413,0.17701599747,2107967.5,1518246693.0,337376894.0,,,,,,250442.5,1518246693.0,342056907.5,,0.460000000894,1.17000000924,-4.49399993717,-0.0870000012219,0.151000000536,-0.0230000000448,-1.0
22,221.903386256,22203.5,1518246693.0,419298465.5,,2107630.5,1518246693.0,419298465.5,,0.724761899174,-0.265062737214,0.0489479666226,-0.0588775738342,0.998097906234,-0.00538178860356,-0.0174636538377,-0.00186418040915,0.0262108503618,-0.0027682754264,0.016725244568,0.00050211997476,0.0254747632367,2.98714184761,1.37450104952,1.96139383316,-0.538693994284,1.1259804368,0.166345566511,1470684.5,1518246693.0,415187656.0,,,,,,250450.5,1518246693.0,422318282.5,,1.41999998875,1.27000000328,-3.35899994672,-0.0979999974372,0.131499998271,-0.0559999998659,-1.0
23,222.005950359,22216.5,1518246693.0,549298614.0,,2107643.5,1518246693.0,549298614.0,,0.724323322418,-0.263170261583,0.0487898742027,-0.0596951537552,0.998041644926,-0.00509006935864,-0.0179798382465,-0.00724095056426,0.0117369356004,-0.00841952344033,0.00284973122761,0.0213812850715,0.0114782027605,2.95854699612,0.791857302189,2.05281633138,-0.128045570105,1.10714709758,0.216675251722,2107988.5,1518246693.0,547397834.0,,,,,,250464.0,1518246693.0,555784461.5,,0.435000000522,-0.264999963344,-4.80399999917,-0.0740000009537,0.144999995828,-0.0210000006482,-1.0
24,222.108514462,22223.5,1518246693.0,619301104.0,,2107650.5,1518246693.0,619301104.0,,0.725018987473,-0.264464525756,0.0491881478334,-0.0587438737762,0.998107643175,-0.00530906505275,-0.0173784709393,0.0022500206391,-0.00859421110127,0.00248715694114,-0.0019372069907,-0.00145583323245,-0.0115102305266,2.47961449623,1.45509505272,1.82100093364,-0.56667932868,0.910269886255,0.151825852692,1470698.5,1518246693.0,615686911.0,,,,,,250471.0,1518246693.0,625905070.0,,1.69500002451,2.29500000923,-4.20900008976,-0.107000000775,0.135000005364,-0.0420000003651,-1.0
25,222.211078564,22236.5,1518246693.0,749297098.5,,2107663.5,1518246693.0,749297098.5,,0.724528790801,-0.263470924745,0.0487366724143,-0.0599563864378,0.998027220646,-0.00560287722416,-0.0177613375271,-0.0059290207932,-0.00528127265973,-0.00139984981082,-0.00594199967298,0.0112881280965,-0.0045393002899,2.92487049103,1.41904968024,1.89761060476,-0.50099723041,1.10915225744,0.176315397024,1470708.5,1518246693.0,748671209.0,,,,,,250483.5,1518246693.0,751452512.5,,0.499999994412,2.37000002712,-5.06399998963,-0.0859999991954,0.138000003993,-0.0339999999851,-1.0
26,222.313642667,22246.5,1518246693.0,849292764.0,,2107673.5,1518246693.0,849292764.0,,0.72506015033,-0.262774872953,0.0489609032856,-0.0602472975628,0.998023930489,-0.00520284548324,-0.0170694942518,-0.00824739534147,0.0142319740369,-0.00744672822042,-0.000106370669145,0.0163126683121,0.0239237682469,2.21844482422,1.14096081257,1.90835827589,-0.37108451128,0.855406612158,0.179414480925,1470715.5,1518246693.0,849194412.0,,,,,,250493.5,1518246693.0,852624771.5,,1.08999999054,1.16000000388,-3.71899996102,-0.0859999991954,0.145999997855,-0.0370000004768,-1.0
27,222.416206769,22256.5,1518246693.0,949293467.5,,2107683.5,1518246693.0,949293467.5,,0.724831861615,-0.263769027907,0.0488956416149,-0.0596747828142,0.998050819794,-0.00565219270908,-0.0173601598496,0.0069389281458,-0.00956069424155,0.00665276583646,-0.0110074780277,-0.0118473831597,-0.00628385890222,2.45892584324,1.08173149824,1.77793312073,-0.318034276367,0.944493860006,0.185074225068,1470722.5,1518246693.0,949692706.0,,,,,,250503.5,1518246693.0,953558531.5,,1.08500000276,0.829999997281,-4.09399996102,-0.0920000001788,0.139499999583,-0.0185000002384,-1.0
28,222.518770872,22267.5,1518246694.0,59297629.5,,2107694.5,1518246694.0,59297629.5,,0.72468915823,-0.263240273799,0.0486166253996,-0.0599802993425,0.998032113411,-0.00515681832989,-0.0175355031316,0.0073541959487,-0.00233340893085,0.00472268311066,-0.00460387516836,-0.0208578551158,0.0101055663731,2.30125832557,1.11470937729,1.86449754238,-0.32206299901,0.871647119522,0.185088165104,2108039.0,1518246694.0,52386603.0,,,,,,250514.5,1518246694.0,62833465.0,,0.504999997095,-0.550000049173,-3.80399999916,-0.106499999762,0.134500004351,-0.0010000000475,-1.0
29,222.621334974,22275.5,1518246694.0,139294991.5,,2107702.5,1518246694.0,139294991.5,,0.725144961056,-0.263842202034,0.0490309157423,-0.0597285464058,0.998052986772,-0.00565496724378,-0.0170468599205,0.00850528849831,0.00871708904137,0.00315684504765,0.00929916825675,-0.0142530086649,0.00306293829904,2.2231900692,0.976930350067,1.88390010596,-0.207929946482,0.855425864458,0.198684982955,833423.5,1518246694.0,144000000.0,,,,,,250522.5,1518246694.0,142917913.5,,-0.0749999862165,0.984999999404,-4.06399998962,-0.0920000001788,0.145999997855,-0.0300000002608,-1.0
30,222.723899077,22288.5,1518246694.0,269297930.0,,2107715.5,1518246694.0,269297930.0,,0.724661713276,-0.26373836913,0.0487308921966,-0.0597058452223,0.998046060169,-0.00561976524633,-0.0175409719924,-0.00464173793269,0.0123562211637,-0.00866049937653,-0.00803378930322,0.00990205547395,0.0210129917278,2.12285596132,0.993720054628,1.95027303696,-0.208300292492,0.821272373199,0.207576029003,2108059.0,1518246694.0,252349884.0,,,,,,250535.5,1518246694.0,272700932.0,,0.315000014379,2.42499997467,-3.84899995625,-0.0980000011623,0.141999997199,-0.0574999991805,-1.0
31,222.826463179,22296.5,1518246694.0,349293985.0,,2107723.5,1518246694.0,349293985.0,,0.724950781271,-0.262801840158,0.0488898898633,-0.0603376593093,0.998014526618,-0.00526214332908,-0.0172802363822,0.0134299352861,0.00113992941133,0.0106702301783,0.00798349024878,-0.033181110953,-0.00399402827845,2.45523738861,0.963763803244,1.8797993064,-0.196289211512,0.927616119385,0.19886340946,1470750.0,1518246694.0,347684836.0,,,,,,250543.5,1518246694.0,352981200.0,,1.35500002093,0.309999980033,-4.01400003731,-0.0909999981523,0.138000003993,-0.0200000004843,-1.0
32,222.929027282,22306.5,1518246694.0,449291717.5,,2107733.5,1518246694.0,449291717.5,,0.724847051991,-0.263987545313,0.0486594037936,-0.0595464419209,0.998056849323,-0.00560644919225,-0.0174718929485,-0.00521184819293,0.00894956242449,0.00107059043578,-0.0004261224412,0.0095823842319,0.0200250262903,2.15659677982,0.848571300507,2.02978867292,-0.105602990836,0.849400132895,0.220898240805,1470757.0,1518246694.0,448173375.5,,,,,,250553.5,1518246694.0,451997663.0,,2.33000001497,0.184999993071,-3.40400002301,-0.089999999851,0.144000001252,-0.0494999997318,-1.0
33,223.031591385,22319.5,1518246694.0,579293369.0,,2107746.5,1518246694.0,579293369.0,,0.725079941982,-0.263689894501,0.04899581946,-0.0593801870994,0.998074939758,-0.00527094654125,-0.0170977207839,0.00641147792746,0.0028796001578,0.00504623168613,0.00979640172953,-0.012315863931,-0.00999308097731,1.97177165747,0.495920658111,1.97163170576,0.0571070378646,0.758367478847,0.228930301964,1470766.0,1518246694.0,568185208.5,,,,,,250566.5,1518246694.0,583063530.0,,1.28000001237,-0.315000019968,-3.67400000393,-0.0995000004768,0.134000003338,-0.0285000009462,-1.0
34,223.134155487,22326.5,1518246694.0,649318423.0,,2107753.5,1518246694.0,649318423.0,,0.724664018228,-0.263011043857,0.0487942869777,-0.0602414517437,0.998017816104,-0.00521723902794,-0.0174381784121,0.00630711629163,0.0152268935465,0.00438998020554,0.00225122666681,-0.013088134538,0.0344355882615,1.86205726862,0.411497592926,2.00195395947,0.09271001257,0.715006798506,0.242808766663,833443.5,1518246694.0,649500032.0,,,,,,250573.5,1518246694.0,652624323.0,,2.34499994106,-0.15499997884,-4.01400003732,-0.0920000001789,0.141999997198,-0.01200000057,-1.0
35,223.23671959,22336.5,1518246694.0,749295891.0,,2107763.5,1518246694.0,749295891.0,,0.725127382408,-0.263515064064,0.0491037883629,-0.0594325660218,0.998073437372,-0.00522145975405,-0.0170222735256,-0.00624999489605,0.00361102995647,0.00260217860132,-0.0103266563721,0.0087830678559,0.00299353868805,2.08383256197,0.489318937063,2.11818778515,0.11157848686,0.822593718767,0.256086096167,833447.5,1518246694.0,750999936.0,,,,,,250583.5,1518246694.0,753437910.5,,0.485000001267,-0.86000005156,-5.70399985612,-0.0875000022352,0.141500003636,0.0230000000447,-1.0
36,223.339283692,22349.5,1518246694.0,879295684.0,,2107776.5,1518246694.0,879295684.0,,0.724649327718,-0.26360454734,0.0487794290322,-0.0595722068989,0.998055900979,-0.00532730760983,-0.0175256834939,0.011142677586,-0.00955164568584,0.00558641263997,-0.00572515875485,-0.0234319386902,-0.019700202864,1.87861907482,0.383770018816,2.06864750385,0.230515673757,0.732870429754,0.289454475046,1470787.0,1518246694.0,869175876.5,,,,,,250596.5,1518246694.0,882866534.0,,1.3649999816,-0.364999987185,-3.08399997056,-0.0984999984503,0.134500004351,-0.0285000000149,-1.0
37,223.441847795,22360.5,1518246694.0,989297818.5,,2107787.5,1518246694.0,989297818.5,,0.724447455943,-0.264015556498,0.0487785299972,-0.0593505355343,0.998064932847,-0.00540591667404,-0.0177308608401,-0.00287208795285,0.00133767477372,0.000229310539555,-0.00605531054485,0.00343970645004,0.0125624276833,1.8682384491,0.500745177269,2.12382745743,0.107062514871,0.729833096266,0.262675926089,1470794.5,1518246694.0,990676445.5,,,,,,250607.5,1518246694.0,993644150.5,,1.56999999471,-1.69000003487,-3.52900002301,-0.0960000008344,0.135000005364,0.0169999995269,-1.0
38,223.544411897,22370.5,1518246695.0,89300288.0,,2107797.5,1518246695.0,89300288.0,,0.724858045187,-0.26356281848,0.0487715870332,-0.0594949096398,0.998065485278,-0.00513622272022,-0.0172906068088,-0.0112731124542,-0.00803412874436,-0.00598779149901,-0.0046259425171,0.0221643887389,-0.0003316854898,1.93996679783,0.404040068388,2.12585961819,0.210363045335,0.754323899746,0.285232186317,1470801.5,1518246695.0,91197005.0,,,,,,250617.5,1518246695.0,92364519.0,,2.06000003405,-1.61999998241,-5.45400009453,-0.0869999974966,0.144000001252,0.0300000002608,-1.0
39,223.646976,22380.5,1518246695.0,189296814.5,,2107807.5,1518246695.0,189296814.5,,0.724575525849,-0.26390162889,0.0484007362104,-0.0590679828665,0.998083566987,-0.00517367347356,-0.0177000247272,0.00753082396423,-0.00764235570569,0.00643698136645,-0.00725084448592,-0.0164380446356,-0.0193489502668,1.9597902894,0.344684422017,2.07965064049,0.190221406519,0.769037097692,0.264205321669,2108152.5,1518246695.0,187402168.5,,,,,,250627.5,1518246695.0,193777358.5,,1.62000000663,0.270000003278,-5.51400003732,-0.0894999988377,0.134500004351,0.00249999994413,-1.0
