time,.header.seq,.header.stamp.secs,.header.stamp.nsecs,.header.frame_id,.CartesianPose.header.seq,.CartesianPose.header.stamp.secs,.CartesianPose.header.stamp.nsecs,.CartesianPose.header.frame_id,.CartesianPose.pose.position.x,.CartesianPose.pose.position.y,.CartesianPose.pose.position.z,.CartesianPose.pose.orientation.x,.CartesianPose.pose.orientation.y,.CartesianPose.pose.orientation.z,.CartesianPose.pose.orientation.w,.CartesianWrench.header.seq,.CartesianWrench.header.stamp.secs,.CartesianWrench.header.stamp.nsecs,.CartesianWrench.header.frame_id,.CartesianWrench.wrench.force.x,.CartesianWrench.wrench.force.y,.CartesianWrench.wrench.force.z,.CartesianWrench.wrench.torque.x,.CartesianWrench.wrench.torque.y,.CartesianWrench.wrench.torque.z,.JointPosition.header.seq,.JointPosition.header.stamp.secs,.JointPosition.header.stamp.nsecs,.JointPosition.header.frame_id,.JointPosition.position.a1,.JointPosition.position.a2,.JointPosition.position.a3,.JointPosition.position.a4,.JointPosition.position.a5,.JointPosition.position.a6,.JointPosition.position.a7,.tag
2018/01/25/10:47:34.471524,8327,1516841020,145000000,iiwa_link_0,46717,1516841020,145000000,iiwa_link_0,0.499992817027,-0.300001118299,0.500055500489,-4.02357478489e-05,1.0,-2.44562576483e-05,9.08528927701e-06,46717,1516841020,138000000,Flange of LBR_iiwa_7_R800_1,0.335797492892,0.358354211829,1.31488206976,0.227115857963,-0.281776429301,0.143184888255,46718,1516841020,144000000,,-0.540456414223,0.481767684221,5.8662808442e-05,-1.19526672363,-6.02087966399e-05,1.46451735497,-0.540478348732,0
2018/01/25/10:47:34.481650,8328,1516841020,152000000,iiwa_link_0,46718,1516841020,152000000,iiwa_link_0,0.499992833595,-0.300001022755,0.500055428985,-4.01922375374e-05,1.0,-2.4316413467e-05,9.06437969276e-06,46718,1516841020,145000000,Flange of LBR_iiwa_7_R800_1,0.329140412034,0.356368921328,1.32266502985,0.227463130792,-0.280711888908,0.143116922865,46719,1516841020,151000000,,-0.540456295013,0.481767684221,5.8662808442e-05,-1.19526672363,-5.99211671215e-05,1.46451735497,-0.540478348732,0
2018/01/25/10:47:34.491481,8329,1516841020,162000000,iiwa_link_0,46719,1516841020,162000000,iiwa_link_0,0.499992787058,-0.300001100316,0.500055428986,-4.02357517568e-05,1.0,-2.44100105368e-05,9.00821515598e-06,46720,1516841020,163000000,Flange of LBR_iiwa_7_R800_1,0.322582078078,0.350302649173,1.32429602531,0.226755820812,-0.27832285302,0.143214454898,46721,1516841020,168000000,,-0.540456414223,0.481767684221,5.86028108955e-05,-1.19526684284,-6.01128049311e-05,1.46451747417,-0.540478527546,0
2018/01/25/10:47:34.501414,8330,1516841020,176000000,iiwa_link_0,46721,1516841020,176000000,iiwa_link_0,0.499992775438,-0.300001076457,0.500055476667,-4.01407810621e-05,1.0,-2.43229137738e-05,8.95565366989e-06,46721,1516841020,169000000,Flange of LBR_iiwa_7_R800_1,0.31730061717,0.352857840159,1.31767914103,0.226473123402,-0.278095191221,0.143515666782,46722,1516841020,175000000,,-0.540456295013,0.481767833233,5.87226932112e-05,-1.19526696205,-6.01128049311e-05,1.46451723576,-0.540478527546,0
2018/01/25/10:47:34.511664,8331,1516841020,183000000,iiwa_link_0,46722,1516841020,183000000,iiwa_link_0,0.499992871073,-0.300001021408,0.500055546572,-4.03171443814e-05,1.0,-2.44651944801e-05,9.21973679302e-06,46723,1516841020,183000000,Flange of LBR_iiwa_7_R800_1,0.324076666424,0.351884923098,1.31689173123,0.225965163493,-0.278776713184,0.143583811553,46723,1516841020,182000000,,-0.540456414223,0.481767833233,5.8662808442e-05,-1.19526672363,-6.01128049311e-05,1.46451735497,-0.540478348732,0
2018/01/25/10:47:34.521364,8332,1516841020,197000000,iiwa_link_0,46724,1516841020,197000000,iiwa_link_0,0.499992843008,-0.300001052368,0.500055476669,-4.0295690302e-05,1.0,-2.44408507557e-05,9.05961495776e-06,46724,1516841020,190000000,Flange of LBR_iiwa_7_R800_1,0.329065593065,0.354249911228,1.31851957194,0.225447625278,-0.280716574833,0.143322716516,46725,1516841020,196000000,,-0.540456295013,0.481767833233,5.86028108955e-05,-1.19526672363,-6.01128049311e-05,1.46451735497,-0.540478169918,0
2018/01/25/10:47:34.531329,8333,1516841020,204000000,iiwa_link_0,46725,1516841020,204000000,iiwa_link_0,0.499992752376,-0.300001079509,0.500055476667,-4.02357457338e-05,1.0,-2.4332951872e-05,8.8797887782e-06,46725,1516841020,197000000,Flange of LBR_iiwa_7_R800_1,0.328609615556,0.354927188044,1.3123177648,0.227170127163,-0.280480366723,0.143241218506,46726,1516841020,203000000,,-0.540456295013,0.481767684221,5.86028108955e-05,-1.19526672363,-5.99211671215e-05,1.46451747417,-0.540478348732,0
2018/01/25/10:47:34.541331,8334,1516841020,219000000,iiwa_link_0,46727,1516841020,219000000,iiwa_link_0,0.499992784948,-0.300001099052,0.50005557039,-4.02357458951e-05,1.0,-2.44562606478e-05,9.08528747699e-06,46727,1516841020,212000000,Flange of LBR_iiwa_7_R800_1,0.335483403932,0.35524693432,1.31296501288,0.226174686364,-0.281530809419,0.143372637025,46728,1516841020,218000000,,-0.540456295013,0.481767833233,5.86028108955e-05,-1.19526672363,-6.01128049311e-05,1.46451747417,-0.540478527546,0
2018/01/25/10:47:34.551335,8335,1516841020,226000000,iiwa_link_0,46728,1516841020,226000000,iiwa_link_0,0.499992776206,-0.300001090992,0.500055546569,-4.01990016856e-05,1.0,-2.437107329e-05,9.10148082703e-06,46728,1516841020,219000000,Flange of LBR_iiwa_7_R800_1,0.349386629551,0.356643405932,1.31885848864,0.225414630642,-0.281967019865,0.14345375724,46729,1516841020,224000000,,-0.540456414223,0.481767684221,5.85429261264e-05,-1.19526672363,-5.99211671215e-05,1.46451771259,-0.540478348732,0
2018/01/25/10:47:34.561334,8336,1516841020,239000000,iiwa_link_0,46730,1516841020,239000000,iiwa_link_0,0.499992765991,-0.300001118641,0.500055394065,-4.01192836863e-05,1.0,-2.43756799376e-05,8.92399108117e-06,46730,1516841020,233000000,Flange of LBR_iiwa_7_R800_1,0.349852837529,0.343044771064,1.32437132753,0.224813606003,-0.281893152571,0.143325353471,46731,1516841020,238000000,,-0.540456473827,0.481767833233,5.8662808442e-05,-1.19526672363,-6.01128049311e-05,1.46451747417,-0.540478348732,0
2018/01/25/10:47:34.571335,8337,1516841020,249000000,iiwa_link_0,46731,1516841020,249000000,iiwa_link_0,0.499992851227,-0.3000010573,0.50005544175,-4.0205806334e-05,1.0,-2.44254422608e-05,9.03394216904e-06,46731,1516841020,240000000,Flange of LBR_iiwa_7_R800_1,0.33848914925,0.345398322163,1.31688448523,0.226355166031,-0.279937279043,0.143324360065,46732,1516841020,248000000,,-0.540456295013,0.481767833233,5.8662808442e-05,-1.19526672363,-6.01128049311e-05,1.46451747417,-0.540478348732,0
2018/01/25/10:47:34.581350,8338,1516841020,256000000,iiwa_link_0,46732,1516841020,256000000,iiwa_link_0,0.499992852441,-0.300000966752,0.500055441748,-4.02691052223e-05,1.0,-2.43602727476e-05,8.89831865078e-06,46732,1516841020,249000000,Flange of LBR_iiwa_7_R800_1,0.323153919729,0.335612072518,1.3229899736,0.225033171096,-0.279178129432,0.143470409278,46733,1516841020,255000000,,-0.540456175804,0.481767833233,5.86028108955e-05,-1.19526672363,-6.01128049311e-05,1.46451747417,-0.540478348732,0
2018/01/25/10:47:34.591531,8339,1516841020,263000000,iiwa_link_0,46733,1516841020,263000000,iiwa_link_0,0.499992792555,-0.300001036169,0.500055498887,-4.01741426638e-05,1.0,-2.43965150846e-05,9.0512978552e-06,46734,1516841020,263000000,Flange of LBR_iiwa_7_R800_1,0.313717215276,0.337295881681,1.31659564213,0.223849192825,-0.276307869594,0.143182320495,46735,1516841020,269000000,,-0.540456414223,0.481767833233,5.86028108955e-05,-1.19526684284,-6.01128049311e-05,1.46451735497,-0.540478348732,0
2018/01/25/10:47:34.601353,8340,1516841020,277000000,iiwa_link_0,46735,1516841020,277000000,iiwa_link_0,0.499992856644,-0.300001029642,0.50005547667,-4.02323406378e-05,1.0,-2.44289532861e-05,9.06675689805e-06,46735,1516841020,270000000,Flange of LBR_iiwa_7_R800_1,0.305983764437,0.337148179043,1.32180453013,0.224496379158,-0.276159128618,0.143424003377,46736,1516841020,276000000,,-0.540456175804,0.481767892838,5.86028108955e-05,-1.19526672363,-6.01128049311e-05,1.46451747417,-0.540478527546,0
2018/01/25/10:47:34.611318,8341,1516841020,284000000,iiwa_link_0,46736,1516841020,284000000,iiwa_link_0,0.499992801188,-0.30000104135,0.500055428984,-4.01741431508e-05,1.0,-2.43502374146e-05,8.97417846325e-06,46736,1516841020,277000000,Flange of LBR_iiwa_7_R800_1,0.302905643901,0.334181747866,1.32109183306,0.222369222586,-0.276181419598,0.14344162122,46737,1516841020,283000000,,-0.540456295013,0.481767892838,5.8662808442e-05,-1.19526684284,-6.01128049311e-05,1.46451747417,-0.540478348732,0
2018/01/25/10:47:34.621264,8342,1516841020,298000000,iiwa_link_0,46738,1516841020,298000000,iiwa_link_0,0.499992794864,-0.300001104999,0.500055428986,-4.02956388545e-05,1.0,-2.44254172636e-05,9.03388957559e-06,46738,1516841020,291000000,Flange of LBR_iiwa_7_R800_1,0.315995315853,0.338506834732,1.3212725034,0.223487347964,-0.278335860732,0.143315843891,46739,1516841020,297000000,,-0.540456354618,0.481767833233,5.8662808442e-05,-1.19526696205,-6.01128049311e-05,1.46451747417,-0.540478646755,0
2018/01/25/10:47:34.631238,8343,1516841020,305000000,iiwa_link_0,46739,1516841020,305000000,iiwa_link_0,0.499992792889,-0.300001072907,0.500055428986,-4.01724016059e-05,1.0,-2.43827068907e-05,8.989681209e-06,46739,1516841020,298000000,Flange of LBR_iiwa_7_R800_1,0.313101948168,0.336954767711,1.31851998885,0.224880905508,-0.279108614198,0.143529752107,46740,1516841020,304000000,,-0.540456295013,0.481767892838,5.8662808442e-05,-1.19526684284,-6.01128049311e-05,1.46451747417,-0.540478527546,0
2018/01/25/10:47:34.641349,8344,1516841020,312000000,iiwa_link_0,46740,1516841020,312000000,iiwa_link_0,0.499992837153,-0.300001079819,0.500055476669,-4.01792232097e-05,1.0,-2.44681744491e-05,9.07814029053e-06,46741,1516841020,312000000,Flange of LBR_iiwa_7_R800_1,0.332392775822,0.362010588577,1.31837604886,0.226199089914,-0.282485701056,0.143532460036,46742,1516841020,317000000,,-0.540456295013,0.481767684221,5.86028108955e-05,-1.19526660442,-6.01128049311e-05,1.46451735497,-0.540478527546,0
2018/01/25/10:47:34.651242,8345,1516841020,325000000,iiwa_link_0,46742,1516841020,325000000,iiwa_link_0,0.499992841457,-0.300001017658,0.50005554657,-4.01956424781e-05,1.0,-2.438999403e-05,9.16003576078e-06,46742,1516841020,319000000,Flange of LBR_iiwa_7_R800_1,0.351518075181,0.364609300566,1.32003454997,0.227417489672,-0.284653661543,0.143936201119,46743,1516841020,324000000,,-0.540456295013,0.481767684221,5.8662808442e-05,-1.19526672363,-6.01128049311e-05,1.46451735497,-0.540478527546,0
2018/01/25/10:47:34.661335,8346,1516841020,335000000,iiwa_link_0,46743,1516841020,335000000,iiwa_link_0,0.499992707784,-0.300001114624,0.500055616471,-4.00927423758e-05,1.0,-2.44492652667e-05,9.01964371996e-06,46743,1516841020,325000000,Flange of LBR_iiwa_7_R800_1,0.37046524192,0.376357234419,1.31661491086,0.22863122548,-0.28920601861,0.14391340319,46744,1516841020,334000000,,-0.540456295013,0.481767624617,5.87226932112e-05,-1.19526672363,-6.01128049311e-05,1.46451735497,-0.540478348732,0
2018/01/25/10:47:34.671631,8347,1516841020,342000000,iiwa_link_0,46744,1516841020,342000000,iiwa_link_0,0.4999927069,-0.300001123907,0.500055568789,-4.02391090035e-05,1.0,-2.44527761015e-05,9.05245514595e-06,46745,1516841020,342000000,Flange of LBR_iiwa_7_R800_1,0.405309846797,0.389095705496,1.3076542191,0.231280718557,-0.288612638425,0.143723061767,46745,1516841020,341000000,,-0.540456533432,0.481767565012,5.86028108955e-05,-1.19526672363,-6.01128049311e-05,1.46451735497,-0.540478646755,0
2018/01/25/10:47:34.681283,8348,1516841020,356000000,iiwa_link_0,46746,1516841020,356000000,iiwa_link_0,0.499992790291,-0.300001051703,0.500055476667,-4.02691047341e-05,1.0,-2.43756820295e-05,8.9239892562e-06,46746,1516841020,349000000,Flange of LBR_iiwa_7_R800_1,0.39414185401,0.374882518563,1.310729804,0.229888672234,-0.287310374429,0.143936916076,46747,1516841020,355000000,,-0.540456295013,0.481767833233,5.8662808442e-05,-1.19526684284,-6.01128049311e-05,1.46451747417,-0.540478646755,0
2018/01/25/10:47:34.691366,8349,1516841020,363000000,iiwa_link_0,46747,1516841020,363000000,iiwa_link_0,0.499992810175,-0.300001063633,0.500055359146,-4.0179225326e-05,1.0,-2.43602717229e-05,8.89831755612e-06,46748,1516841020,363000000,Flange of LBR_iiwa_7_R800_1,0.337559602831,0.340015605062,1.31308599352,0.223926457837,-0.279443336406,0.143715287937,46748,1516841020,362000000,,-0.540456295013,0.481767952442,5.8662808442e-05,-1.19526684284,-6.01128049311e-05,1.46451735497,-0.540478348732,0
2018/01/25/10:47:34.701285,8350,1516841020,377000000,iiwa_link_0,46749,1516841020,377000000,iiwa_link_0,0.499992857457,-0.300001030131,0.50005540683,-4.02323406369e-05,1.0,-2.43672974983e-05,8.96400838852e-06,46749,1516841020,370000000,Flange of LBR_iiwa_7_R800_1,0.30378695469,0.317999329167,1.32203242295,0.220367556309,-0.272927985809,0.143317942783,46750,1516841020,376000000,,-0.540456295013,0.481767892838,5.8662808442e-05,-1.19526684284,-6.01128049311e-05,1.46451747417,-0.540478348732,0
2018/01/25/10:47:34.711193,8351,1516841020,383000000,iiwa_link_0,46750,1516841020,383000000,iiwa_link_0,0.499992834026,-0.300001016072,0.500055406829,-4.01723980223e-05,1.0,-2.43210503592e-05,8.88693542227e-06,46750,1516841020,377000000,Flange of LBR_iiwa_7_R800_1,0.260400249701,0.301236096911,1.32881101995,0.216706681885,-0.2688108386,0.14288804698,46751,1516841020,382000000,,-0.540456295013,0.481767892838,5.87226932112e-05,-1.19526672363,-6.01128049311e-05,1.46451735497,-0.540478348732,0
2018/01/25/10:47:34.721473,8352,1516841020,390000000,iiwa_link_0,46751,1516841020,390000000,iiwa_link_0,0.499992757772,-0.300001113709,0.500055428985,-4.02091676539e-05,1.0,-2.43910884235e-05,8.94966387386e-06,46752,1516841020,390000000,Flange of LBR_iiwa_7_R800_1,0.232793027309,0.281734785879,1.33514563404,0.214959878324,-0.265356403749,0.143157430765,46753,1516841020,396000000,,-0.540456414223,0.481767833233,5.86028108955e-05,-1.19526684284,-6.01128049311e-05,1.46451747417,-0.540478527546,0
2018/01/25/10:47:34.731280,8353,1516841020,405000000,iiwa_link_0,46753,1516841020,405000000,iiwa_link_0,0.499992778884,-0.300001078523,0.500055428985,-4.00808439744e-05,1.0,-2.43383190922e-05,8.98133120892e-06,46753,1516841020,397000000,Flange of LBR_iiwa_7_R800_1,0.230676623528,0.284324746539,1.32940448206,0.216119691043,-0.266857344039,0.143090815944,46754,1516841020,404000000,,-0.540456414223,0.481767833233,5.8662808442e-05,-1.19526672363,-6.01128049311e-05,1.46451735497,-0.540478169918,0
2018/01/25/10:47:34.741299,8354,1516841020,412000000,iiwa_link_0,46754,1516841020,412000000,iiwa_link_0,0.499992821034,-0.300001008275,0.500055428986,-4.03222267248e-05,1.0,-2.43672729136e-05,8.96395782653e-06,46754,1516841020,405000000,Flange of LBR_iiwa_7_R800_1,0.248579827189,0.294141759444,1.32785513011,0.21729719694,-0.270774369889,0.1432112204,46755,1516841020,411000000,,-0.540456414223,0.481767833233,5.87226932112e-05,-1.19526684284,-6.01128049311e-05,1.46451747417,-0.540478348732,0
2018/01/25/10:47:34.751399,8355,1516841020,422000000,iiwa_link_0,46755,1516841020,422000000,iiwa_link_0,0.499992831877,-0.300000952908,0.500055498889,-4.02854592141e-05,1.0,-2.43743005638e-05,9.02964924103e-06,46756,1516841020,422000000,Flange of LBR_iiwa_7_R800_1,0.309662435204,0.333976046682,1.31334967225,0.224030494047,-0.279408567558,0.143219538717,46757,1516841020,428000000,,-0.540456414223,0.481767684221,5.8662808442e-05,-1.19526672363,-6.00169878453e-05,1.46451771259,-0.540478527546,0
2018/01/25/10:47:34.761388,8356,1516841020,436000000,iiwa_link_0,46757,1516841020,436000000,iiwa_link_0,0.499992794864,-0.300001104999,0.500055428986,-4.01458677887e-05,1.0,-2.44254159108e-05,9.03389323386e-06,46757,1516841020,429000000,Flange of LBR_iiwa_7_R800_1,0.338216084883,0.353534858514,1.31310836376,0.226468789197,-0.283175174937,0.143128876763,46758,1516841020,435000000,,-0.540456414223,0.481767743826,5.87226932112e-05,-1.19526672363,-6.01128049311e-05,1.46451735497,-0.540478348732,0
2018/01/25/10:47:34.771507,8357,1516841020,443000000,iiwa_link_0,46758,1516841020,443000000,iiwa_link_0,0.4999928207,-0.300001069946,0.500055546571,-4.02691066881e-05,1.0,-2.44990186943e-05,9.1295348274e-06,46759,1516841020,443000000,Flange of LBR_iiwa_7_R800_1,0.36596955793,0.378893128882,1.3074509488,0.229216141356,-0.284482503267,0.14327239657,46759,1516841020,442000000,,-0.540456295013,0.481767684221,5.86028108955e-05,-1.19526684284,-6.01128049311e-05,1.46451747417,-0.540478348732,0
2018/01/25/10:47:34.781433,8358,1516841020,457000000,iiwa_link_0,46760,1516841020,457000000,iiwa_link_0,0.499992758899,-0.300001066531,0.500055381301,-4.02306721852e-05,1.0,-2.43074796759e-05,8.9299292254e-06,46760,1516841020,450000000,Flange of LBR_iiwa_7_R800_1,0.361959334958,0.372966687129,1.30653484419,0.231267729594,-0.284823762859,0.143159928236,46761,1516841020,456000000,,-0.540456295013,0.481767833233,5.86028108955e-05,-1.19526684284,-6.01128049311e-05,1.46451747417,-0.540478527546,0
2018/01/25/10:47:34.791450,8359,1516841020,464000000,iiwa_link_0,46761,1516841020,464000000,iiwa_link_0,0.49999277693,-0.300001125204,0.500055546571,-4.02091650486e-05,1.0,-2.4483613055e-05,9.10385747695e-06,46762,1516841020,464000000,Flange of LBR_iiwa_7_R800_1,0.362830595432,0.367250290623,1.31264030821,0.22834677662,-0.282632493291,0.143446151182,46762,1516841020,463000000,,-0.540456295013,0.481767833233,5.86028108955e-05,-1.19526696205,-6.01128049311e-05,1.46451747417,-0.540478646755,0
2018/01/25/10:47:34.801784,8360,1516841020,478000000,iiwa_link_0,46763,1516841020,478000000,iiwa_link_0,0.499992827636,-0.300001014994,0.500055428986,-4.0220438325e-05,1.0,-2.43180422468e-05,9.02848463255e-06,46763,1516841020,471000000,Flange of LBR_iiwa_7_R800_1,0.348178197823,0.35883149496,1.31195972758,0.227476405127,-0.281068542893,0.143125873986,46764,1516841020,477000000,,-0.540456295013,0.481767833233,5.87226932112e-05,-1.19526672363,-6.01128049311e-05,1.46451747417,-0.540478169918,0
2018/01/25/10:47:34.811406,8361,1516841020,485000000,iiwa_link_0,46764,1516841020,485000000,iiwa_link_0,0.499992800694,-0.30000107759,0.500055428986,-4.0322173159e-05,1.0,-2.43981144238e-05,9.01535343919e-06,46764,1516841020,478000000,Flange of LBR_iiwa_7_R800_1,0.33459962453,0.352792905939,1.31688730511,0.224460512939,-0.280942352504,0.143379165029,46765,1516841020,484000000,,-0.540456414223,0.481767833233,5.87226932112e-05,-1.19526684284,-5.99211671215e-05,1.46451735497,-0.540478527546,0
2018/01/25/10:47:34.821656,8362,1516841020,491000000,iiwa_link_0,46765,1516841020,491000000,iiwa_link_0,0.499992836704,-0.300001000788,0.500055394066,-4.02272615566e-05,1.0,-2.43110147578e-05,8.9627959642e-06,46766,1516841020,492000000,Flange of LBR_iiwa_7_R800_1,0.3123884006,0.341268667049,1.31414375398,0.224374054717,-0.27838499755,0.143507498202,46767,1516841020,497000000,,-0.540456295013,0.481767833233,5.87226932112e-05,-1.19526684284,-6.01128049311e-05,1.46451735497,-0.540478229523,0
2018/01/25/10:47:34.831467,8363,1516841020,498000000,iiwa_link_0,46766,1516841020,498000000,iiwa_link_0,0.499992828854,-0.300001012966,0.500055428986,-4.02323427573e-05,1.0,-2.43827063518e-05,8.9896826705e-06,46767,1516841020,498000000,Flange of LBR_iiwa_7_R800_1,0.311921165908,0.344424355544,1.31703995035,0.222898090777,-0.278632313999,0.143050069281,46768,1516841020,507000000,,-0.540456295013,0.481767833233,5.8662808442e-05,-1.19526672363,-6.01128049311e-05,1.46451747417,-0.540478348732,0
2018/01/25/10:47:34.841230,8364,1516841020,515000000,iiwa_link_0,46768,1516841020,515000000,iiwa_link_0,0.499992841019,-0.300001020267,0.500055476669,-4.02323396617e-05,1.0,-2.43981128609e-05,9.01535835905e-06,46768,1516841020,508000000,Flange of LBR_iiwa_7_R800_1,0.306798697078,0.33125863458,1.32014452468,0.223056356017,-0.278525502232,0.143385542444,46769,1516841020,514000000,,-0.540456414223,0.481767833233,5.88425755268e-05,-1.19526684284,-6.01128049311e-05,1.46451747417,-0.540478229523,0
2018/01/25/10:47:34.851529,8365,1516841020,522000000,iiwa_link_0,46769,1516841020,522000000,iiwa_link_0,0.499992725339,-0.30000107736,0.500055498885,-4.02040840191e-05,1.0,-2.43348355688e-05,8.94849713499e-06,46770,1516841020,522000000,Flange of LBR_iiwa_7_R800_1,0.328028893241,0.341476288473,1.31558079662,0.224315641731,-0.279409745446,0.143110697902,46770,1516841020,521000000,,-0.540456295013,0.481767684221,5.8662808442e-05,-1.19526684284,-6.01128049311e-05,1.46451747417,-0.540478527546,0
2018/01/25/10:47:34.861218,8366,1516841020,536000000,iiwa_link_0,46771,1516841020,536000000,iiwa_link_0,0.499992766982,-0.300001128994,0.50005557039,-4.0055976983e-05,1.0,-2.44562595589e-05,9.08529040892e-06,46771,1516841020,529000000,Flange of LBR_iiwa_7_R800_1,0.335241032966,0.345567352092,1.31487663451,0.22562368727,-0.282010193979,0.143136519917,46772,1516841020,535000000,,-0.540456414223,0.481767624617,5.86028108955e-05,-1.19526672363,-6.01128049311e-05,1.46451747417,-0.540478348732,0
2018/01/25/10:47:34.871700,8367,1516841020,543000000,iiwa_link_0,46772,1516841020,543000000,iiwa_link_0,0.499992784735,-0.300001129887,0.500055546571,-4.02091655367e-05,1.0,-2.44990192416e-05,9.12953335893e-06,46772,1516841020,536000000,Flange of LBR_iiwa_7_R800_1,0.348564991523,0.349037425143,1.3145905003,0.22728153026,-0.28370448834,0.143235122594,46773,1516841020,542000000,,-0.540456414223,0.481767684221,5.8662808442e-05,-1.19526672363,-6.01128049311e-05,1.46451747417,-0.540478527546,0
2018/01/25/10:47:34.881247,8368,1516841020,556000000,iiwa_link_0,46774,1516841020,556000000,iiwa_link_0,0.499992784735,-0.300001031478,0.500055498886,-4.03239132419e-05,1.0,-2.4381082191e-05,9.02557155075e-06,46774,1516841020,550000000,Flange of LBR_iiwa_7_R800_1,0.374203724982,0.360949324481,1.30919885203,0.228631554893,-0.285843352871,0.143270203418,46775,1516841020,555000000,,-0.540456414223,0.481767833233,5.87226932112e-05,-1.19526684284,-6.01128049311e-05,1.46451771259,-0.540478527546,0
2018/01/25/10:47:34.891475,8369,1516841020,563000000,iiwa_link_0,46775,1516841020,563000000,iiwa_link_0,0.499992774965,-0.300001093061,0.500055546571,-4.01458627411e-05,1.0,-2.4440853484e-05,9.05961388964e-06,46775,1516841020,557000000,Flange of LBR_iiwa_7_R800_1,0.377739684218,0.366348479789,1.30404379859,0.229252865135,-0.285294377617,0.143658613291,46776,1516841020,562000000,,-0.540456473827,0.481767743826,5.86028108955e-05,-1.19526672363,-6.01128049311e-05,1.46451747417,-0.540478050709,0
2018/01/25/10:47:34.901344,8370,1516841020,570000000,iiwa_link_0,46776,1516841020,570000000,iiwa_link_0,0.499992840866,-0.300000975222,0.500055428987,-4.03804350982e-05,1.0,-2.43843820163e-05,8.95369473662e-06,46777,1516841020,570000000,Flange of LBR_iiwa_7_R800_1,0.354005635458,0.359566524853,1.31733884119,0.228379177276,-0.282641558843,0.143386097343,46778,1516841020,576000000,,-0.540456295013,0.481767833233,5.88425755268e-05,-1.19526672363,-6.01128049311e-05,1.46451747417,-0.540478348732,0
2018/01/25/10:47:34.911282,8371,1516841020,585000000,iiwa_link_0,46778,1516841020,585000000,iiwa_link_0,0.499992807044,-0.300001112308,0.500055476669,-4.01458646946e-05,1.0,-2.44408504845e-05,9.05961568967e-06,46778,1516841020,578000000,Flange of LBR_iiwa_7_R800_1,0.33472954992,0.351834215837,1.31854823679,0.226257989325,-0.280304117761,0.143357698788,46779,1516841020,583000000,,-0.540456414223,0.481767833233,5.87226932112e-05,-1.19526684284,-6.02087966399e-05,1.46451747417,-0.540478527546,0
2018/01/25/10:47:34.921334,8372,1516841020,595000000,iiwa_link_0,46779,1516841020,595000000,iiwa_link_0,0.499992816364,-0.300001070103,0.500055394067,-4.01673213783e-05,1.0,-2.43418557237e-05,9.01419304398e-06,46779,1516841020,585000000,Flange of LBR_iiwa_7_R800_1,0.321923097088,0.344705958605,1.31674258936,0.226308891715,-0.276619183587,0.143559244027,46780,1516841020,594000000,,-0.540456295013,0.481767892838,5.86028108955e-05,-1.19526684284,-6.01128049311e-05,1.46451735497,-0.540478348732,0
2018/01/25/10:47:34.931458,8373,1516841020,602000000,iiwa_link_0,46780,1516841020,602000000,iiwa_link_0,0.499992846454,-0.300001054434,0.500055428987,-4.0205809917e-05,1.0,-2.44562557959e-05,9.0852932361e-06,46781,1516841020,603000000,Flange of LBR_iiwa_7_R800_1,0.290991179496,0.325860980416,1.32608241178,0.222846004215,-0.273812836295,0.143003478082,46781,1516841020,601000000,,-0.540456295013,0.481767743826,5.8662808442e-05,-1.19526672363,-6.01128049311e-05,1.46451735497,-0.540478527546,0
2018/01/25/10:47:34.941256,8374,1516841020,616000000,iiwa_link_0,46782,1516841020,616000000,iiwa_link_0,0.499992787413,-0.300001019009,0.500055381302,-4.02058100818e-05,1.0,-2.43483280062e-05,8.90542193362e-06,46782,1516841020,609000000,Flange of LBR_iiwa_7_R800_1,0.288076420022,0.327488313431,1.31972876297,0.223467269612,-0.27289305521,0.143004431134,46783,1516841020,615000000,,-0.540456295013,0.481767833233,5.87226932112e-05,-1.19526684284,-6.01128049311e-05,1.46451747417,-0.540478348732,0
2018/01/25/10:47:34.951467,8375,1516841020,623000000,iiwa_link_0,46783,1516841020,623000000,iiwa_link_0,0.499992827991,-0.300001032096,0.500055428987,-4.03154044674e-05,1.0,-2.4374298909e-05,9.02964739407e-06,46783,1516841020,616000000,Flange of LBR_iiwa_7_R800_1,0.292347931087,0.330368158632,1.31570825888,0.222815888873,-0.274345627848,0.143041592006,46784,1516841020,622000000,,-0.540456414223,0.481767684221,5.88425755268e-05,-1.19526684284,-6.01128049311e-05,1.46451735497,-0.540478527546,0
2018/01/25/10:47:34.961321,8376,1516841020,636000000,iiwa_link_0,46785,1516841020,636000000,iiwa_link_0,0.49999277946,-0.300001002975,0.500055568791,-4.03752881542e-05,1.0,-2.44051458985e-05,9.08104085862e-06,46785,1516841020,630000000,Flange of LBR_iiwa_7_R800_1,0.313271210804,0.341217556762,1.31255538197,0.224892179315,-0.278475752645,0.14290857181,46786,1516841020,635000000,,-0.540456414223,0.481767684221,5.8662808442e-05,-1.19526684284,-6.01128049311e-05,1.46451747417,-0.540478527546,0
2018/01/25/10:47:34.971264,8377,1516841020,643000000,iiwa_link_0,46786,1516841020,643000000,iiwa_link_0,0.499992804226,-0.300001079709,0.500055546572,-4.02622829665e-05,1.0,-2.44597980798e-05,9.11814997068e-06,46786,1516841020,636000000,Flange of LBR_iiwa_7_R800_1,0.333931215554,0.351898990867,1.31521061183,0.226569868037,-0.280148894671,0.142816059008,46787,1516841020,642000000,,-0.540456414223,0.481767684221,5.8662808442e-05,-1.19526684284,-6.01128049311e-05,1.46451747417,-0.540478527546,0
2018/01/25/10:47:34.981147,8378,1516841020,656000000,iiwa_link_0,46788,1516841020,656000000,iiwa_link_0,0.499992741319,-0.300001103837,0.500055498887,-4.02690532859e-05,1.0,-2.44219323949e-05,9.00105914566e-06,46788,1516841020,650000000,Flange of LBR_iiwa_7_R800_1,0.348115907416,0.363437656452,1.31151202405,0.227570770475,-0.283541620807,0.143069586628,46789,1516841020,655000000,,-0.540456414223,0.481767624617,5.87226932112e-05,-1.19526684284,-6.01128049311e-05,1.46451771259,-0.540478646755,0
2018/01/25/10:47:34.991175,8379,1516841020,664000000,iiwa_link_0,46789,1516841020,664000000,iiwa_link_0,0.499992784794,-0.300001113034,0.500055511651,-4.0204083853e-05,1.0,-2.44119495202e-05,9.0770175523e-06,46789,1516841020,656000000,Flange of LBR_iiwa_7_R800_1,0.359507428199,0.362784123659,1.31051763069,0.229674335297,-0.284337029555,0.143307997334,46790,1516841020,662000000,,-0.540456295013,0.481767684221,5.8662808442e-05,-1.19526672363,-6.01128049311e-05,1.46451735497,-0.540478527546,0
2018/01/25/10:47:35.001355,8380,1516841020,670000000,iiwa_link_0,46790,1516841020,670000000,iiwa_link_0,0.499992773398,-0.300001123084,0.500055428985,-4.02091686317e-05,1.0,-2.44219288591e-05,9.00106240661e-06,46790,1516841020,664000000,Flange of LBR_iiwa_7_R800_1,0.365433581424,0.365475711689,1.31632362634,0.228728967495,-0.285327286811,0.142859240458,46791,1516841020,669000000,,-0.540456473827,0.481767833233,5.8662808442e-05,-1.19526684284,-6.01128049311e-05,1.46451735497,-0.540478527546,0
2018/01/25/10:47:35.011330,8381,1516841020,685000000,iiwa_link_0,46791,1516841020,685000000,iiwa_link_0,0.49999279682,-0.300001075266,0.500055511652,-4.02622824781e-05,1.0,-2.44135499618e-05,9.04107645338e-06,46791,1516841020,670000000,Flange of LBR_iiwa_7_R800_1,0.366694268583,0.3644493534,1.31650956489,0.22689789658,-0.285286820062,0.142828228819,46792,1516841020,684000000,,-0.540456414223,0.481767833233,5.8662808442e-05,-1.19526696205,-6.01128049311e-05,1.46451747417,-0.540478348732,0
2018/01/25/10:47:35.021534,8382,1516841020,692000000,iiwa_link_0,46792,1516841020,692000000,iiwa_link_0,0.499992820206,-0.300001007777,0.500055498888,-4.02323422687e-05,1.0,-2.44289559609e-05,9.06675529315e-06,46793,1516841020,692000000,Flange of LBR_iiwa_7_R800_1,0.356896422039,0.34118923359,1.31679415085,0.225863933344,-0.283100361535,0.14271968446,46793,1516841020,691000000,,-0.540456295013,0.481767684221,5.8662808442e-05,-1.19526684284,-6.01128049311e-05,1.46451735497,-0.540478348732,0
2018/01/25/10:47:35.031274,8383,1516841020,705000000,iiwa_link_0,46794,1516841020,705000000,iiwa_link_0,0.499992821945,-0.300001087471,0.500055476668,-4.0135702298e-05,1.0,-2.43591511505e-05,9.10863756222e-06,46794,1516841020,699000000,Flange of LBR_iiwa_7_R800_1,0.351739649914,0.34160180287,1.32103645471,0.224790183935,-0.283149452646,0.142700236499,46795,1516841020,704000000,,-0.540456414223,0.481767684221,5.86028108955e-05,-1.19526684284,-6.00169878453e-05,1.46451747417,-0.540478348732,0
2018/01/25/10:47:35.041206,8384,1516841020,712000000,iiwa_link_0,46795,1516841020,712000000,iiwa_link_0,0.49999283828,-0.300001032641,0.500055428986,-4.02007277375e-05,1.0,-2.43845657012e-05,9.05840563152e-06,46796,1516841020,712000000,Flange of LBR_iiwa_7_R800_1,0.325301611918,0.331646529209,1.32023271791,0.223272996269,-0.277829461888,0.142239365341,46796,1516841020,711000000,,-0.540456295013,0.481767833233,5.8662808442e-05,-1.19526672363,-6.01128049311e-05,1.46451735497,-0.540478527546,0
2018/01/25/10:47:35.051292,8385,1516841020,726000000,iiwa_link_0,46797,1516841020,726000000,iiwa_link_0,0.499992859446,-0.300001062232,0.500055406831,-4.0205806822e-05,1.0,-2.44100345801e-05,9.00826718332e-06,46797,1516841020,719000000,Flange of LBR_iiwa_7_R800_1,0.306644474838,0.328341887084,1.32166978598,0.221962230717,-0.275751518838,0.142148264064,46798,1516841020,725000000,,-0.540456414223,0.481767833233,5.8662808442e-05,-1.19526684284,-6.01128049311e-05,1.46451747417,-0.540478348732,0
2018/01/25/10:47:35.061415,8386,1516841020,733000000,iiwa_link_0,46798,1516841020,733000000,iiwa_link_0,0.49999283228,-0.300001093816,0.500055465569,-4.01843118721e-05,1.0,-2.44782848252e-05,9.00223374031e-06,46798,1516841020,726000000,Flange of LBR_iiwa_7_R800_1,0.283191922464,0.319861539209,1.3197205131,0.221547410213,-0.273419284032,0.142179554251,46799,1516841020,732000000,,-0.540456295013,0.481767892838,5.8662808442e-05,-1.19526672363,-6.01128049311e-05,1.46451747417,-0.540478348732,0
2018/01/25/10:47:35.071398,8387,1516841020,746000000,iiwa_link_0,46800,1516841020,746000000,iiwa_link_0,0.499992830474,-0.300001027957,0.500055428985,-4.03504983169e-05,1.0,-2.43691608716e-05,9.03272609705e-06,46800,1516841020,740000000,Flange of LBR_iiwa_7_R800_1,0.273116578351,0.317596601143,1.32689593349,0.220416800376,-0.272053053547,0.142147438857,46801,1516841020,745000000,,-0.540456295013,0.481767833233,5.87226932112e-05,-1.19526684284,-6.01128049311e-05,1.46451747417,-0.540478646755,0
2018/01/25/10:47:35.081351,8388,1516841020,753000000,iiwa_link_0,46801,1516841020,753000000,iiwa_link_0,0.499992827383,-0.300001042993,0.500055476668,-4.02058048692e-05,1.0,-2.44100095148e-05,9.00821861647e-06,46801,1516841020,746000000,Flange of LBR_iiwa_7_R800_1,0.272189085195,0.324624912964,1.3223794761,0.220992670444,-0.27204506774,0.142448296117,46802,1516841020,752000000,,-0.540456414223,0.481767833233,5.8662808442e-05,-1.19526684284,-6.01128049311e-05,1.46451747417,-0.540478527546,0
2018/01/25/10:47:35.091476,8389,1516841020,760000000,iiwa_link_0,46802,1516841020,760000000,iiwa_link_0,0.499992860498,-0.300000950508,0.500055546571,-4.03821097515e-05,1.0,-2.44289565604e-05,9.06675436352e-06,46802,1516841020,753000000,Flange of LBR_iiwa_7_R800_1,0.279065351799,0.333450584285,1.32002126553,0.22317486871,-0.273947317054,0.142332878163,46803,1516841020,759000000,,-0.540456295013,0.481767684221,5.87226932112e-05,-1.19526684284,-6.01128049311e-05,1.46451747417,-0.540478527546,0
2018/01/25/10:47:35.101259,8390,1516841020,770000000,iiwa_link_0,46803,1516841020,770000000,iiwa_link_0,0.499992876123,-0.300000959883,0.500055546572,-4.02922262712e-05,1.0,-2.44597961676e-05,9.11815510019e-06,46804,1516841020,770000000,Flange of LBR_iiwa_7_R800_1,0.321988261782,0.356024316717,1.31573980985,0.225980242225,-0.281860392212,0.142475714063,46805,1516841020,776000000,,-0.540456295013,0.481767684221,5.87226932112e-05,-1.19526672363,-6.01128049311e-05,1.46451747417,-0.540478527546,0
2018/01/25/10:47:35.111331,8391,1516841020,784000000,iiwa_link_0,46805,1516841020,784000000,iiwa_link_0,0.499992790945,-0.300001021128,0.500055498887,-4.02956909546e-05,1.0,-2.44100129963e-05,9.00821481908e-06,46805,1516841020,777000000,Flange of LBR_iiwa_7_R800_1,0.346849231622,0.374306709948,1.31363728035,0.229304200008,-0.283725292088,0.142911717504,46806,1516841020,783000000,,-0.540456295013,0.481767684221,5.87226932112e-05,-1.19526684284,-5.99211671215e-05,1.46451747417,-0.540478348732,0
2018/01/25/10:47:35.121342,8392,1516841020,791000000,iiwa_link_0,46806,1516841020,791000000,iiwa_link_0,0.499992771288,-0.300001121819,0.50005557039,-4.01192783134e-05,1.0,-2.44681781538e-05,9.07813692738e-06,46807,1516841020,791000000,Flange of LBR_iiwa_7_R800_1,0.379231651578,0.383143129014,1.30551039571,0.231664441071,-0.28660775691,0.142702598992,46808,1516841020,797000000,,-0.540456295013,0.481767684221,5.8662808442e-05,-1.19526672363,-6.00169878453e-05,1.46451747417,-0.540478229523,0
2018/01/25/10:47:35.131321,8393,1516841020,805000000,iiwa_link_0,46808,1516841020,805000000,iiwa_link_0,0.499992780559,-0.300001158291,0.500055406829,-4.01826312336e-05,1.0,-2.44030104733e-05,8.94257249712e-06,46808,1516841020,798000000,Flange of LBR_iiwa_7_R800_1,0.38487817155,0.380440911706,1.31200514554,0.230516778126,-0.289317104312,0.142452479695,46809,1516841020,804000000,,-0.540456414223,0.481767684221,5.85429261264e-05,-1.19526672363,-6.01128049311e-05,1.46451747417,-0.540478348732,0
2018/01/25/10:47:35.141710,8394,1516841020,812000000,iiwa_link_0,46809,1516841020,812000000,iiwa_link_0,0.499992787058,-0.300001100316,0.500055428986,-4.01458673007e-05,1.0,-2.4410009727e-05,9.00821735009e-06,46810,1516841020,812000000,Flange of LBR_iiwa_7_R800_1,0.380653592094,0.367765109172,1.31392260293,0.228230112321,-0.286452403506,0.142690617402,46810,1516841020,811000000,,-0.540456414223,0.481767833233,5.86028108955e-05,-1.19526672363,-6.01128049311e-05,1.46451735497,-0.540478348732,0
2018/01/25/10:47:35.151326,8395,1516841020,825000000,iiwa_link_0,46811,1516841020,825000000,iiwa_link_0,0.499992778056,-0.300001078025,0.500055498887,-4.02905561915e-05,1.0,-2.44000048501e-05,9.08412136821e-06,46811,1516841020,818000000,Flange of LBR_iiwa_7_R800_1,0.379003721201,0.360937666604,1.31442296347,0.226498237716,-0.286044229395,0.142682323814,46812,1516841020,824000000,,-0.540456414223,0.481767743826,5.8662808442e-05,-1.19526672363,-6.00169878453e-05,1.46451747417,-0.540478527546,0
2018/01/25/10:47:35.161300,8396,1516841020,834000000,iiwa_link_0,46812,1516841020,834000000,iiwa_link_0,0.499992828485,-0.300001094265,0.50005547667,-4.01723999738e-05,1.0,-2.44443600126e-05,9.09243131796e-06,46812,1516841020,825000000,Flange of LBR_iiwa_7_R800_1,0.36857401891,0.350480990029,1.31470789971,0.227411540763,-0.283456534402,0.142954717218,46813,1516841020,833000000,,-0.540456414223,0.481767684221,5.8662808442e-05,-1.19526672363,-6.01128049311e-05,1.46451747417,-0.540478527546,0
2018/01/25/10:47:35.171459,8397,1516841020,841000000,iiwa_link_0,46813,1516841020,841000000,iiwa_link_0,0.499992785069,-0.300001068215,0.500055428986,-4.01724011174e-05,1.0,-2.43672726455e-05,8.96395855622e-06,46814,1516841020,841000000,Flange of LBR_iiwa_7_R800_1,0.342089642488,0.346149773318,1.3208079426,0.225259435163,-0.280969010211,0.142967758757,46815,1516841020,847000000,,-0.540456295013,0.481767684221,5.8662808442e-05,-1.19526684284,-6.01128049311e-05,1.46451747417,-0.540478527546,0
2018/01/25/10:47:35.181530,8398,1516841020,848000000,iiwa_link_0,46814,1516841020,848000000,iiwa_link_0,0.499992821034,-0.300001008275,0.500055428986,-4.03821133347e-05,1.0,-2.43672734502e-05,8.96395636723e-06,46815,1516841020,848000000,Flange of LBR_iiwa_7_R800_1,0.327010845292,0.335264054849,1.31900986795,0.223711423152,-0.278070291967,0.143397507138,46816,1516841020,857000000,,-0.540456295013,0.481767892838,5.8662808442e-05,-1.19526672363,-6.01128049311e-05,1.46451771259,-0.540478348732,0
2018/01/25/10:47:35.191370,8399,1516841020,864000000,iiwa_link_0,46816,1516841020,864000000,iiwa_link_0,0.499992864095,-0.300001017223,0.500055476669,-4.02272594394e-05,1.0,-2.43881036169e-05,9.09126783073e-06,46816,1516841020,858000000,Flange of LBR_iiwa_7_R800_1,0.314655096465,0.336395104334,1.32440128938,0.221747102556,-0.276709941667,0.143663819249,46817,1516841020,863000000,,-0.540456295013,0.481767952442,5.87226932112e-05,-1.19526684284,-6.01128049311e-05,1.46451747417,-0.540478348732,0
2018/01/25/10:47:35.201416,8400,1516841020,871000000,iiwa_link_0,46817,1516841020,871000000,iiwa_link_0,0.49999285592,-0.30000099543,0.500055476668,-4.02221772709e-05,1.0,-2.43164135222e-05,9.06438022473e-06,46818,1516841020,871000000,Flange of LBR_iiwa_7_R800_1,0.281926662033,0.313942730701,1.33331636838,0.220546634407,-0.272665155683,0.143582973902,46818,1516841020,870000000,,-0.540456295013,0.481767833233,5.88425755268e-05,-1.19526672363,-6.01128049311e-05,1.46451747417,-0.540478169918,0
2018/01/25/10:47:35.211473,8401,1516841020,885000000,iiwa_link_0,46819,1516841020,885000000,iiwa_link_0,0.499992863315,-0.300000983108,0.500055476668,-4.03555759349e-05,1.0,-2.44100097848e-05,9.00821788416e-06,46819,1516841020,878000000,Flange of LBR_iiwa_7_R800_1,0.273935831975,0.313323053458,1.33448734093,0.219486347475,-0.271969661229,0.143375953474,46820,1516841020,884000000,,-0.540456175804,0.481767833233,5.87226932112e-05,-1.19526672363,-6.00169878453e-05,1.46451735497,-0.540478527546,0
2018/01/25/10:47:35.221600,8402,1516841020,892000000,iiwa_link_0,46820,1516841020,892000000,iiwa_link_0,0.499992790945,-0.300001021128,0.500055498887,-4.02058064986e-05,1.0,-2.44100121865e-05,9.0082170132e-06,46820,1516841020,885000000,Flange of LBR_iiwa_7_R800_1,0.269301416546,0.319237975753,1.33927741577,0.219709225601,-0.273245127726,0.143118991404,46821,1516841020,891000000,,-0.540456295013,0.481767743826,5.87226932112e-05,-1.19526684284,-6.01128049311e-05,1.46451771259,-0.540478527546,0
2018/01/25/10:47:35.231330,8403,1516841020,905000000,iiwa_link_0,46822,1516841020,905000000,iiwa_link_0,0.499992834361,-0.300001047179,0.500055546572,-4.01458642058e-05,1.0,-2.4487099002e-05,9.13669124531e-06,46822,1516841020,899000000,Flange of LBR_iiwa_7_R800_1,0.294055921508,0.340881624318,1.32168326046,0.223766559576,-0.27701360288,0.143235979486,46823,1516841020,904000000,,-0.540456295013,0.481767684221,5.8662808442e-05,-1.19526684284,-6.01128049311e-05,1.46451747417,-0.540478348732,0
2018/01/25/10:47:35.241503,8404,1516841020,912000000,iiwa_link_0,46823,1516841020,912000000,iiwa_link_0,0.499992840191,-0.300001019769,0.500055546572,-4.02323396615e-05,1.0,-2.44597967137e-05,9.11815363539e-06,46823,1516841020,906000000,Flange of LBR_iiwa_7_R800_1,0.320767941117,0.35282614675,1.32129063093,0.226024285266,-0.281562662273,0.142821279288,46824,1516841020,911000000,,-0.540456295013,0.481767684221,5.87226932112e-05,-1.19526684284,-6.00169878453e-05,1.46451735497,-0.540478348732,0
2018/01/25/10:47:35.251316,8405,1516841020,925000000,iiwa_link_0,46825,1516841020,925000000,iiwa_link_0,0.499992761304,-0.300001115829,0.50005554657,-4.0209164071e-05,1.0,-2.44527726192e-05,9.0524589442e-06,46825,1516841020,919000000,Flange of LBR_iiwa_7_R800_1,0.374530075605,0.382867207147,1.31067632523,0.229559341733,-0.288899715048,0.142822967536,46826,1516841020,925000000,,-0.540456414223,0.481767684221,5.8662808442e-05,-1.19526672363,-6.01128049311e-05,1.46451723576,-0.540478348732,0
2018/01/25/10:47:35.261269,8406,1516841020,933000000,iiwa_link_0,46826,1516841020,933000000,iiwa_link_0,0.499992734341,-0.300001099651,0.500055428984,-4.0209166188e-05,1.0,-2.43448418012e-05,8.87258945914e-06,46826,1516841020,926000000,Flange of LBR_iiwa_7_R800_1,0.393961247005,0.391711980334,1.30854004295,0.232224846387,-0.291296309055,0.142938869563,46827,1516841020,931000000,,-0.540456295013,0.481767684221,5.87226932112e-05,-1.19526684284,-6.01128049311e-05,1.46451747417,-0.540478348732,0
2018/01/25/10:47:35.271302,8407,1516841020,943000000,iiwa_link_0,46827,1516841020,943000000,iiwa_link_0,0.499992787079,-0.300001080681,0.500055498887,-4.00628055883e-05,1.0,-2.44800729561e-05,9.07100114716e-06,46827,1516841020,933000000,Flange of LBR_iiwa_7_R800_1,0.404848138593,0.38993083086,1.3052807542,0.231183868412,-0.291644281775,0.143003778713,46828,1516841020,942000000,,-0.540456295013,0.481767684221,5.86028108955e-05,-1.19526672363,-6.01128049311e-05,1.46451735497,-0.540478527546,0
2018/01/25/10:47:35.281590,8408,1516841020,949000000,iiwa_link_0,46828,1516841020,949000000,iiwa_link_0,0.499992778917,-0.300001176877,0.50005547667,-4.01758630289e-05,1.0,-2.44562580288e-05,9.08528791058e-06,46829,1516841020,949000000,Flange of LBR_iiwa_7_R800_1,0.401372328479,0.375361060413,1.3117523537,0.228572229555,-0.288868777331,0.142745009486,46830,1516841020,955000000,,-0.540456414223,0.481767833233,5.8662808442e-05,-1.19526684284,-6.01128049311e-05,1.46451747417,-0.540478527546,0
2018/01/25/10:47:35.291295,8409,1516841020,963000000,iiwa_link_0,46830,1516841020,963000000,iiwa_link_0,0.499992828485,-0.300001094265,0.50005547667,-4.01723999738e-05,1.0,-2.44443600126e-05,9.09243131796e-06,46830,1516841020,956000000,Flange of LBR_iiwa_7_R800_1,0.384933825788,0.375074724976,1.31441933089,0.226015372651,-0.286563763362,0.142590551311,46831,1516841020,962000000,,-0.540456414223,0.481767684221,5.8662808442e-05,-1.19526672363,-6.01128049311e-05,1.46451747417,-0.540478348732,0
2018/01/25/10:47:35.301151,8410,1516841020,969000000,iiwa_link_0,46831,1516841020,969000000,iiwa_link_0,0.499992753826,-0.300001111341,0.500055346382,-4.01192867808e-05,1.0,-2.43602734256e-05,8.89831539438e-06,46832,1516841020,969000000,Flange of LBR_iiwa_7_R800_1,0.346504397104,0.344858735282,1.31782794656,0.224476404055,-0.281880246281,0.142612498515,46832,1516841020,968000000,,-0.540456473827,0.481767892838,5.8662808442e-05,-1.19526684284,-6.01128049311e-05,1.46451735497,-0.540478527546,0
2018/01/25/10:47:35.311357,8411,1516841020,985000000,iiwa_link_0,46833,1516841020,985000000,iiwa_link_0,0.49999284847,-0.300001007848,0.500055476668,-4.02272584666e-05,1.0,-2.43572631914e-05,9.03986929189e-06,46833,1516841020,977000000,Flange of LBR_iiwa_7_R800_1,0.342017440065,0.336943807376,1.32578219811,0.222994678242,-0.279736540655,0.142489258006,46834,1516841020,984000000,,-0.540456295013,0.481767833233,5.86028108955e-05,-1.19526672363,-6.01128049311e-05,1.46451735497,-0.540478527546,0
2018/01/25/10:47:35.321535,8412,1516841020,991000000,iiwa_link_0,46834,1516841020,991000000,iiwa_link_0,0.499992720552,-0.300001077332,0.500055381301,-4.01509579178e-05,1.0,-2.43430060014e-05,8.80379047121e-06,46835,1516841020,991000000,Flange of LBR_iiwa_7_R800_1,0.32380410274,0.334596020759,1.32673935703,0.223561619965,-0.277614806891,0.142680293066,46835,1516841020,990000000,,-0.540456414223,0.481767833233,5.87226932112e-05,-1.19526672363,-6.01128049311e-05,1.46451771259,-0.540478527546,0
2018/01/25/10:47:35.331267,8413,1516841021,5000000,iiwa_link_0,46836,1516841021,5000000,iiwa_link_0,0.499992868316,-0.300000974773,0.50005547667,-4.03753420361e-05,1.0,-2.43742986953e-05,9.0296486583e-06,46836,1516841020,998000000,Flange of LBR_iiwa_7_R800_1,0.317389231628,0.333167304301,1.32528206792,0.222718570348,-0.277185880961,0.142754906944,46837,1516841021,4000000,,-0.540456295013,0.481767833233,5.88425755268e-05,-1.19526684284,-6.01128049311e-05,1.46451747417,-0.540478348732,0
2018/01/25/10:47:35.341342,8414,1516841021,12000000,iiwa_link_0,46837,1516841021,12000000,iiwa_link_0,0.499992856644,-0.300001029642,0.50005547667,-4.02323406378e-05,1.0,-2.44289532861e-05,9.06675689805e-06,46837,1516841021,5000000,Flange of LBR_iiwa_7_R800_1,0.30986505172,0.334863128649,1.32334289116,0.221896138372,-0.277364671652,0.142678429573,46838,1516841021,11000000,,-0.540456295013,0.481767833233,5.87226932112e-05,-1.19526672363,-6.00169878453e-05,1.46451747417,-0.540478348732,0
2018/01/25/10:47:35.351526,8415,1516841021,19000000,iiwa_link_0,46838,1516841021,19000000,iiwa_link_0,0.499992828345,-0.300000950788,0.500055381303,-4.03753472532e-05,1.0,-2.43126171857e-05,8.92685197607e-06,46838,1516841021,12000000,Flange of LBR_iiwa_7_R800_1,0.308401923722,0.336087147973,1.32815343519,0.222290285185,-0.277340226477,0.142595110427,46839,1516841021,17000000,,-0.540456295013,0.481767833233,5.87226932112e-05,-1.19526684284,-5.99211671215e-05,1.46451747417,-0.540478348732,0
2018/01/25/10:47:35.361272,8416,1516841021,36000000,iiwa_link_0,46840,1516841021,36000000,iiwa_link_0,0.499992855414,-0.300000913679,0.500055498887,-4.02820655115e-05,1.0,-2.43164156541e-05,9.06438007604e-06,46840,1516841021,28000000,Flange of LBR_iiwa_7_R800_1,0.31630358768,0.343533497381,1.32212009395,0.224481412596,-0.278776826542,0.142578220162,46841,1516841021,35000000,,-0.540456175804,0.481767833233,5.88425755268e-05,-1.19526684284,-6.01128049311e-05,1.46451747417,-0.540478348732,0
2018/01/25/10:47:35.371319,8417,1516841021,43000000,iiwa_link_0,46841,1516841021,43000000,iiwa_link_0,0.499992784735,-0.300001031478,0.500055498886,-4.02640266322e-05,1.0,-2.43810816505e-05,9.02557301087e-06,46841,1516841021,36000000,Flange of LBR_iiwa_7_R800_1,0.325932985823,0.343892483474,1.31748614091,0.225855496518,-0.279967009581,0.142656424972,46842,1516841021,42000000,,-0.540456295013,0.481767684221,5.8662808442e-05,-1.19526684284,-6.01128049311e-05,1.46451747417,-0.540478527546,0
2018/01/25/10:47:35.381621,8418,1516841021,56000000,iiwa_link_0,46843,1516841021,56000000,iiwa_link_0,0.499992823705,-0.300001071752,0.500055500488,-4.02691048986e-05,1.0,-2.4437334996e-05,9.02673945845e-06,46843,1516841021,49000000,Flange of LBR_iiwa_7_R800_1,0.351009683849,0.364716612661,1.31932284497,0.226515882023,-0.284287361028,0.142640584992,46844,1516841021,55000000,,-0.540456295013,0.481767684221,5.8662808442e-05,-1.19526672363,-6.00169878453e-05,1.46451747417,-0.540478527546,0
2018/01/25/10:47:35.391186,8419,1516841021,63000000,iiwa_link_0,46844,1516841021,63000000,iiwa_link_0,0.499992774965,-0.300001093061,0.500055546571,-4.02357471969e-05,1.0,-2.44408542982e-05,9.05961169275e-06,46844,1516841021,56000000,Flange of LBR_iiwa_7_R800_1,0.358102973295,0.374100916143,1.31378282052,0.228029240637,-0.286069702101,0.142757710754,46845,1516841021,62000000,,-0.540456473827,0.481767684221,5.86028108955e-05,-1.19526672363,-6.01128049311e-05,1.46451747417,-0.540478348732,0
2018/01/25/10:47:35.401251,8420,1516841021,70000000,iiwa_link_0,46845,1516841021,70000000,iiwa_link_0,0.499992768616,-0.300001058342,0.500055498888,-4.01724001417e-05,1.0,-2.43981160761e-05,9.01535529172e-06,46846,1516841021,70000000,Flange of LBR_iiwa_7_R800_1,0.378460623072,0.374561571396,1.30826634805,0.229568791453,-0.287027888399,0.142996350242,46846,1516841021,69000000,,-0.540456473827,0.481767565012,5.8662808442e-05,-1.19526672363,-6.01128049311e-05,1.46451771259,-0.540478527546,0
2018/01/25/10:47:35.411131,8421,1516841021,83000000,iiwa_link_0,46847,1516841021,83000000,iiwa_link_0,0.499992774965,-0.300001093061,0.500055546571,-4.01458627411e-05,1.0,-2.4440853484e-05,9.05961388964e-06,46847,1516841021,76000000,Flange of LBR_iiwa_7_R800_1,0.382626480536,0.375945623017,1.30629212468,0.229288149373,-0.286188165266,0.142821792225,46848,1516841021,82000000,,-0.540456295013,0.481767833233,5.86028108955e-05,-1.19526684284,-5.99211671215e-05,1.46451747417,-0.540478527546,0
2018/01/25/10:47:35.421442,8422,1516841021,90000000,iiwa_link_0,46848,1516841021,90000000,iiwa_link_0,0.499992770293,-0.300001138143,0.500055476668,-4.02142554994e-05,1.0,-2.44628532585e-05,8.97650662207e-06,46849,1516841021,90000000,Flange of LBR_iiwa_7_R800_1,0.368631042346,0.360374762937,1.318569607,0.227898000542,-0.284604917548,0.143172989358,46849,1516841021,89000000,,-0.540456473827,0.481767833233,5.86028108955e-05,-1.19526672363,-6.01128049311e-05,1.46451747417,-0.540478527546,0
2018/01/25/10:47:35.431355,8423,1516841021,104000000,iiwa_link_0,46850,1516841021,104000000,iiwa_link_0,0.499992793737,-0.300001053769,0.500055428985,-4.01792243492e-05,1.0,-2.43910870826e-05,8.94966752828e-06,46850,1516841021,97000000,Flange of LBR_iiwa_7_R800_1,0.359704101328,0.355902309847,1.31452254343,0.225843020502,-0.28261234124,0.143175787189,46851,1516841021,103000000,,-0.540456295013,0.481767833233,5.86028108955e-05,-1.19526684284,-6.01128049311e-05,1.46451747417,-0.540478169918,0
2018/01/25/10:47:35.441438,8424,1516841021,114000000,iiwa_link_0,46851,1516841021,114000000,iiwa_link_0,0.499992852329,-0.300001010163,0.500055394067,-4.03770335954e-05,1.0,-2.4341856533e-05,9.01419085729e-06,46851,1516841021,104000000,Flange of LBR_iiwa_7_R800_1,0.349180836107,0.341716236792,1.31698789616,0.224338353743,-0.282305977856,0.14300293544,46852,1516841021,112000000,,-0.540456354618,0.481767892838,5.87226932112e-05,-1.19526684284,-6.02087966399e-05,1.46451735497,-0.540478527546,0
2018/01/25/10:47:35.451458,8425,1516841021,120000000,iiwa_link_0,46852,1516841021,120000000,iiwa_link_0,0.499992797603,-0.300000994217,0.500055428984,-4.03222252614e-05,1.0,-2.43210263002e-05,8.88688340658e-06,46852,1516841021,114000000,Flange of LBR_iiwa_7_R800_1,0.330413196721,0.33953546504,1.31931973674,0.22339372679,-0.280646492449,0.142913612876,46853,1516841021,119000000,,-0.540456295013,0.481767892838,5.87226932112e-05,-1.19526684284,-6.01128049311e-05,1.46451771259,-0.540478527546,0
2018/01/25/10:47:35.461390,8426,1516841021,134000000,iiwa_link_0,46854,1516841021,134000000,iiwa_link_0,0.499992840096,-0.30000095784,0.500055463969,-4.03753441569e-05,1.0,-2.43588936904e-05,9.00397206711e-06,46854,1516841021,127000000,Flange of LBR_iiwa_7_R800_1,0.321175421199,0.336996100551,1.31575359015,0.223631616012,-0.278614925008,0.142952199999,46855,1516841021,133000000,,-0.540456295013,0.481767833233,5.87226932112e-05,-1.19526684284,-6.01128049311e-05,1.46451747417,-0.540478348732,0
2018/01/25/10:47:35.471425,8427,1516841021,141000000,iiwa_link_0,46855,1516841021,141000000,iiwa_link_0,0.499992836659,-0.30000101765,0.500055428986,-4.02323432446e-05,1.0,-2.43981125333e-05,9.0153585558e-06,46855,1516841021,134000000,Flange of LBR_iiwa_7_R800_1,0.322455196723,0.342386000734,1.32286189758,0.222308672296,-0.278835717837,0.142883216114,46856,1516841021,140000000,,-0.540456295013,0.481767833233,5.8662808442e-05,-1.19526672363,-6.01128049311e-05,1.46451747417,-0.540478527546,0
2018/01/25/10:47:35.481413,8428,1516841021,155000000,iiwa_link_0,46857,1516841021,155000000,iiwa_link_0,0.499992785069,-0.300001068215,0.500055428986,-4.01724011174e-05,1.0,-2.43672726455e-05,8.96395855622e-06,46857,1516841021,148000000,Flange of LBR_iiwa_7_R800_1,0.325397676479,0.342453476675,1.32200141456,0.224438650022,-0.278930500163,0.142866358634,46858,1516841021,154000000,,-0.540456295013,0.481767833233,5.87226932112e-05,-1.19526672363,-6.02087966399e-05,1.46451747417,-0.540478169918,0
2018/01/25/10:47:35.491311,8429,1516841021,162000000,iiwa_link_0,46858,1516841021,162000000,iiwa_link_0,0.49999284833,-0.30000096278,0.500055428987,-4.01955757322e-05,1.0,-2.43434563267e-05,8.97825469346e-06,46858,1516841021,155000000,Flange of LBR_iiwa_7_R800_1,0.325661990566,0.343542249136,1.32396562727,0.224245682943,-0.279463124303,0.142951927532,46859,1516841021,161000000,,-0.540456295013,0.481767833233,5.88425755268e-05,-1.19526672363,-6.00169878453e-05,1.46451771259,-0.540478527546,0
2018/01/25/10:47:35.501388,8430,1516841021,169000000,iiwa_link_0,46859,1516841021,169000000,iiwa_link_0,0.499992821034,-0.300001008275,0.500055428986,-4.0232342269e-05,1.0,-2.43672721081e-05,8.9639600168e-06,46860,1516841021,169000000,Flange of LBR_iiwa_7_R800_1,0.32908154749,0.35056348517,1.31448300943,0.225593593701,-0.281012281995,0.14289596585,46860,1516841021,168000000,,-0.540456295013,0.481767833233,5.87226932112e-05,-1.19526672363,-6.00169878453e-05,1.46451747417,-0.540478348732,0
2018/01/25/10:47:35.511363,8431,1516841021,183000000,iiwa_link_0,46861,1516841021,183000000,iiwa_link_0,0.499992836659,-0.30000101765,0.500055428986,-4.01424587886e-05,1.0,-2.43981117231e-05,9.01536074885e-06,46861,1516841021,177000000,Flange of LBR_iiwa_7_R800_1,0.330362655947,0.352927753513,1.31807954132,0.225142928212,-0.28222268093,0.142707487546,46862,1516841021,182000000,,-0.540456295013,0.481767833233,5.8662808442e-05,-1.19526672363,-6.00169878453e-05,1.46451735497,-0.540478348732,0
2018/01/25/10:47:35.521351,8432,1516841021,190000000,iiwa_link_0,46862,1516841021,190000000,iiwa_link_0,0.499992730036,-0.300001106826,0.500055428984,-4.01159215548e-05,1.0,-2.433292295e-05,8.87974366505e-06,46862,1516841021,183000000,Flange of LBR_iiwa_7_R800_1,0.334517285298,0.355237412578,1.31934718018,0.225139266047,-0.282558488434,0.142807585958,46863,1516841021,189000000,,-0.540456295013,0.481767833233,5.87226932112e-05,-1.19526672363,-6.01128049311e-05,1.46451735497,-0.540478527546,0
2018/01/25/10:47:35.531600,8433,1516841021,200000000,iiwa_link_0,46863,1516841021,200000000,iiwa_link_0,0.499992813722,-0.300001065761,0.500055476668,-4.02691061999e-05,1.0,-2.44219286473e-05,9.00106367369e-06,46864,1516841021,200000000,Flange of LBR_iiwa_7_R800_1,0.343916025101,0.35217952591,1.31494573532,0.226862926208,-0.282905249463,0.143514092617,46864,1516841021,199000000,,-0.540456414223,0.481767833233,5.8662808442e-05,-1.19526684284,-6.01128049311e-05,1.46451747417,-0.540478527546,0
2018/01/25/10:47:35.541293,8434,1516841021,214000000,iiwa_link_0,46865,1516841021,214000000,iiwa_link_0,0.499992815617,-0.300001033117,0.500055498887,-4.0258946894e-05,1.0,-2.43864786031e-05,9.12715836671e-06,46865,1516841021,207000000,Flange of LBR_iiwa_7_R800_1,0.349342657089,0.361493331796,1.3197818281,0.225088067058,-0.283988282498,0.14332630102,46866,1516841021,212000000,,-0.540456414223,0.481767684221,5.8662808442e-05,-1.19526684284,-6.01128049311e-05,1.46451747417,-0.540478348732,0
2018/01/25/10:47:35.551596,8435,1516841021,220000000,iiwa_link_0,46866,1516841021,220000000,iiwa_link_0,0.499992777757,-0.300001125701,0.500055476668,-4.01192805925e-05,1.0,-2.44219283778e-05,9.00106440503e-06,46867,1516841021,220000000,Flange of LBR_iiwa_7_R800_1,0.353447689873,0.351659743279,1.31754603821,0.226556262285,-0.283623655491,0.143478044536,46867,1516841021,219000000,,-0.540456354618,0.481767684221,5.86028108955e-05,-1.19526684284,-6.00169878453e-05,1.46451747417,-0.540478348732,0
2018/01/25/10:47:35.561288,8436,1516841021,234000000,iiwa_link_0,46868,1516841021,234000000,iiwa_link_0,0.499992792622,-0.300001100929,0.500055476668,-4.0157777402e-05,1.0,-2.44747485667e-05,8.96937054351e-06,46868,1516841021,227000000,Flange of LBR_iiwa_7_R800_1,0.354318087991,0.349828176623,1.31346802799,0.22550109823,-0.282584828579,0.143540804469,46869,1516841021,233000000,,-0.540456354618,0.481767833233,5.86028108955e-05,-1.19526684284,-6.01128049311e-05,1.46451735497,-0.540478527546,0
2018/01/25/10:47:35.571321,8437,1516841021,242000000,iiwa_link_0,46869,1516841021,242000000,iiwa_link_0,0.499992757299,-0.300001031904,0.500055451203,-4.00893415208e-05,1.0,-2.43910889473e-05,8.94966811907e-06,46869,1516841021,235000000,Flange of LBR_iiwa_7_R800_1,0.350830042287,0.342414992465,1.32096494106,0.225537243656,-0.282867054718,0.143523241054,46870,1516841021,241000000,,-0.540456295013,0.481767833233,5.85429261264e-05,-1.19526696205,-6.01128049311e-05,1.46451747417,-0.540478348732,0
2018/01/25/10:47:35.581682,8438,1516841021,250000000,iiwa_link_0,46870,1516841021,250000000,iiwa_link_0,0.499992811402,-0.300001016517,0.500055476667,-4.02007222135e-05,1.0,-2.43229132369e-05,8.95565512781e-06,46871,1516841021,250000000,Flange of LBR_iiwa_7_R800_1,0.334566478772,0.339157783103,1.32065278841,0.224553119533,-0.281127892484,0.143263762503,46871,1516841021,248000000,,-0.540456295013,0.481767833233,5.8662808442e-05,-1.19526684284,-5.99211671215e-05,1.46451747417,-0.540478229523,0
2018/01/25/10:47:35.591306,8439,1516841021,264000000,iiwa_link_0,46872,1516841021,264000000,iiwa_link_0,0.499992793737,-0.300001053769,0.500055428985,-4.02691088053e-05,1.0,-2.4391087887e-05,8.94966533586e-06,46872,1516841021,257000000,Flange of LBR_iiwa_7_R800_1,0.32470228454,0.342987080796,1.32328660754,0.223799486894,-0.280435606276,0.142937598021,46873,1516841021,263000000,,-0.540456414223,0.481767833233,5.86028108955e-05,-1.19526684284,-6.01128049311e-05,1.46451735497,-0.540478527546,0
2018/01/25/10:47:35.601305,8440,1516841021,272000000,iiwa_link_0,46873,1516841021,272000000,iiwa_link_0,0.499992805054,-0.300001080207,0.500055476669,-4.03221695764e-05,1.0,-2.43981147515e-05,9.01535324244e-06,46873,1516841021,264000000,Flange of LBR_iiwa_7_R800_1,0.324117203827,0.343372020192,1.31649867568,0.224861951927,-0.278406743018,0.143211380323,46874,1516841021,269000000,,-0.540456414223,0.481767833233,5.87226932112e-05,-1.19526672363,-6.00169878453e-05,1.46451771259,-0.540478527546,0
2018/01/25/10:47:35.611214,8441,1516841021,278000000,iiwa_link_0,46874,1516841021,278000000,iiwa_link_0,0.499992797603,-0.300000994217,0.500055428984,-4.02323408054e-05,1.0,-2.43210255017e-05,8.88688559269e-06,46874,1516841021,272000000,Flange of LBR_iiwa_7_R800_1,0.320996132805,0.34685153053,1.3221352596,0.224679053501,-0.279054843108,0.143428635437,46875,1516841021,277000000,,-0.540456295013,0.481767833233,5.8662808442e-05,-1.19526684284,-6.01128049311e-05,1.46451735497,-0.540478527546,0
2018/01/25/10:47:35.621615,8442,1516841021,288000000,iiwa_link_0,46875,1516841021,288000000,iiwa_link_0,0.499992823705,-0.300001071752,0.500055500488,-4.02691048986e-05,1.0,-2.4437334996e-05,9.02673945845e-06,46876,1516841021,288000000,Flange of LBR_iiwa_7_R800_1,0.320754152229,0.344455728655,1.32100666063,0.225165628342,-0.279507900504,0.143137484779,46877,1516841021,294000000,,-0.540456295013,0.481767833233,5.87226932112e-05,-1.19526684284,-6.01128049311e-05,1.46451747417,-0.540478646755,0
2018/01/25/10:47:35.631246,8443,1516841021,302000000,iiwa_link_0,46877,1516841021,302000000,iiwa_link_0,0.499992817588,-0.300001006209,0.500055476668,-4.0172397047e-05,1.0,-2.43518657187e-05,8.93828539464e-06,46877,1516841021,295000000,Flange of LBR_iiwa_7_R800_1,0.32207034135,0.349769246743,1.31240490073,0.225178907405,-0.279442739268,0.143102783156,46878,1516841021,301000000,,-0.540456295013,0.481767833233,5.8662808442e-05,-1.19526672363,-6.01128049311e-05,1.46451747417,-0.540478348732,0
2018/01/25/10:47:35.641484,8444,1516841021,309000000,iiwa_link_0,46878,1516841021,309000000,iiwa_link_0,0.499992828624,-0.300001040924,0.500055476667,-4.03188304187e-05,1.0,-2.43402298574e-05,9.05008409363e-06,46879,1516841021,309000000,Flange of LBR_iiwa_7_R800_1,0.32599071519,0.357345423192,1.32039007603,0.226082634729,-0.279819040665,0.142990755571,46880,1516841021,314000000,,-0.540456175804,0.481767684221,5.8662808442e-05,-1.19526684284,-6.01128049311e-05,1.46451735497,-0.540478527546,0
